Branch,Location,Latitude,Longitude
동부산관광단지점,부산광역시 기장군 기장읍 기장해안로 128,35.19011173,129.2136751
카페드롭탑국제여객터미널,부산광역시 동구 충장대로 206,35.11995513,129.049829
부산화명점,부산광역시 북구 금곡대로303번길 25,35.23543854,129.0120498
부전동점,부산광역시 부산진구 중앙대로 747,35.15939243,129.0600383
덕천우창웰스점,부산광역시 북구 기찰로 164,35.21407443,129.0229218
남천동점,부산광역시 수영구 황령대로473번길 15,35.14010871,129.1067435
부산프리미엄아울렛점,부산광역시 기장군 장안읍 정관로 1133,35.32374828,129.2349705
서면점,부산광역시 부산진구 중앙대로691번가길 5,35.15461538,129.0558715
하단아트몰링점,부산광역시 사하구 낙동남로 1413,35.10682916,128.9665592
부산역사점,부산광역시 동구 중앙대로 206,35.11762547,129.0450818
부산동아대점,부산광역시 사하구 낙동대로550번길 24,35.11309379,128.9654484
카페드롭탑정관,부산광역시 기장군 정관읍 정관7로 17-3,35.32197414,129.1769852
드롭탑덕천점,부산광역시 북구 기찰로 164,35.21407443,129.0229218
부산국제여객터미널점,부산광역시 동구 충장대로 168,35.11768338,129.0467281
부산연산역점,부산광역시 연제구 반송로 6,35.18624486,129.082456
청주성안길점,충청북도 청주시 상당구 상당로 47,36.63263523,127.4903701
충주코레스코점,충청북도 충주시 수안보면 주정산로 49,36.84575108,127.9878086
충북옥천점,충청북도 옥천군 옥천읍 삼금로4길 6,36.30156202,127.5670772
충주휴게소양평방면,충청북도 충주시 중앙탑면 중부내륙고속도로 230-1,37.02405585,127.8379973
천안안서점,충청남도 천안시 동남구 각원사길 146,36.83111059,127.186708
공주법원점,충청남도 공주시 한적2길 39,36.47785833,127.1399969
드롭탑천안성정,충청남도 천안시 서북구 성정두정로 12,36.82656641,127.1415135
정안휴게소드롭탑,충청남도 공주시 정안면 논산천안고속도로 57,36.57079301,127.112008
정안알밤휴게소순천방면,충청남도 공주시 정안면 논산천안고속도로 57,36.57079301,127.112008
대천휴게소서울방면,충청남도 보령시 주교면 서해안고속도로 200,36.37436401,126.5583519
대천휴게소목포방면,충청남도 보령시 주교면 서해안고속도로 199,36.37301723,126.5557803
모다아울렛천안아산점,충청남도 천안시 서북구 공원로 196,36.79892256,127.1017729
보림로지스틱스천안이엑스,충청남도 천안시 동남구 쉼1길 42,36.78706236,127.1737625
금산인삼랜드휴게소통영방면,충청남도 금산군 군북면 어필각로 300,36.15382271,127.4951418
동대구역사점,대구광역시 동구 동대구로 550,35.87909757,128.6287261
대구호림점,대구광역시 달서구 달서대로 435,35.83818617,128.4914989
대구메가맥스타워점,대구광역시 동구 팔공로49길 51,35.92068242,128.6359251
롯데마트대구율하점,대구광역시 동구 안심로 80,35.86847601,128.693344
대구시지신매점,대구광역시 수성구 달구벌대로 3300-1,35.83628897,128.716552
동촌유원지점,대구광역시 동구 효동로6길 86,35.88152566,128.6517375
대구병원점,대구광역시 북구 학정로 515,35.95083912,128.5640261
대구반월당메디스퀘어점,대구광역시 중구 달구벌대로 2094,35.86529267,128.5926078
홈플러스대구내당점,대구광역시 서구 달구벌대로 1821,35.86033004,128.5637496
논공휴게소광주방면,대구광역시 달성군 논공읍 광주대구고속도로 169,35.7670318,128.402519
동촌홈플러스점,대구광역시 동구 동촌로 127,35.88618207,128.6556743
논공드롭탑,대구광역시 달성군 논공읍 광주대구고속도로 170,35.76576868,128.4028886
영풍문고대구백화점점,대구광역시 중구 동성로 30,35.86931478,128.5958048
홈플러스대구상인점,대구광역시 달서구 월배로 183,35.81829008,128.5325657
대구명덕역점,대구광역시 중구 중앙대로 271,35.85768587,128.5907021
대구두산위브더제니스점,대구광역시 수성구 달구벌대로 2435,35.86100137,128.6282843
롯데슈퍼대구수성점,대구광역시 수성구 수성로 227,35.84562958,35.84562958
경북대학교북문점,대구광역시 북구 대학로 77,35.89236006,35.89236006
신암점,대구광역시 동구 신암로18길 1,35.87810886,128.6124938
덕명점,대전광역시 유성구 현충원로 288,36.36000662,127.3034748
한밭대점,대전광역시 유성구 학하중앙로 5,36.34898451,127.297334
대전을지병원점,대전광역시 서구 대덕대로234번길 24,36.35334912,127.380913
대전은행동점,대전광역시 중구 중앙로164번길 42,36.32753118,127.428543
대전오류점,대전광역시 중구 오류로 24,36.32268484,127.4050229
대전만인산점,대전광역시 동구 산내로 190,36.20483826,127.4430144
신탄진휴게소점,대전광역시 대덕구 산업단지로 27,36.42812529,127.4185725
가온산업개발드롭탑만인산점,대전광역시 동구 산내로 190,36.20483826,127.4430144
대흥동점,대전광역시 중구 중앙로138번길 17,36.32764358,127.4256685
신탄진상휴게소드롭탑커피코너,대전광역시 대덕구 산업단지로 27,36.42812529,127.4185725
카이스트점,대전광역시 유성구 대학로 291,36.36817525,127.3571373
신성점,대전광역시 유성구 유성대로1184번길 11-27,36.39496455,127.352937
월평점,대전광역시 서구 계룡로264번길 41,36.35320881,127.3611042
대전세이브존점,대전광역시 서구 둔산로 201,36.35510448,127.3981468
관평점,대전광역시 유성구 테크노1로 12-14,36.43056662,127.387717
속초엑스포점,강원도 속초시 엑스포로 45,38.19102365,128.5863217
드롭탑동해휴게소하행점,강원도 동해시 동해대로 6437,37.60185053,129.0741497
속초점,강원도 속초시 엑스포로 51,38.19103596,128.5856597
강릉항점,강원도 강릉시 창해로14번길 51-20,37.77238144,128.9510142
드롭탑속초엑스포점,강원도 속초시 엑스포로 51,38.19103596,128.5856597
삼척해변점,강원도 삼척시 테마타운길 19,37.46668893,129.1705159
원주법원점,강원도 원주시 능라동길 61,37.33414693,127.9312144
강원양구점,강원도 양구군 양구읍 양록길 102,38.10635251,127.9896318
서창산업옥계휴게소,강원도 강릉시 옥계면 동해고속도로 320,37.61631303,129.0600969
문막휴게소강릉방면,강원도 원주시 문막읍 원문로 1234,37.33526243,127.8582091
횡성휴게소인천방면,강원도 횡성군 안흥면 영동고속도로 154,37.4625608,128.1345414
원주기업도시점,강원도 원주시 지정면 신지정로 202,37.37452414,127.8744509
강릉안목해변점,강원도 강릉시 창해로14번길 16,37.77291059,128.9468438
광주하남2지구점,광주광역시 광산구 용아로399번길 51,35.17712818,126.8031551
광주롯데시네마충장점,광주광역시 동구 충장로안길 12,35.1480442,126.9145434
풍암호수점,광주광역시 서구 회재로 970,35.12529337,126.8692263
두암점,광주광역시 북구 동문대로 146,35.17559833,126.9275487
금호점,광주광역시 서구 금화로 59,35.13225795,126.8554476
광주호남대점,광주광역시 광산구 호남대길 90,35.15003754,126.7667761
용봉점,광주광역시 북구 용봉택지로 51,35.17876805,126.892145
양산점,광주광역시 북구 양산제로 3,35.19994725,126.8751657
광주학동점,광주광역시 동구 남문로 716-5,35.1344699,126.9277811
쌍암공원점,광주광역시 광산구 첨단중앙로182번길 24,35.22167578,126.8441538
광주패밀리랜드점,광주광역시 북구 우치로 677,35.22430715,126.8942616
광주송정점,광주광역시 광산구 송정로 55,35.13520854,126.7971305
광주첨단2지구점,광주광역시 북구 첨단연신로108번길 120,35.20940408,126.8646896
드롭탑광주학동점,광주광역시 동구 남문로 716-5,35.1344699,126.9277811
광주롯데시네마충장점,광주광역시 동구 충장로안길 12,35.1480442,126.9145434
M광주상무중앙,광주광역시 서구 상무중앙로 57,35.15211578,126.8478712
롯데마트월드컵점,광주광역시 서구 금화로 240,35.13363859,126.8748605
전대후문,광주광역시 북구 우치로 92,35.17557447,126.9127395
광주한국병원점,광주광역시 서구 월드컵4강로 223,35.15587851,126.8683752
전남대의대점,광주광역시 동구 백서로 160,35.14315556,126.9232887
광주상무중앙점,광주광역시 서구 상무중앙로 57,35.15211578,126.8478712
광주매월점,광주광역시 서구 전평길 41,35.11764316,126.8474901
부천역점1,경기도 부천시 부일로 448,37.48596736,126.7801152
시흥배곧점,경기도 시흥시 배곧4로 6,37.37857941,126.7253113
서창산업이천하휴게소카페드롭탑,경기도 이천시 마장면 중부대로609번길 244-35,37.26456741,127.403636
구리휴게소일산방면,경기도 구리시 수도권제1순환고속도로 32,37.62778465,127.1393498
미캄슈즈,경기도 고양시 일산서구 대화로 362,37.68358605,126.7463549
김포사우점,경기도 김포시 돌문로 50-12,37.61994068,126.7180298
드롭탑일산대화점,경기도 고양시 일산서구 대산로 360,37.68530075,126.7415417
용인수지구청점,경기도 용인시 수지구 수지로296번길 51-10,37.3216882,127.0952841
우림개발용인하휴게소카페드롭탑,경기도 용인시 처인구 주북로94번길 30-1,37.24551473,127.2423198
용인휴게소인천방면,경기도 용인시 처인구 주북로 66-16,37.24808467,127.2369849
용인휴게소강릉방면,경기도 용인시 처인구 주북로94번길 30-1,37.24551473,127.2423198
롯데마트영통점,경기도 수원시 영통구 봉영로 1579,37.25273395,127.0716479
양주휴게소점,경기도 양주시 장흥면 수도권제1순환고속도로 58,37.67919244,126.9157628
하나로마트고양점,경기도 고양시 일산서구 대화로 362,37.68358605,126.7463549
일산대화점,경기도 고양시 일산서구 대산로 360,37.68524537,126.7414179
남양주별내점,경기도 남양주시 별내2로 74,37.64687513,127.1255199
가운점,경기도 남양주시 경춘로 368,37.60460116,127.1556199
매송하휴게소카페드롭탑,경기도 화성시 매송면 서해안고속도로 315,37.26441939,126.8884115
시흥시화병원점,경기도 시흥시 군자천로 381,37.34994282,126.7369583
파주야당점,경기도 파주시 소리천로8번길 60,37.71142798,126.7600741
이천휴게소통영방면,경기도 이천시 마장면 중부대로609번길 244-35,37.26456741,127.403636
안성휴게소부산방면,경기도 안성시 원곡면 경부고속도로 365,37.01357794,127.1447072
여주휴게소인천방면,경기도 여주시 가남읍 화평길 116,37.23980644,127.567969
평택고덕점,경기도 평택시 고덕면 고덕여염12길 60,37.04207705,127.0517366
시흥오이도박물관점,경기도 시흥시 오이도로 332,37.33517322,126.6912439
용인역북점,경기도 용인시 처인구 중부대로 1294,37.23546983,127.1882901
포항유강점,경상북도 포항시 남구 연일읍 유강길 10,36.00459047,129.319638
경주노동점,경상북도 경주시 동성로 122-3,35.8429577,129.2138012
경산점,경상북도 경산시 강변동로 260,35.83296557,128.7340655
옥계점,경상북도 구미시 산호대로31길 6,36.13670221,128.4223429
경주분황사점,경상북도 경주시 분황로 101,35.84163975,129.2325986
에스에스유통선산휴게소상지점,경상북도 구미시 옥성면 중부내륙고속도로 128,36.27808532,128.2491571
경주황룡원점,경상북도 경주시 엑스포로 40,35.83695267,129.2901702
신경주역사점,경상북도 경주시 건천읍 신경주역로 80,35.79809889,129.1394161
터미널점,경상북도 구미시 송원동로 58-7,36.12169933,128.3514539
인구미역점,경상북도 구미시 구미중앙로 76,36.12833717,128.3309523
신경주역드롭탑,경상북도 경주시 건천읍 신경주역로 80,35.79809889,129.1394161
김천율곡스퀘어점,경상북도 김천시 혁신3로 5,36.11795563,128.1833323
청송갤러리점,경상북도 청송군 청송읍 중앙로 451,36.44294703,129.0754456
에스에스유통선산휴게소하지점,경상북도 구미시 옥성면 중부내륙고속도로 129,36.27524605,128.2492817
포항장량점,경상북도 포항시 북구 법원로 162,36.08915766,129.3878713
대현건천휴게소점,경상북도 경주시 건천읍 대경로 3969,35.84530249,129.1150623
문경휴게소창원방면,경상북도 문경시 중부내륙고속도로 173,36.62051804,128.1499347
구미역점,경상북도 구미시 구미중앙로 76,36.12833717,128.3309523
포항흥해점,경상북도 포항시 북구 흥해읍 소티재로 364,36.08160017,129.3432509
포항대잠점,경상북도 포항시 남구 중섬로 16,36.01405826,129.346774
포항이동점,경상북도 포항시 남구 포스코대로 96,36.02502611,129.336321
주왕산국립공원점,경상북도 청송군 주왕산면 공원길 171,36.39269392,129.1435514
철길숲점,경상북도 포항시 북구 양학로9번길 12-1,36.02398337,36.02398337
김해장유점,경상남도 김해시 번화1로76번길 24,35.19479772,128.8023031
혁신점,경상남도 진주시 사들로156번길 3,35.18182218,128.1495075
거제중곡점,경상남도 거제시 중곡로3길 35,34.8935538,128.6265189
통영점,경상남도 통영시 무전6길 46,34.85807481,128.4258413
김해장유CGV점,경상남도 김해시 삼문로 12,35.19195025,128.8021543
창원평화오피스텔점,경상남도 창원시 성산구 중앙대로 111,35.22479779,128.679883
창원상남점,경상남도 창원시 성산구 마디미로64번길 3,35.21946185,128.6814092
홈플러스인천계산점,인천광역시 계양구 오조산공원로 14,37.53945903,126.736167
세종병원점,인천광역시 계양구 계양문화로 20,37.53252831,126.7368384
LF스퀘어인천연수점,인천광역시 연수구 용담로 14,37.41929103,126.6683169
제주공항점,제주특별자치도 제주시 공항로 2,33.50592635,126.4960074
누웨모루점,제주특별자치도 제주시 연동7길 24,33.48773003,126.4905979
제주삼성점,제주특별자치도 제주시 광양1길 2,33.50398315,126.527121
드롭탑제주협재점,제주특별자치도 제주시 한림읍 한림로 450,33.4001839,126.2494848
제주협재해안점,제주특별자치도 제주시 한림읍 한림로 450,33.4001839,126.2494848
신시가지점,전라북도 전주시 완산구 효자로 161,35.81940977,127.10258
전북대점,전라북도 전주시 덕진구 명륜4길 22,35.84359393,127.1273363
전주공항터미널점,전라북도 전주시 덕진구 가리내로 21,35.83401371,127.1336616
고창웰파크병원점,전라북도 고창군 고창읍 석정2로 147,35.43139154,126.7376238
고창고인돌휴게소상행점,전라북도 고창군 고창읍 서해안고속도로 80,35.46191593,126.6734155
고창고인돌휴게소하행점,전라북도 고창군 신림면 서해안고속도로 81,35.4685629,126.6738021
커피상휴게소,전라북도 고창군 고창읍 서해안고속도로 80,35.46191593,126.6734155
전북고창점,전라북도 고창군 고창읍 중앙로 126,35.43511092,126.6891194
익산역점,전라북도 익산시 익산대로 153,35.94186108,126.9473165
전주아중점,전라북도 전주시 덕진구 아중로 203,35.82815951,35.82815951
전북대점,전라북도 전주시 덕진구 명륜4길 22,35.84359393,127.1273363
드롭탑전주만성점,전라북도 전주시 덕진구 만성중앙로 54-30,35.84135492,127.0761869
전주공항터미널점,전라북도 전주시 덕진구 가리내로 21,35.83404043,127.1336171
수송점,전라북도 군산시 월명로 216,35.96313321,126.7160888
군산키움아동병원점,전라북도 군산시 궁포안2길 24,35.97658809,126.7441117
여산휴게소순천방면,전라북도 익산시 여산면 호남고속도로 191,36.04770905,127.1028149
전주만성점,전라북도 전주시 덕진구 만성중앙로 54-30,35.84135492,127.0761869
덕유산휴게소점,전라북도 무주군 안성면 통영대전고속도로 148,35.81763206,127.6458239
백양사휴게소점,전라남도 장성군 북일면 호남고속도로 108,35.39299183,126.8074151
전남해남점,전라남도 해남군 해남읍 남부순환로 2,34.57056291,126.6068081
목포하당점,전라남도 목포시 비파로 46,34.80286066,34.80286066
여수죽림점,전라남도 여수시 소라면 죽림중앙로 42,34.7641372,127.6374052
순천성가롤로점,전라남도 순천시 해룡면 순광로 234-9,34.96380774,127.5465371
전남화순점,전라남도 화순군 화순읍 중앙로 93-8,35.06105132,126.9919539
용해점,전라남도 목포시 연산백련로 4-4,34.81768086,126.3935398
드롭탑2호점,전라남도 장흥군 장흥읍 중앙로 50-2,34.6803572,126.9073914
여수예술랜드,전라남도 여수시 돌산읍 무술목길 142-1,34.69469821,127.7780632
나주빛가람점,전라남도 나주시 상야2길 22,35.02156016,126.7879387
신대점,전라남도 순천시 해룡면 향매로 135,34.93264507,127.5541193
목포옥암점,전라남도 목포시 남악1로52번길 27,34.81115839,126.4479718
목포석현점,전라남도 목포시 석현로 2,34.81547002,126.4215838
정남진장흥2호점,전라남도 장흥군 장흥읍 중앙로 50-2,34.6803572,126.9073914
지리산노고단점,전라남도 구례군 산동면 노고단로 1068,35.30558559,127.5111767
나주점,전라남도 나주시 대호길 76,35.04285256,126.7179285
드롭탑강진점,전라남도 강진군 강진읍 탐진로 73,34.63910527,126.76466
전남강진점,전라남도 강진군 강진읍 탐진로 73,34.63910527,126.76466
영광점,전라남도 영광군 법성면 법성포로 57,35.35849584,126.4428598
순천역점,전라남도 순천시 팔마로 130,34.9451818,127.5023554
여수CGV웅천점,전라남도 여수시 웅천로 19-35,34.74871163,127.6788233
전남보성점,전라남도 보성군 보성읍 중앙로 97,34.77009286,127.080376
남악점,전라남도 무안군 삼향읍 남악4로 49,34.81000286,126.4655997
영광점,전라남도 영광군 법성면 법성포로 57,35.35849584,126.4428598
드롭탑목포석현점,전라남도 목포시 석현로 2,34.81547016,126.4215947
여수웅천씨지브이점,전라남도 여수시 웅천로 19-35,34.74871163,127.6788233
중마점,전라남도 광양시 중동로 75-2,34.94146012,127.6970238
여수예술랜드미디어아트관점,전라남도 여수시 돌산읍 무술목길 142-1,34.69502026,127.776698
전남구례점,전라남도 구례군 구례읍 봉성로 68,35.20828812,127.4646759
보성율포점,전라남도 보성군 회천면 남부관광로 2315,34.67009128,127.0861525
세종특별자치시 대평로 71,세종특별자치시 대평로 71,36.47327089,127.2772216
세종시청점,세종 보람동 700-71,36.4777615,127.2879009
도담점,세종 보듬8로 35,36.5183302,127.2628315
위더스영등포점,서울특별시 영등포구 영중로 55,37.5213192,126.904646
엘지사이언스,서울특별시 강서구 마곡중앙10로 30,37.56390789,126.8310034
경희의료원치과병원점,서울특별시 동대문구 경희대로 23,37.59376645,127.0507252
서여의도점,서울특별시 영등포구 국회대로70길 7,37.52998351,126.9198951
세종로점,서울특별시 종로구 세종대로 189,37.57341752,126.975939
M합정역점,서울특별시 마포구 양화로 72,37.5507577,126.9165284
방이사거리점,서울특별시 송파구 백제고분로 459,37.51169419,127.1127001
합정역점,서울특별시 마포구 양화로 72,37.5507577,126.9165284
선유도파크호텔점,서울특별시 영등포구 양평로 136,37.53866417,126.8930431
마곡파인스퀘어점,서울특별시 강서구 마곡중앙4로 22,37.55826828,126.8292693
울산테라스파크점,울산광역시 동구 방어진순환도로 652,35.49988315,129.4288563
울산굴화점,울산광역시 남구 울밀로 2906,35.55462086,129.2649061
홈플러스울산동구점,울산광역시 동구 방어진순환도로 637,35.49898894,129.4274959
