{
  "__collections__": {
    "PB": [
      {
        "Branch": "철원동송",
        "Location": "강원 철원군 동송읍 금학로218번길 1",
        "Latitude": 38.2082715,
        "Longitude": 127.2183714
      },
      {
        "Branch": "신철원터미널",
        "Location": "강원 철원군 갈말읍 지포리 47-5",
        "Latitude": 38.1451141,
        "Longitude": 127.307723
      },
      {
        "Branch": "김화",
        "Location": "강원 철원군 서면 와수로 171-1",
        "Latitude": 38.2388843,
        "Longitude": 127.4379592
      },
      {
        "Branch": "화천2호",
        "Location": "강원도 화천군 사내면 사내로 40",
        "Latitude": 38.0714739,
        "Longitude": 127.521417
      },
      {
        "Branch": "화천",
        "Location": "강원도 화천군 화천읍 중앙로 15",
        "Latitude": 38.1045912,
        "Longitude": 127.7059704
      },
      {
        "Branch": "춘천강북",
        "Location": "강원도 춘천시 충열로 10-15 우두동",
        "Latitude": 37.9004151,
        "Longitude": 127.7291469
      },
      {
        "Branch": "춘천온의",
        "Location": "강원도 춘천시 영서로 2347-1",
        "Latitude": 37.8689957,
        "Longitude": 127.7155375
      },
      {
        "Branch": "춘천신성",
        "Location": "강원도 춘천시 근화동 291-20",
        "Latitude": 37.8722898,
        "Longitude": 127.720307
      },
      {
        "Branch": "춘천명동",
        "Location": "강원도 춘천시 금강로 54 1,2,3층",
        "Latitude": 37.8801115,
        "Longitude": 127.7277778
      },
      {
        "Branch": "남춘천역사",
        "Location": "강원도 춘천시 영서로 2260",
        "Latitude": 37.8640372,
        "Longitude": 127.7238442
      },
      {
        "Branch": "남춘천",
        "Location": "강원 춘천시 행촌로 29",
        "Latitude": 37.8595513,
        "Longitude": 127.7240755
      },
      {
        "Branch": "춘천한림대",
        "Location": "강원 춘천시 삭주로 96",
        "Latitude": 37.8835503,
        "Longitude": 127.7414359
      },
      {
        "Branch": "춘천한숲",
        "Location": "강원도 춘천시 안마산로 115",
        "Latitude": 37.8558764,
        "Longitude": 127.7293468
      },
      {
        "Branch": "춘천장학",
        "Location": "강원도 춘천시 동면 춘천로 449번길 3",
        "Latitude": 37.8948581,
        "Longitude": 127.7537979
      },
      {
        "Branch": "춘천포스코",
        "Location": "강원 춘천시 춘천로296번길 3",
        "Latitude": 37.8810336,
        "Longitude": 127.7461598
      },
      {
        "Branch": "춘천주공랜드마크",
        "Location": "강원 춘천시 퇴계로 175",
        "Latitude": 37.8581902,
        "Longitude": 127.7383283
      },
      {
        "Branch": "춘천후평",
        "Location": "강원도 춘천시 후평동 796-2",
        "Latitude": 37.8774282,
        "Longitude": 127.7513918
      },
      {
        "Branch": "춘천퇴계",
        "Location": "강원 춘천시 안마산로 199",
        "Latitude": 37.8505455,
        "Longitude": 127.7364456
      },
      {
        "Branch": "춘천봄내",
        "Location": "강원도 춘천시 퇴계로 229 1층",
        "Latitude": 37.8562076,
        "Longitude": 127.7438063
      },
      {
        "Branch": "춘천만천",
        "Location": "강원도 춘천시 동면 만천로 135",
        "Latitude": 37.8813996,
        "Longitude": 127.7599698
      },
      {
        "Branch": "춘천석사퇴계CGV",
        "Location": "강원도 춘천시 퇴계농공로 16",
        "Latitude": 37.8518263,
        "Longitude": 127.7443321
      },
      {
        "Branch": "춘천석사",
        "Location": "강원 춘천시 후석로186번길 14",
        "Latitude": 37.867306,
        "Longitude": 127.7537849
      },
      {
        "Branch": "춘천거두",
        "Location": "강원 춘천시 동내면 춘천순환로 58 메디피아빌딩 1층",
        "Latitude": 37.8551213,
        "Longitude": 127.7503301
      },
      {
        "Branch": "양구",
        "Location": "강원도 양구군 양구읍 상리 333-22",
        "Latitude": 38.106592,
        "Longitude": 127.9891473
      },
      {
        "Branch": "서홍천농협",
        "Location": "강원 홍천군 남면 시동로 62 서홍천농협",
        "Latitude": 37.6103551,
        "Longitude": 127.7712204
      },
      {
        "Branch": "홍천연봉",
        "Location": "강원 홍천군 홍천읍 연봉로 33",
        "Latitude": 37.6819822,
        "Longitude": 127.877628
      },
      {
        "Branch": "홍천",
        "Location": "강원 홍천군 홍천읍 번영로 38",
        "Latitude": 37.6898389,
        "Longitude": 127.8844791
      },
      {
        "Branch": "홍천갈마",
        "Location": "강원 홍천군 홍천읍 공작산로 45",
        "Latitude": 37.6918458,
        "Longitude": 127.8978262
      },
      {
        "Branch": "원통",
        "Location": "강원도 인제군 북면 원통리 645-20",
        "Latitude": 38.1222538,
        "Longitude": 128.2035938
      },
      {
        "Branch": "인제",
        "Location": "강원 인제군 인제읍 비봉로 9-1",
        "Latitude": 38.0683082,
        "Longitude": 128.1727006
      },
      {
        "Branch": "거진",
        "Location": "강원도 고성군 거진읍 거진길 40",
        "Latitude": 38.4473008,
        "Longitude": 128.4550326
      },
      {
        "Branch": "간성",
        "Location": "강원도 고성군 간성읍 간성로 37-1",
        "Latitude": 38.3788921,
        "Longitude": 128.4708861
      },
      {
        "Branch": "문막천사마트",
        "Location": "강원도 원주시 건등로 62 천사마트 내 1층",
        "Latitude": 37.3147395,
        "Longitude": 127.8225958
      },
      {
        "Branch": "문막동화",
        "Location": "강원도 원주시 문막읍 왕건로 46",
        "Latitude": 37.3237318,
        "Longitude": 127.8293395
      },
      {
        "Branch": "원주기업이지더원",
        "Location": "강원도 원주시 지정면 가곡리 1495-1",
        "Latitude": 37.3827153,
        "Longitude": 127.8726672
      },
      {
        "Branch": "원주롯데캐슬",
        "Location": "강원 원주시 지정면 가곡로 70-1 102호",
        "Latitude": 37.3778522,
        "Longitude": 127.8764209
      },
      {
        "Branch": "횡성축협하나로마트",
        "Location": "강원도 횡성군 횡성읍 횡성로 337 횡성축협한우프라자 내 1층",
        "Latitude": 37.4838374,
        "Longitude": 127.9814229
      },
      {
        "Branch": "횡성",
        "Location": "강원도 횡성군 횡성읍 삼일로 3 1층",
        "Latitude": 37.4897909,
        "Longitude": 127.9863812
      },
      {
        "Branch": "원주기지",
        "Location": "강원 원주시 소초면 북원로 3223 공군8비장병복합체육관 지상1층",
        "Latitude": 37.4290184,
        "Longitude": 127.9671023
      },
      {
        "Branch": "원주우산",
        "Location": "강원 원주시 우산로 69",
        "Latitude": 37.369695,
        "Longitude": 127.9366747
      },
      {
        "Branch": "원주시청",
        "Location": "강원도 원주시 무실동 만대로 89 무실 e-편한세상 106호",
        "Latitude": 37.3377155,
        "Longitude": 127.9189653
      },
      {
        "Branch": "원주이안",
        "Location": "강원 원주시 모란1길 70 106호",
        "Latitude": 37.3617393,
        "Longitude": 127.9333489
      },
      {
        "Branch": "원주태장",
        "Location": "강원 원주시 북원로 2694",
        "Latitude": 37.3840122,
        "Longitude": 127.9477196
      },
      {
        "Branch": "원주단계",
        "Location": "강원 원주시 백간길 74 라이프타운 103,104,106호",
        "Latitude": 37.351796,
        "Longitude": 127.9314166
      },
      {
        "Branch": "원주무실",
        "Location": "강원 원주시 시청로 84",
        "Latitude": 37.3363633,
        "Longitude": 127.9280529
      },
      {
        "Branch": "원주무실세영",
        "Location": "강원도 원주시 무실로 382",
        "Latitude": 37.3301948,
        "Longitude": 127.9274568
      },
      {
        "Branch": "무실휴먼시아",
        "Location": "강원도 원주시 무실동 1782-3",
        "Latitude": 37.3375547,
        "Longitude": 127.9323501
      },
      {
        "Branch": "원주원동",
        "Location": "강원 원주시 무실로 169 .",
        "Latitude": 37.3412141,
        "Longitude": 127.9403233
      },
      {
        "Branch": "원주1호",
        "Location": "강원 원주시 원일로115번길 5",
        "Latitude": 37.3495865,
        "Longitude": 127.9480168
      },
      {
        "Branch": "원주청구",
        "Location": "강원도 원주시 남원로 441-3 구곡청구아파트",
        "Latitude": 37.3253866,
        "Longitude": 127.9404627
      },
      {
        "Branch": "원주남부",
        "Location": "강원 원주시 남원로 671",
        "Latitude": 37.3424591,
        "Longitude": 127.9544838
      },
      {
        "Branch": "원주시범",
        "Location": "강원 원주시 서원대로 396 스타월드 1층",
        "Latitude": 37.3307485,
        "Longitude": 127.9488651
      },
      {
        "Branch": "원주개운",
        "Location": "강원 원주시 개운로 30 106호",
        "Latitude": 37.3382367,
        "Longitude": 127.9547041
      },
      {
        "Branch": "원주단구",
        "Location": "강원 원주시 단구로 422",
        "Latitude": 37.3214432,
        "Longitude": 127.9519291
      },
      {
        "Branch": "원주삼익",
        "Location": "강원 원주시 행구로 80",
        "Latitude": 37.3416242,
        "Longitude": 127.9660423
      },
      {
        "Branch": "원주반곡",
        "Location": "강원 원주시 늘품로 187-58 111호",
        "Latitude": 37.3373386,
        "Longitude": 127.964062
      },
      {
        "Branch": "원주단관",
        "Location": "강원 원주시 단구로 388",
        "Latitude": 37.3221765,
        "Longitude": 127.9560247
      },
      {
        "Branch": "원주관설",
        "Location": "강원도 원주시 시청로 494-14",
        "Latitude": 37.3149876,
        "Longitude": 127.9614951
      },
      {
        "Branch": "원주혁신도시",
        "Location": "강원도 원주시 혁신로 53",
        "Latitude": 37.3234965,
        "Longitude": 127.9799833
      },
      {
        "Branch": "원주혁신도시중앙",
        "Location": "강원도 원주시 양지로 50 대준빌딩 1층 107호",
        "Latitude": 37.3261651,
        "Longitude": 127.9841344
      },
      {
        "Branch": "속초현대",
        "Location": "강원도 속초시 미시령로3395",
        "Latitude": 38.2075022,
        "Longitude": 128.5774134
      },
      {
        "Branch": "속초동부",
        "Location": "강원도 속초시 미시령로3395번길 4 현대아파트",
        "Latitude": 38.2075022,
        "Longitude": 128.5774134
      },
      {
        "Branch": "속초노학",
        "Location": "강원도 속초시 동해대로4270",
        "Latitude": 38.1982256,
        "Longitude": 128.5743203
      },
      {
        "Branch": "속초엑스포",
        "Location": "강원도 속초시 동해대로 4147",
        "Latitude": 38.1895574,
        "Longitude": 128.5805187
      },
      {
        "Branch": "속초중앙로",
        "Location": "강원도 속초시 중앙로127",
        "Latitude": 38.2027849,
        "Longitude": 128.5900198
      },
      {
        "Branch": "속초조양",
        "Location": "강원도 속초시 선사로 1",
        "Latitude": 38.1870391,
        "Longitude": 128.5922701
      },
      {
        "Branch": "속초대포항",
        "Location": "강원도 속초시 대포항길 20",
        "Latitude": 38.1742508,
        "Longitude": 128.605554
      },
      {
        "Branch": "강원둔내",
        "Location": "강원 횡성군 둔내면 둔내로 48",
        "Latitude": 37.5123957,
        "Longitude": 128.2160029
      },
      {
        "Branch": "양양",
        "Location": "강원도 양양군 양양읍 양양로 17",
        "Latitude": 38.0778294,
        "Longitude": 128.6263953
      },
      {
        "Branch": "휘닉스파크",
        "Location": "강원도 평창군 봉평면 면온리 1095번지",
        "Latitude": 37.5812733,
        "Longitude": 128.3273392
      },
      {
        "Branch": "강원진부",
        "Location": "강원도 평창군 진부면 진부중앙로 82",
        "Latitude": 37.6383726,
        "Longitude": 128.5598671
      },
      {
        "Branch": "강원평창",
        "Location": "강원 평창군 평창읍 백오로 104",
        "Latitude": 37.3675685,
        "Longitude": 128.3957237
      },
      {
        "Branch": "주문진",
        "Location": "강원도 강릉시 주문진읍 주문로 79-1",
        "Latitude": 37.8910019,
        "Longitude": 128.82592
      },
      {
        "Branch": "PB횡계",
        "Location": "강원 평창군 대관령면 횡계리 365-32 제 1층",
        "Latitude": 37.6723987,
        "Longitude": 128.706971
      },
      {
        "Branch": "영월행복",
        "Location": "강원도 영월군 영월읍 하송로 126",
        "Latitude": 37.1786002,
        "Longitude": 128.4581949
      },
      {
        "Branch": "영월",
        "Location": "강원도 영월군 영월읍 중앙1로 29",
        "Latitude": 37.1838358,
        "Longitude": 128.465596
      },
      {
        "Branch": "강릉유천",
        "Location": "강릉시 선수촌로 77",
        "Latitude": 37.7578212,
        "Longitude": 128.869989
      },
      {
        "Branch": "강릉솔올",
        "Location": "강원도 강릉시 솔올로 74",
        "Latitude": 37.7682636,
        "Longitude": 128.8791046
      },
      {
        "Branch": "강릉교동",
        "Location": "강원도 강릉시 솔올로 17",
        "Latitude": 37.7635182,
        "Longitude": 128.8774738
      },
      {
        "Branch": "강릉내곡",
        "Location": "강원도 강릉시 범일로 645",
        "Latitude": 37.7450666,
        "Longitude": 128.8835278
      },
      {
        "Branch": "강원정선",
        "Location": "강원 정선군 정선읍 봉양6길 32",
        "Latitude": 37.3803722,
        "Longitude": 128.6636232
      },
      {
        "Branch": "강릉사랑",
        "Location": "강원도 강릉시 경강로 2098",
        "Latitude": 37.75465,
        "Longitude": 128.8964387
      },
      {
        "Branch": "강릉초당",
        "Location": "강원도 강릉시 연당길 62",
        "Latitude": 37.7834071,
        "Longitude": 128.9160582
      },
      {
        "Branch": "강릉포남",
        "Location": "강원도 강릉시 하평길 34",
        "Latitude": 37.7701615,
        "Longitude": 128.9123561
      },
      {
        "Branch": "강릉입암",
        "Location": "강원도 강릉시 월대산로 71",
        "Latitude": 37.7600999,
        "Longitude": 128.9182534
      },
      {
        "Branch": "강릉송정",
        "Location": "강원도 강릉시 경강로2477번길 4",
        "Latitude": 37.7753751,
        "Longitude": 128.930975
      },
      {
        "Branch": "정선사북",
        "Location": "강원도 정선군 사북읍 사북중앙로 33 1층",
        "Latitude": 37.2272104,
        "Longitude": 128.818418
      },
      {
        "Branch": "정선고한",
        "Location": "강원도 정선군 고한읍 고한6길 1 1층",
        "Latitude": 37.2009429,
        "Longitude": 128.8536384
      },
      {
        "Branch": "동해묵호",
        "Location": "강원도 동해시 발한로 225 1층",
        "Latitude": 37.5494355,
        "Longitude": 129.1084844
      },
      {
        "Branch": "동해천곡",
        "Location": "강원도 동해시 천곡로 14 1층",
        "Latitude": 37.5251057,
        "Longitude": 129.1067814
      },
      {
        "Branch": "동해평릉",
        "Location": "강원도 동해시 평원로 110 1층",
        "Latitude": 37.5333552,
        "Longitude": 129.1136712
      },
      {
        "Branch": "동해",
        "Location": "강원도 동해시 중앙로 237 삼양골든빌딩 102",
        "Latitude": 37.5220356,
        "Longitude": 129.113774
      },
      {
        "Branch": "동해천곡중앙",
        "Location": "강원도 동해시 중앙로 150 1층",
        "Latitude": 37.5148781,
        "Longitude": 129.1190903
      },
      {
        "Branch": "동해효가",
        "Location": "강원도 동해시 청운1길 51-1 거성빌딩 1층",
        "Latitude": 37.4862817,
        "Longitude": 129.1089965
      },
      {
        "Branch": "동해이도동",
        "Location": "강원도 동해시 이도동 165-2",
        "Latitude": 37.4797106,
        "Longitude": 129.1124484
      },
      {
        "Branch": "태백중앙",
        "Location": "강원도 태백시 황지로 155 1층",
        "Latitude": 37.1725328,
        "Longitude": 128.992074
      },
      {
        "Branch": "태백",
        "Location": "강원도 태백시 반딧불길 3 1층",
        "Latitude": 37.1589315,
        "Longitude": 128.9875233
      },
      {
        "Branch": "삼척사랑",
        "Location": "강원도 삼척시 진주로 15 현대타운 1층",
        "Latitude": 37.4420617,
        "Longitude": 129.1638122
      },
      {
        "Branch": "삼척교동",
        "Location": "강원도 삼척시 정상로 74 1층",
        "Latitude": 37.4483469,
        "Longitude": 129.1752696
      },
      {
        "Branch": "삼척도계",
        "Location": "강원도 삼척시 도계읍 도계우회로2길",
        "Latitude": 37.2372433,
        "Longitude": 129.0466201
      },
      {
        "Branch": "태백장성",
        "Location": "강원도 태백시 장성로 35-2 1층",
        "Latitude": 37.1018458,
        "Longitude": 129.009855
      },
      {
        "Branch": "김포통진",
        "Location": "경기도 김포시 통진읍 서암리 761-3",
        "Latitude": 37.6927331,
        "Longitude": 126.5976327
      },
      {
        "Branch": "김포양곡",
        "Location": "경기도 김포시 양촌읍 양곡리 1306-2 현대메디컬프라자 1층 105호",
        "Latitude": 37.6551597,
        "Longitude": 126.6278112
      },
      {
        "Branch": "김포구래",
        "Location": "경기도 김포시 구래동 6884-8 센트럴프라자 101,102호",
        "Latitude": 37.6433537,
        "Longitude": 126.6254933
      },
      {
        "Branch": "김포호수마을",
        "Location": "경기도 김포시 구래동 6874-6 호수마을이편한세상 164",
        "Latitude": 37.6478987,
        "Longitude": 126.6295944
      },
      {
        "Branch": "김포솔터마을",
        "Location": "경기도 김포시 마산동 615-1",
        "Latitude": 37.6430909,
        "Longitude": 126.6345827
      },
      {
        "Branch": "김포은여울마을",
        "Location": "경기도 김포시 마산동 648-5 한강스퀘어빌딩 107",
        "Latitude": 37.6369802,
        "Longitude": 126.6434136
      },
      {
        "Branch": "당동현대",
        "Location": "경기 파주시 문산읍 방촌로 1725 1층",
        "Latitude": 37.8667558,
        "Longitude": 126.7847346
      },
      {
        "Branch": "한강노블레스",
        "Location": "경기도 김포시 김포한강2로 232",
        "Latitude": 37.6455669,
        "Longitude": 126.6607275
      },
      {
        "Branch": "파주LCD",
        "Location": "경기도 파주시 월롱면 덕은리 1250-4",
        "Latitude": 37.8116789,
        "Longitude": 126.7573263
      },
      {
        "Branch": "문산",
        "Location": "경기 파주시 문산읍 문향로 68",
        "Latitude": 37.8578637,
        "Longitude": 126.7853608
      },
      {
        "Branch": "김포청송마을",
        "Location": "경기 김포시 장기동 1324 현대쇼핑센타 101호",
        "Latitude": 37.6478127,
        "Longitude": 126.6667671
      },
      {
        "Branch": "교하동문",
        "Location": "경기 파주시 숲속노을로 271 고산프라자 1층",
        "Latitude": 37.724662,
        "Longitude": 126.7110518
      },
      {
        "Branch": "장기신도시",
        "Location": "경기도 김포시 장기동 1602",
        "Latitude": 37.6449397,
        "Longitude": 126.6664417
      },
      {
        "Branch": "교하로데오",
        "Location": "경기 파주시 청석로 272",
        "Latitude": 37.7261179,
        "Longitude": 126.717702
      },
      {
        "Branch": "문산선유",
        "Location": "경기 파주시 문산읍 독서울1길 39 문산선유3단지 휴먼시아 1층",
        "Latitude": 37.866291,
        "Longitude": 126.8005675
      },
      {
        "Branch": "김포초당마을",
        "Location": "경기도 김포시 장기동 2065-1 초당마을우남퍼스트빌 528동",
        "Latitude": 37.637132,
        "Longitude": 126.6723695
      },
      {
        "Branch": "김포운양",
        "Location": "경기도 김포시 김포한강1로 227 광장프라자 123,124호",
        "Latitude": 37.6541524,
        "Longitude": 126.6825743
      },
      {
        "Branch": "파주야동",
        "Location": "경기 파주시 평화로 274",
        "Latitude": 37.7732596,
        "Longitude": 126.7517698
      },
      {
        "Branch": "김포월드",
        "Location": "경기도 김포시 김포한강11로 133 중앙프라자 104,105호",
        "Latitude": 37.6457654,
        "Longitude": 126.6813809
      },
      {
        "Branch": "김포예가",
        "Location": "경기 김포시 장기동 2004-4",
        "Latitude": 37.642252,
        "Longitude": 126.68073
      },
      {
        "Branch": "김포자이",
        "Location": "경기도 김포시 태장로 845",
        "Latitude": 37.6336716,
        "Longitude": 126.6784641
      },
      {
        "Branch": "운정홈플러스",
        "Location": "경기 파주시 청암로17번길 33",
        "Latitude": 37.7287093,
        "Longitude": 126.7363864
      },
      {
        "Branch": "운정아이파크",
        "Location": "경기도 파주시 심학산로 384",
        "Latitude": 37.7154404,
        "Longitude": 126.7344643
      },
      {
        "Branch": "운정산내마을",
        "Location": "경기 파주시 심학산로423번길 7-33",
        "Latitude": 37.719434,
        "Longitude": 126.7372442
      },
      {
        "Branch": "일산가좌",
        "Location": "경기도 고양시 일산서구 가좌동 405-1",
        "Latitude": 37.6873489,
        "Longitude": 126.7190714
      },
      {
        "Branch": "동두천",
        "Location": "인천시 서구 완정로36",
        "Latitude": 37.595933,
        "Longitude": 126.6702576
      },
      {
        "Branch": "운정해솔",
        "Location": "경기 파주시 미래로 610 운정메디컬프라자 1층",
        "Latitude": 37.7316232,
        "Longitude": 126.7514601
      },
      {
        "Branch": "파주팜스",
        "Location": "경기 파주시 시청로 190 이마트에브리데이 1층",
        "Latitude": 37.7707633,
        "Longitude": 126.7780145
      },
      {
        "Branch": "금촌역",
        "Location": "경기 파주시 문화로 111-1",
        "Latitude": 37.7641457,
        "Longitude": 126.7742089
      },
      {
        "Branch": "운정가람마을",
        "Location": "경기 파주시 가람로 70 가람마을4단지 한양수자인 1층",
        "Latitude": 37.7342279,
        "Longitude": 126.7575302
      },
      {
        "Branch": "금촌로데오",
        "Location": "경기도 파주시 금빛로 24-28",
        "Latitude": 37.7516261,
        "Longitude": 126.7683281
      },
      {
        "Branch": "운정이마트",
        "Location": "경기 파주시 미래로 377",
        "Latitude": 37.7117382,
        "Longitude": 126.7458928
      },
      {
        "Branch": "운정지산",
        "Location": "경기도 파주시 와동동 1365-3 신운정프라자 108호",
        "Latitude": 37.7236493,
        "Longitude": 126.7531441
      },
      {
        "Branch": "걸포메트로자이",
        "Location": "경기 김포시 걸포2로 83",
        "Latitude": 37.6331164,
        "Longitude": 126.7010503
      },
      {
        "Branch": "파주금촌",
        "Location": "경기 파주시 후곡로 3 104호",
        "Latitude": 37.7571649,
        "Longitude": 126.7740307
      },
      {
        "Branch": "김포신감정",
        "Location": "경기도 김포시 감정동 528-1 1층101,102호",
        "Latitude": 37.6231246,
        "Longitude": 126.6990588
      },
      {
        "Branch": "김포걸포",
        "Location": "경기도 김포시 걸포동 294-53",
        "Latitude": 37.6349906,
        "Longitude": 126.7061833
      },
      {
        "Branch": "운정타운",
        "Location": "경기 파주시 가람로116번길 45 퍼스트삼융 104호",
        "Latitude": 37.7353517,
        "Longitude": 126.7642622
      },
      {
        "Branch": "김포북변",
        "Location": "경기 김포시 북변동 753",
        "Latitude": 37.6288651,
        "Longitude": 126.7032916
      },
      {
        "Branch": "운정역",
        "Location": "경기도 파주시 와동동 1454",
        "Latitude": 37.7290219,
        "Longitude": 126.7611785
      },
      {
        "Branch": "운정야당",
        "Location": "경기 파주시 와석순환로 66",
        "Latitude": 37.7103341,
        "Longitude": 126.7517387
      },
      {
        "Branch": "파주운정",
        "Location": "경기 파주시 와석순환로 507 월드타워 105호 , 106호",
        "Latitude": 37.724584,
        "Longitude": 126.7619143
      },
      {
        "Branch": "일산대화마을",
        "Location": "경기 고양시 일산서구 송포로 26",
        "Latitude": 37.6691308,
        "Longitude": 126.7332341
      },
      {
        "Branch": "야당역",
        "Location": "경기도 파주시 야당동 1066 삼융시네마 117호",
        "Latitude": 37.7131712,
        "Longitude": 126.7599312
      },
      {
        "Branch": "일산덕이",
        "Location": "경기 고양시 일산서구 하이파크3로 84",
        "Latitude": 37.6990573,
        "Longitude": 126.7532102
      },
      {
        "Branch": "대화역",
        "Location": "경기도 고양시 일산서구 중앙로 1567",
        "Latitude": 37.6757497,
        "Longitude": 126.7474962
      },
      {
        "Branch": "김포시청",
        "Location": "경기도 김포시 사우동 237번지",
        "Latitude": 37.6192894,
        "Longitude": 126.717425
      },
      {
        "Branch": "탄현큰마을",
        "Location": "경기 고양시 일산서구 일현로 137",
        "Latitude": 37.6989894,
        "Longitude": 126.7655717
      },
      {
        "Branch": "김포사우",
        "Location": "경기도 김포시 사우동 875 103, 104호",
        "Latitude": 37.6218706,
        "Longitude": 126.7212201
      },
      {
        "Branch": "대화성저",
        "Location": "경기 고양시 일산서구 대산로 220",
        "Latitude": 37.678809,
        "Longitude": 126.7544729
      },
      {
        "Branch": "탄현2호",
        "Location": "경기 고양시 일산서구 산현로 7",
        "Latitude": 37.6894476,
        "Longitude": 126.7625131
      },
      {
        "Branch": "일산문촌",
        "Location": "경기도 고양시 일산서구 중앙로 1493 에비뉴상가 1001-6",
        "Latitude": 37.6722765,
        "Longitude": 126.7546654
      },
      {
        "Branch": "적성",
        "Location": "경기 파주시 적성면 청송로 1026-1 풍년프라자 1층",
        "Latitude": 37.954256,
        "Longitude": 126.9192898
      },
      {
        "Branch": "일산탄현",
        "Location": "경기 고양시 일산서구 현중로 28",
        "Latitude": 37.6931955,
        "Longitude": 126.7681517
      },
      {
        "Branch": "후곡사거리",
        "Location": "경기도 고양시 일산서구 일산동 1054",
        "Latitude": 37.6796991,
        "Longitude": 126.7625439
      },
      {
        "Branch": "주엽역",
        "Location": "경기도 고양시 일산서구 중앙로 1456 104,105호",
        "Latitude": 37.6715651,
        "Longitude": 126.7589963
      },
      {
        "Branch": "김포풍무",
        "Location": "경기도 김포시 풍무동 408-3",
        "Latitude": 37.604232,
        "Longitude": 126.7218907
      },
      {
        "Branch": "일산역",
        "Location": "경기도 고양시 일산서구 일산동 612-3",
        "Latitude": 37.685781,
        "Longitude": 126.7700573
      },
      {
        "Branch": "백마프라자",
        "Location": "경기도 고양시 일산서구 대산로 113 백마프라자 103호",
        "Latitude": 37.6738393,
        "Longitude": 126.7645233
      },
      {
        "Branch": "풍무역",
        "Location": "경기 김포시 풍무동15-1",
        "Latitude": 37.6110232,
        "Longitude": 126.7314033
      },
      {
        "Branch": "일산후곡",
        "Location": "경기 고양시 일산서구 일산로 524 동심프라자 101,102,106-1호",
        "Latitude": 37.6772293,
        "Longitude": 126.7697785
      },
      {
        "Branch": "봉일천",
        "Location": "경기 파주시 조리읍 봉천로 29 봉일천프라자 1층",
        "Latitude": 37.7432211,
        "Longitude": 126.8084303
      },
      {
        "Branch": "풍무꿈에그린",
        "Location": "경기 김포시 풍무로68번길 44",
        "Latitude": 37.6005036,
        "Longitude": 126.7263214
      },
      {
        "Branch": "중산마을",
        "Location": "경기도 고양시 일산동구 중산로 248 101, 102호",
        "Latitude": 37.6940318,
        "Longitude": 126.7809853
      },
      {
        "Branch": "강선마을",
        "Location": "경기 고양시 일산서구 주엽동 75",
        "Latitude": 37.6674195,
        "Longitude": 126.7670978
      },
      {
        "Branch": "중산행복",
        "Location": "경기도 고양시 일산동구 탄중로 425",
        "Latitude": 37.6875574,
        "Longitude": 126.7789333
      },
      {
        "Branch": "일산산들",
        "Location": "경기 고양시 일산동구 고봉로 258 1,2,층 전체",
        "Latitude": 37.6822207,
        "Longitude": 126.7783275
      },
      {
        "Branch": "일산장항",
        "Location": "경기도 고양시 일산동구 장항동 734-2 풍성프라자 106호, 107호",
        "Latitude": 37.6630919,
        "Longitude": 126.7679072
      },
      {
        "Branch": "저동초교",
        "Location": "경기도 고양시 일산동구 정발산동 117 1층일부",
        "Latitude": 37.6701643,
        "Longitude": 126.774338
      },
      {
        "Branch": "일산밤가시",
        "Location": "경기도 고양시 일산동구 일산로 441 101,102호",
        "Latitude": 37.6730997,
        "Longitude": 126.7777118
      },
      {
        "Branch": "김포향산",
        "Location": "경기 김포시 고촌읍 상미1로 4 H스퀘어 102호,103호",
        "Latitude": 37.6180575,
        "Longitude": 126.7472415
      },
      {
        "Branch": "일산웨스턴",
        "Location": "경기 고양시 일산동구 장항동 867 1층",
        "Latitude": 37.655889,
        "Longitude": 126.7719895
      },
      {
        "Branch": "일산풍산",
        "Location": "경기도 고양시 일산동구 중산동 1806",
        "Latitude": 37.6745237,
        "Longitude": 126.7860502
      },
      {
        "Branch": "파주광탄2호",
        "Location": "경기 파주시 광탄면 큰여울길 44 이마트에브리데이 1층",
        "Latitude": 37.7803262,
        "Longitude": 126.8487369
      },
      {
        "Branch": "국립암센터카페",
        "Location": "경기도 고양시 일산동구 일산로 328 103~106호",
        "Latitude": 37.6647571,
        "Longitude": 126.7844107
      },
      {
        "Branch": "일산마두역",
        "Location": "경기도 고양시 일산동구 마두동 802-1 그래드프라자 110호,111호",
        "Latitude": 37.6517367,
        "Longitude": 126.778445
      },
      {
        "Branch": "일산호수",
        "Location": "경기도 고양시 일산동구 장항동 881 호수마을상가동 1층 일부",
        "Latitude": 37.6483166,
        "Longitude": 126.777904
      },
      {
        "Branch": "일산마두현대",
        "Location": "경기도 고양시 일산동구 강송로 170 현대프라자 117호",
        "Latitude": 37.6539119,
        "Longitude": 126.7843043
      },
      {
        "Branch": "일산삼성",
        "Location": "경기 고양시 일산동구 일산로 239",
        "Latitude": 37.6573332,
        "Longitude": 126.7879643
      },
      {
        "Branch": "일산백송",
        "Location": "경기도 고양시 일산동구 강송로 119 105,106로",
        "Latitude": 37.6495779,
        "Longitude": 126.7861154
      },
      {
        "Branch": "대부도",
        "Location": "경기도 안산시 단원구 대선로 6",
        "Latitude": 37.2708604,
        "Longitude": 126.5713678
      },
      {
        "Branch": "풍동로데오",
        "Location": "경기도 고양시 일산동구 숲속마을1로 샘터17 102호",
        "Latitude": 37.66739,
        "Longitude": 126.7997606
      },
      {
        "Branch": "풍동미르",
        "Location": "경기 고양시 일산동구 숲속마을1로 29 서광미르프라자",
        "Latitude": 37.6639655,
        "Longitude": 126.7985046
      },
      {
        "Branch": "일산동국대병원",
        "Location": "경기도 고양시 일산동구 동국로 27 1층 일부호(식사동, 동국대학교일산병",
        "Latitude": 37.6763969,
        "Longitude": 126.8064233
      },
      {
        "Branch": "일산위시티",
        "Location": "경기도 고양시 일산동구 식사동 1510 위시티블루밍3단지상가 101,102,103호",
        "Latitude": 37.681451,
        "Longitude": 126.8099355
      },
      {
        "Branch": "백석역터미널",
        "Location": "경기도 고양시 일산동구 일산로 46 남정씨티프라자 118-1호일부,118-2,11",
        "Latitude": 37.6423617,
        "Longitude": 126.7879067
      },
      {
        "Branch": "일산백석",
        "Location": "경기도 고양시 일산동구 백석동 1141 유니테크빌 벤처타운 102호",
        "Latitude": 37.6508503,
        "Longitude": 126.7965593
      },
      {
        "Branch": "고촌캐슬파밀리에",
        "Location": "경기 김포시 고촌읍 수기로 115",
        "Latitude": 37.5934718,
        "Longitude": 126.7636061
      },
      {
        "Branch": "김포고촌",
        "Location": "경기 김포시 고촌읍 신곡리 538-5",
        "Latitude": 37.603419,
        "Longitude": 126.7704115
      },
      {
        "Branch": "고촌힐스테이트",
        "Location": "경기 김포시 고촌읍 신곡리 615-22",
        "Latitude": 37.5995772,
        "Longitude": 126.768628
      },
      {
        "Branch": "고양내유",
        "Location": "경기도 고양시 덕양구 내유동 646-23",
        "Latitude": 37.7252641,
        "Longitude": 126.8438515
      },
      {
        "Branch": "내유럭키",
        "Location": "경기도 고양시 덕양구 내유동 294-7",
        "Latitude": 37.7096565,
        "Longitude": 126.8536053
      },
      {
        "Branch": "양주남면",
        "Location": "경기 양주시 남면 신산리 279-5",
        "Latitude": 37.8967151,
        "Longitude": 126.9759573
      },
      {
        "Branch": "상동라일락",
        "Location": "경기 부천시 도약로 41 1층",
        "Latitude": 37.5125074,
        "Longitude": 126.7540146
      },
      {
        "Branch": "고양성사",
        "Location": "경기도 고양시 덕양구 성사동 501-2 명지캐럿 115,116호",
        "Latitude": 37.6584668,
        "Longitude": 126.8388073
      },
      {
        "Branch": "원당어울림",
        "Location": "경기 고양시 덕양구 성사동 722-4",
        "Latitude": 37.6533204,
        "Longitude": 126.8376198
      },
      {
        "Branch": "상동로데오",
        "Location": "경기 부천시 상동로 75 105호,106호",
        "Latitude": 37.5040348,
        "Longitude": 126.7522832
      },
      {
        "Branch": "상동다인",
        "Location": "경기도 부천시 상동로 108",
        "Latitude": 37.5067725,
        "Longitude": 126.7538595
      },
      {
        "Branch": "능곡",
        "Location": "경기도 고양시 덕양구 지도로 105",
        "Latitude": 37.6264834,
        "Longitude": 126.8234473
      },
      {
        "Branch": "화정달빛",
        "Location": "경기도 고양시 덕양구 화정동 851 달빛마을상가 112~113호",
        "Latitude": 37.6465468,
        "Longitude": 126.836637
      },
      {
        "Branch": "상동푸른",
        "Location": "경기 부천시 조마루로 87 113호",
        "Latitude": 37.50064,
        "Longitude": 126.7535766
      },
      {
        "Branch": "화정별빛",
        "Location": "경기도 고양시 덕양구 화정동 951",
        "Latitude": 37.6299498,
        "Longitude": 126.8283015
      },
      {
        "Branch": "카페화정역",
        "Location": "경기도 고양시 덕양구 화정로 53 새롬프라자 105,106호",
        "Latitude": 37.6351911,
        "Longitude": 126.8319146
      },
      {
        "Branch": "화정미도파",
        "Location": "경기도 고양시 덕양구 화정동 870 118호",
        "Latitude": 37.6422559,
        "Longitude": 126.8360384
      },
      {
        "Branch": "고양토당",
        "Location": "경기도 고양시 덕양구 토당동 882",
        "Latitude": 37.6198383,
        "Longitude": 126.8247995
      },
      {
        "Branch": "고양관산",
        "Location": "경기도 고양시 덕양구 통일로 774",
        "Latitude": 37.6880418,
        "Longitude": 126.864546
      },
      {
        "Branch": "화정옥빛",
        "Location": "경기도 고양시 덕양구 화정동 1002-3 이프라자 103~104호",
        "Latitude": 37.6304833,
        "Longitude": 126.8315996
      },
      {
        "Branch": "송내로데오",
        "Location": "경기 부천시 상일로 92",
        "Latitude": 37.4913097,
        "Longitude": 126.7524868
      },
      {
        "Branch": "송내역북부",
        "Location": "경기 부천시 부일로 204",
        "Latitude": 37.488347,
        "Longitude": 126.7526028
      },
      {
        "Branch": "부천약대두산",
        "Location": "경기 부천시 원미구 중동 144 두산위브상가 1단지 상가1층 B106호",
        "Latitude": 37.5120501,
        "Longitude": 126.7668293
      },
      {
        "Branch": "부천시청",
        "Location": "경기 부천시 석천로183번길 11",
        "Latitude": 37.5037477,
        "Longitude": 126.7624837
      },
      {
        "Branch": "송내역",
        "Location": "경기 부천시 송내대로 37",
        "Latitude": 37.4868909,
        "Longitude": 126.7528686
      },
      {
        "Branch": "전곡",
        "Location": "경기 연천군 전곡읍 전곡로172번길 5",
        "Latitude": 38.0275134,
        "Longitude": 127.0678976
      },
      {
        "Branch": "부천약대",
        "Location": "경기 부천시 중동로 400 1층",
        "Latitude": 37.5155212,
        "Longitude": 126.7703452
      },
      {
        "Branch": "중동프라자",
        "Location": "경기도 부천시 길주로 199 316호",
        "Latitude": 37.5050423,
        "Longitude": 126.7647145
      },
      {
        "Branch": "부천순천향",
        "Location": "경기 부천시 조마루로 170 부천순천향병원 지하 1층 내",
        "Latitude": 37.4986998,
        "Longitude": 126.7629626
      },
      {
        "Branch": "행신SK",
        "Location": "경기도 고양시 덕양구 행신동 619-18 미호상가 101호",
        "Latitude": 37.6193178,
        "Longitude": 126.8323522
      },
      {
        "Branch": "행신햇빛",
        "Location": "경기도 고양시 덕양구 행신동 945 삼성빌딩 101호",
        "Latitude": 37.6245396,
        "Longitude": 126.8355714
      },
      {
        "Branch": "부천중흥마을",
        "Location": "경기 부천시 길주로 243",
        "Latitude": 37.5044288,
        "Longitude": 126.7695694
      },
      {
        "Branch": "중동시장",
        "Location": "경기 부천시 부흥로 200",
        "Latitude": 37.4958749,
        "Longitude": 126.7647927
      },
      {
        "Branch": "고양행신",
        "Location": "경기도 고양시 덕양구 행신동 757-2 행신프라자 106-107호",
        "Latitude": 37.6152147,
        "Longitude": 126.8356535
      },
      {
        "Branch": "부천오정",
        "Location": "경기 부천시 오정로 250",
        "Latitude": 37.5295671,
        "Longitude": 126.7865264
      },
      {
        "Branch": "행신무원",
        "Location": "경기 고양시 덕양구 화신로 73",
        "Latitude": 37.6194402,
        "Longitude": 126.8386318
      },
      {
        "Branch": "중동미리내",
        "Location": "경기 부천시 중동로248번길 55",
        "Latitude": 37.5016202,
        "Longitude": 126.7717969
      },
      {
        "Branch": "중동역북부",
        "Location": "경기 부천시 부일로 322",
        "Latitude": 37.488164,
        "Longitude": 126.7657905
      },
      {
        "Branch": "부천대우테크노파크",
        "Location": "경기 부천시 도약로 260",
        "Latitude": 37.5103924,
        "Longitude": 126.7793194
      },
      {
        "Branch": "중동역남부",
        "Location": "경기 부천시 경인로 78 부천송내동우체국 1층 전체호",
        "Latitude": 37.4835891,
        "Longitude": 126.7639532
      },
      {
        "Branch": "부천중동로데오",
        "Location": "경기 부천시 소향로 251",
        "Latitude": 37.5009417,
        "Longitude": 126.7757563
      },
      {
        "Branch": "부천춘의",
        "Location": "경기 부천시 옥산로 152",
        "Latitude": 37.5072241,
        "Longitude": 126.7804583
      },
      {
        "Branch": "오이도등대",
        "Location": "경기도 시흥시 오이도어시장로 5 1층",
        "Latitude": 37.3451888,
        "Longitude": 126.6884159
      },
      {
        "Branch": "송내현대",
        "Location": "경기 부천시 성주로 84 현대아파트종합상가 1층 1호",
        "Latitude": 37.4794626,
        "Longitude": 126.7654619
      },
      {
        "Branch": "행신서정",
        "Location": "경기도 고양시 덕양구 행신동 1083-1 아성프라자 106호",
        "Latitude": 37.6181662,
        "Longitude": 126.8461958
      },
      {
        "Branch": "중동그린타운",
        "Location": "경기 부천시 부흥로303번길 36 금호프라자 111호",
        "Latitude": 37.4963755,
        "Longitude": 126.7762366
      },
      {
        "Branch": "중동위브",
        "Location": "경기 부천시 신흥로 170",
        "Latitude": 37.4987712,
        "Longitude": 126.777925
      },
      {
        "Branch": "부천도당",
        "Location": "경기도 부천시 삼작로278 1층",
        "Latitude": 37.5200345,
        "Longitude": 126.7923358
      },
      {
        "Branch": "고양푸른마을",
        "Location": "경기도 고양시 덕양구 고양동 735",
        "Latitude": 37.7084051,
        "Longitude": 126.9035871
      },
      {
        "Branch": "고양",
        "Location": "경기도 고양시 덕양구 고양동 221",
        "Latitude": 37.7034134,
        "Longitude": 126.9017256
      },
      {
        "Branch": "원흥역",
        "Location": "경기도 고양시 덕양구 권율대로 668",
        "Latitude": 37.6494508,
        "Longitude": 126.8739024
      },
      {
        "Branch": "부천먼마루",
        "Location": "경기 부천시 소사로 817 원종동 1층전체",
        "Latitude": 37.529022,
        "Longitude": 126.8045952
      },
      {
        "Branch": "부천대성병원",
        "Location": "경기도 부천시 심곡동 104-3 부천대성병원 별관1층",
        "Latitude": 37.4919383,
        "Longitude": 126.784196
      },
      {
        "Branch": "부천심곡본동",
        "Location": "경기 부천시 성주로 194-3",
        "Latitude": 37.4783724,
        "Longitude": 126.7779778
      },
      {
        "Branch": "배곧한라1호",
        "Location": "경기 시흥시 배곧1로 27-15 한라비발디캠퍼스 상가2동 116호",
        "Latitude": 37.3642786,
        "Longitude": 126.7129077
      },
      {
        "Branch": "부천역북부",
        "Location": "경기 부천시 부천로 7",
        "Latitude": 37.4850685,
        "Longitude": 126.7822446
      },
      {
        "Branch": "부천원종",
        "Location": "경기 부천시 소사로 757 1층 원종동",
        "Latitude": 37.5235935,
        "Longitude": 126.8045541
      },
      {
        "Branch": "부천역남부",
        "Location": "경기 부천시 경인로 238-7",
        "Latitude": 37.4829121,
        "Longitude": 126.7819503
      },
      {
        "Branch": "부천심곡",
        "Location": "경기 부천시 경인로 238-7",
        "Latitude": 37.4829011,
        "Longitude": 126.7819599
      },
      {
        "Branch": "부천북부역사거리",
        "Location": "경기 부천시 부일로 486 1층",
        "Latitude": 37.4854969,
        "Longitude": 126.7841078
      },
      {
        "Branch": "부천성곡",
        "Location": "경기 부천시 소사로 719 1층 101호",
        "Latitude": 37.5202061,
        "Longitude": 126.8045526
      },
      {
        "Branch": "원흥대영",
        "Location": "경기 고양시 도내동 958 대영프라자",
        "Latitude": 37.6348286,
        "Longitude": 126.8712371
      },
      {
        "Branch": "고양원흥",
        "Location": "경기 고양시 덕양구 도래울로 40",
        "Latitude": 37.6293839,
        "Longitude": 126.8688047
      },
      {
        "Branch": "부천원미",
        "Location": "경기 부천시 원미로144번길 6",
        "Latitude": 37.4951795,
        "Longitude": 126.7917416
      },
      {
        "Branch": "원미사거리",
        "Location": "경기도 부천시 원미로 113 1층",
        "Latitude": 37.4928061,
        "Longitude": 126.7907332
      },
      {
        "Branch": "양주광적",
        "Location": "경기 양주시 광적면 가납리 838-3",
        "Latitude": 37.8256831,
        "Longitude": 126.9836759
      },
      {
        "Branch": "삼송신원마을",
        "Location": "경기도 고양시 덕양구 신원동 626",
        "Latitude": 37.6627331,
        "Longitude": 126.8895587
      },
      {
        "Branch": "고양삼송",
        "Location": "경기도 고양시 덕양구 삼송동 326번지",
        "Latitude": 37.6506924,
        "Longitude": 126.8839061
      },
      {
        "Branch": "배곧중흥",
        "Location": "경기도 시흥시 해송십리로 472-11",
        "Latitude": 37.3843577,
        "Longitude": 126.7320845
      },
      {
        "Branch": "부천성모병원",
        "Location": "경기도 부천시 소사로 327 부천성모병원 성심관 지하 1층",
        "Latitude": 37.4871165,
        "Longitude": 126.7924167
      },
      {
        "Branch": "부천여월",
        "Location": "경기도 부천시 여월로 70",
        "Latitude": 37.5113396,
        "Longitude": 126.8065301
      },
      {
        "Branch": "고강사거리",
        "Location": "경기도 부천시 고강동 348-1",
        "Latitude": 37.5276838,
        "Longitude": 126.8163975
      },
      {
        "Branch": "배곧호반써밋",
        "Location": "경기도 시흥시 서울대학로264번길 26",
        "Latitude": 37.3674127,
        "Longitude": 126.726914
      },
      {
        "Branch": "성가시장",
        "Location": "경기 부천시 부일로 573 1층 4,5호",
        "Latitude": 37.4844286,
        "Longitude": 126.7938311
      },
      {
        "Branch": "배곧센타",
        "Location": "경기 시흥시 배곧3로 80 센타프라자 103호",
        "Latitude": 37.3705496,
        "Longitude": 126.7290674
      },
      {
        "Branch": "소사삼거리",
        "Location": "경기도 부천시 호현로 489",
        "Latitude": 37.4811786,
        "Longitude": 126.7928837
      },
      {
        "Branch": "월곶신시티",
        "Location": "경기도 시흥시 월곶중앙로 48 1층",
        "Latitude": 37.3885931,
        "Longitude": 126.7400459
      },
      {
        "Branch": "삼송역",
        "Location": "경기도 고양시 덕양구 삼송동 27-32",
        "Latitude": 37.6537651,
        "Longitude": 126.8942988
      },
      {
        "Branch": "시화병원",
        "Location": "경기 시흥시 정왕대로 56",
        "Latitude": 37.3545307,
        "Longitude": 126.7230128
      },
      {
        "Branch": "부천고강시장",
        "Location": "경기도 부천시 고강동 398-2",
        "Latitude": 37.5259144,
        "Longitude": 126.8216164
      },
      {
        "Branch": "배곧초교",
        "Location": "경기도 시흥시 배곧4로 103 106호",
        "Latitude": 37.3738892,
        "Longitude": 126.734586
      },
      {
        "Branch": "시화세종",
        "Location": "경기 시흥시 정왕동 1882-4 세종프라자 120호, 207호",
        "Latitude": 37.3632989,
        "Longitude": 126.7302576
      },
      {
        "Branch": "삼송이편한",
        "Location": "경기도 고양시 덕양구 동산동 368-2 이편한세상시티 삼송 2차 상",
        "Latitude": 37.6492463,
        "Longitude": 126.895269
      },
      {
        "Branch": "소사스위첸",
        "Location": "경기도 부천시 은성로67번길 24",
        "Latitude": 37.4766553,
        "Longitude": 126.7986998
      },
      {
        "Branch": "카톨릭대",
        "Location": "경기 부천시 지봉로 46",
        "Latitude": 37.4858088,
        "Longitude": 126.8048779
      },
      {
        "Branch": "부천복사골",
        "Location": "경기도 부천시 소사로 102",
        "Latitude": 37.4678701,
        "Longitude": 126.7979634
      },
      {
        "Branch": "신천문화의거리",
        "Location": "경기 시흥시 신천동 707-16",
        "Latitude": 37.4412707,
        "Longitude": 126.7848385
      },
      {
        "Branch": "소사괴안",
        "Location": "경기도 부천시 범안로 26",
        "Latitude": 37.479344,
        "Longitude": 126.8067129
      },
      {
        "Branch": "시흥삼미",
        "Location": "경기 시흥시 신천3길 23-1",
        "Latitude": 37.4388032,
        "Longitude": 126.7835647
      },
      {
        "Branch": "소사주공",
        "Location": "경기도 부천시 소사동로 82 센트럴프라자 105호",
        "Latitude": 37.4732094,
        "Longitude": 126.8039563
      },
      {
        "Branch": "정왕청솔",
        "Location": "경기도 시흥시 중심상가로 143",
        "Latitude": 37.3471208,
        "Longitude": 126.7322623
      },
      {
        "Branch": "역곡역",
        "Location": "경기 부천시 역곡로 8 102호,103호",
        "Latitude": 37.4861229,
        "Longitude": 126.8117483
      },
      {
        "Branch": "동두천중앙",
        "Location": "경기도 동두천시 생연동 689-28 센츄럴시티 110호",
        "Latitude": 37.9011682,
        "Longitude": 127.0532488
      },
      {
        "Branch": "역곡역남부",
        "Location": "경기도 부천시 경인로 509",
        "Latitude": 37.4846075,
        "Longitude": 126.8116789
      },
      {
        "Branch": "은계어반리더스",
        "Location": "경기 시흥시 은계로338번길 42",
        "Latitude": 37.4509883,
        "Longitude": 126.7960601
      },
      {
        "Branch": "시흥대야",
        "Location": "경기도 시흥시 비둘기공원1길 25 우곡프라자 103호",
        "Latitude": 37.4415019,
        "Longitude": 126.7912877
      },
      {
        "Branch": "한국산업기술대",
        "Location": "경기 시흥시 산기대학로 237 기술혁신파크 107호",
        "Latitude": 37.3400342,
        "Longitude": 126.7335061
      },
      {
        "Branch": "양주백석",
        "Location": "경기 양주시 백석읍 복지리 111",
        "Latitude": 37.7868523,
        "Longitude": 126.9913225
      },
      {
        "Branch": "범박현대",
        "Location": "경기도 부천시 범안로 117",
        "Latitude": 37.4712481,
        "Longitude": 126.8096277
      },
      {
        "Branch": "시화정왕",
        "Location": "경기 시흥시 중심상가로 199",
        "Latitude": 37.344021,
        "Longitude": 126.7372436
      },
      {
        "Branch": "동두천지행",
        "Location": "경기도 동두천시 동두천로 119",
        "Latitude": 37.8920677,
        "Longitude": 127.0546205
      },
      {
        "Branch": "정왕역",
        "Location": "경기 시흥시 정왕동 2327-5",
        "Latitude": 37.3512359,
        "Longitude": 126.7421688
      },
      {
        "Branch": "시흥은행",
        "Location": "경기 시흥시 대은로 86 105호",
        "Latitude": 37.4444886,
        "Longitude": 126.7979493
      },
      {
        "Branch": "동두천생연",
        "Location": "경기도 동두천시 생연동 351",
        "Latitude": 37.8969982,
        "Longitude": 127.0620942
      },
      {
        "Branch": "시흥신천",
        "Location": "경기 시흥시 시흥대로 1074번길 5 스페이스타워 1층",
        "Latitude": 37.4319895,
        "Longitude": 126.7936208
      },
      {
        "Branch": "은행대우",
        "Location": "경기 시흥시 은행동 101-109 경동프라자 101호",
        "Latitude": 37.4364498,
        "Longitude": 126.7979301
      },
      {
        "Branch": "고양향동",
        "Location": "경기 고양시 덕양구 향기로 123 센타프라자 109, 110호",
        "Latitude": 37.6006782,
        "Longitude": 126.8942688
      },
      {
        "Branch": "정왕시장",
        "Location": "경시 시흥시 정왕시장길 51",
        "Latitude": 37.3458165,
        "Longitude": 126.748546
      },
      {
        "Branch": "은계우미린",
        "Location": "경기 시흥시 은계중앙로 115",
        "Latitude": 37.4409822,
        "Longitude": 126.8033335
      },
      {
        "Branch": "향동숲내초교",
        "Location": "경기도 고양시 덕양구 향기로 56",
        "Latitude": 37.5948829,
        "Longitude": 126.8920818
      },
      {
        "Branch": "시흥포동",
        "Location": "경기도 시흥시 신현로38번길 16 1층",
        "Latitude": 37.4069513,
        "Longitude": 126.7844412
      },
      {
        "Branch": "시흥은계",
        "Location": "경기도 시흥시 은계번영길 2 서미프라자 104호",
        "Latitude": 37.4365981,
        "Longitude": 126.8023725
      },
      {
        "Branch": "부천옥길",
        "Location": "경기도 부천시 양지로184번길 7-5",
        "Latitude": 37.4682043,
        "Longitude": 126.8220167
      },
      {
        "Branch": "시흥푸르지오",
        "Location": "경기 시흥시 죽율동 82-14",
        "Latitude": 37.3519265,
        "Longitude": 126.7626836
      },
      {
        "Branch": "시흥연성",
        "Location": "경기 시흥시 장곡로 49번길 10-1",
        "Latitude": 37.3784383,
        "Longitude": 126.7831105
      },
      {
        "Branch": "양주덕계",
        "Location": "경기 양주시 평화로 1420",
        "Latitude": 37.8177135,
        "Longitude": 127.0462992
      },
      {
        "Branch": "시흥매화",
        "Location": "경기 시흥시 매화로 39",
        "Latitude": 37.4157348,
        "Longitude": 126.8150557
      },
      {
        "Branch": "시흥하중",
        "Location": "경기 시흥시 연성로 29번길 52-1",
        "Latitude": 37.3949683,
        "Longitude": 126.8044297
      },
      {
        "Branch": "광명사거리역",
        "Location": "경기 광명시 오리로 983 (광명동)",
        "Latitude": 37.4793841,
        "Longitude": 126.8538781
      },
      {
        "Branch": "광명6동",
        "Location": "경기 광명시 광명로 830",
        "Latitude": 37.4733109,
        "Longitude": 126.8518457
      },
      {
        "Branch": "시흥시청",
        "Location": "경기 시흥시 시청로 74 시청로 48",
        "Latitude": 37.3809127,
        "Longitude": 126.7996559
      },
      {
        "Branch": "장현모아",
        "Location": "경기도 시흥시 장현순환로 81",
        "Latitude": 37.3740393,
        "Longitude": 126.7970621
      },
      {
        "Branch": "안산신길",
        "Location": "경기도 안산시 단원구 새뿔길 46",
        "Latitude": 37.3368679,
        "Longitude": 126.7763467
      },
      {
        "Branch": "광명미소",
        "Location": "경기 광명시 광복로 58",
        "Latitude": 37.4894631,
        "Longitude": 126.8650897
      },
      {
        "Branch": "광명3동",
        "Location": "경기 광명시 오리로 938",
        "Latitude": 37.4783325,
        "Longitude": 126.8588743
      },
      {
        "Branch": "광명7동",
        "Location": "경기 광명시 도덕로 52 청송빌딩",
        "Latitude": 37.4688142,
        "Longitude": 126.8534949
      },
      {
        "Branch": "양주덕정",
        "Location": "경기도 양주시 회정로 135",
        "Latitude": 37.8376915,
        "Longitude": 127.0683738
      },
      {
        "Branch": "시흥거모",
        "Location": "경기도 시흥시 군자로 514 거모프라자 105호",
        "Latitude": 37.3443011,
        "Longitude": 126.784827
      },
      {
        "Branch": "시흥하상",
        "Location": "경기 시흥시 상직길 3",
        "Latitude": 37.3906377,
        "Longitude": 126.8125376
      },
      {
        "Branch": "광명시청",
        "Location": "경기 광명시 오리로 895 1층",
        "Latitude": 37.4765136,
        "Longitude": 126.8630557
      },
      {
        "Branch": "신길휴먼시아",
        "Location": "경기도 안산시 단원구 신길로 87",
        "Latitude": 37.3379075,
        "Longitude": 126.7881299
      },
      {
        "Branch": "철산본",
        "Location": "경기 광명시 철산로29번길 7 동화빌딩",
        "Latitude": 37.4772549,
        "Longitude": 126.8688692
      },
      {
        "Branch": "광명도덕",
        "Location": "경기 광명시 도덕공원로 21-1",
        "Latitude": 37.4710247,
        "Longitude": 126.8654197
      },
      {
        "Branch": "철산",
        "Location": "경기 광명시 오리로856번길 26 영일빌딩 1층",
        "Latitude": 37.4754648,
        "Longitude": 126.8696578
      },
      {
        "Branch": "광명대림",
        "Location": "경기 광명시 오리로 801 이편한세상 센트레빌아파트",
        "Latitude": 37.4686239,
        "Longitude": 126.8674605
      },
      {
        "Branch": "능곡지구",
        "Location": "경기 시흥시 능곡로 182 104, 105호",
        "Latitude": 37.3682819,
        "Longitude": 126.8108592
      },
      {
        "Branch": "의정부녹양",
        "Location": "경기 의정부시 녹양동 83-65",
        "Latitude": 37.7584726,
        "Longitude": 127.0367092
      },
      {
        "Branch": "안산목내",
        "Location": "경기도 안산시 단원구 별망로 453",
        "Latitude": 37.3040413,
        "Longitude": 126.7754515
      },
      {
        "Branch": "가능3동",
        "Location": "경기도 의정부시 가능3동 706-33 1층",
        "Latitude": 37.7430321,
        "Longitude": 127.0309076
      },
      {
        "Branch": "녹양역",
        "Location": "경기도 의정부시 체육로 306-14 센츄럴프라자 103호, 104호",
        "Latitude": 37.7604682,
        "Longitude": 127.0413629
      },
      {
        "Branch": "안산역",
        "Location": "경기도 안산시 단원구 중앙대로 462",
        "Latitude": 37.3265849,
        "Longitude": 126.7908559
      },
      {
        "Branch": "광명삼성",
        "Location": "경기 광명시 디지털로 56",
        "Latitude": 37.4718335,
        "Longitude": 126.8741461
      },
      {
        "Branch": "가능SK",
        "Location": "경기 의정부시 신촌로 15",
        "Latitude": 37.7504373,
        "Longitude": 127.0362358
      },
      {
        "Branch": "안산라성",
        "Location": "경기도 안산시 단원구 라성로 43 112호~113호",
        "Latitude": 37.3275731,
        "Longitude": 126.8002963
      },
      {
        "Branch": "가능역서부",
        "Location": "경기 의정부시 가능로119번길 25",
        "Latitude": 37.7480284,
        "Longitude": 127.0439616
      },
      {
        "Branch": "하안사거리",
        "Location": "경기 광명시 하안로 311",
        "Latitude": 37.4631317,
        "Longitude": 126.8790225
      },
      {
        "Branch": "화성사강",
        "Location": "경기도 화성시 송산면 사강리 647-7",
        "Latitude": 37.2133772,
        "Longitude": 126.7374129
      },
      {
        "Branch": "의정부북부",
        "Location": "경기도 의정부시 의정부동 평화로 628",
        "Latitude": 37.7478751,
        "Longitude": 127.045605
      },
      {
        "Branch": "하안주공",
        "Location": "경기 광명시 하안로 294-5",
        "Latitude": 37.4623756,
        "Longitude": 126.8806745
      },
      {
        "Branch": "안산선부광장",
        "Location": "경기 안산시 단원구 선부광장1로 32",
        "Latitude": 37.3364126,
        "Longitude": 126.8087958
      },
      {
        "Branch": "양주고읍세진",
        "Location": "경기도 양주시 고읍동 439-2",
        "Latitude": 37.8019412,
        "Longitude": 127.0787032
      },
      {
        "Branch": "옥정역",
        "Location": "경기 양주시 옥정동 963-1",
        "Latitude": 37.822154,
        "Longitude": 127.0927823
      },
      {
        "Branch": "초지역푸르지오",
        "Location": "경기 안산시 단원구 원곡동 852-2",
        "Latitude": 37.3241238,
        "Longitude": 126.8048734
      },
      {
        "Branch": "의정부시청",
        "Location": "경기도 의정부시 시민로 80",
        "Latitude": 37.7381114,
        "Longitude": 127.04387
      },
      {
        "Branch": "선부한양",
        "Location": "경기도 안산시 단원구 선부로 183",
        "Latitude": 37.3419998,
        "Longitude": 126.8154246
      },
      {
        "Branch": "양주옥정",
        "Location": "경기 양주시 옥정동로 274",
        "Latitude": 37.831441,
        "Longitude": 127.0990642
      },
      {
        "Branch": "하안금당",
        "Location": "경기 광명시 하안로 254 13단지 유치원부지",
        "Latitude": 37.4592282,
        "Longitude": 126.8829667
      },
      {
        "Branch": "안산선부",
        "Location": "경기도 안산시 단원구 선부광장1로 69",
        "Latitude": 37.3363425,
        "Longitude": 126.812596
      },
      {
        "Branch": "옥정메디컬",
        "Location": "경기도 양주시 옥정로 142",
        "Latitude": 37.8143165,
        "Longitude": 127.0903753
      },
      {
        "Branch": "양주고읍중앙",
        "Location": "경기 양주시 고읍남로 18",
        "Latitude": 37.794981,
        "Longitude": 127.079453
      },
      {
        "Branch": "다이아몬드광장",
        "Location": "경기 안산시 단원구 선부동 1077-3 다이아몬드프라자 109,110호",
        "Latitude": 37.3332634,
        "Longitude": 126.8125563
      },
      {
        "Branch": "의정부역",
        "Location": "경기도 의정부시 의정부동 195-5",
        "Latitude": 37.7396563,
        "Longitude": 127.0477271
      },
      {
        "Branch": "양주옥정대림",
        "Location": "경기 양주시 옥정동 963-18",
        "Latitude": 37.8185724,
        "Longitude": 127.0940779
      },
      {
        "Branch": "의정부중앙",
        "Location": "경기도 의정부시 호국로 1323 지상 1,2층",
        "Latitude": 37.7439043,
        "Longitude": 127.0511492
      },
      {
        "Branch": "의정부제일",
        "Location": "경기도 의정부시 의정부동 132-29",
        "Latitude": 37.7382207,
        "Longitude": 127.0489163
      },
      {
        "Branch": "안산와동",
        "Location": "경기도 안산시 단원구 화정천동로2길",
        "Latitude": 37.3437757,
        "Longitude": 126.8212225
      },
      {
        "Branch": "호원가든",
        "Location": "경기도 의정부시 호동로 67 화성프라자 102,103호",
        "Latitude": 37.7279274,
        "Longitude": 127.0433266
      },
      {
        "Branch": "소하센트럴",
        "Location": "경기 광명시 금하로 458 운신아트 104호",
        "Latitude": 37.448378,
        "Longitude": 126.8833202
      },
      {
        "Branch": "회룡역",
        "Location": "경기도 의정부시 외미로 94",
        "Latitude": 37.7241201,
        "Longitude": 127.0459935
      },
      {
        "Branch": "의정부신곡",
        "Location": "경기도 의정부시 신곡동 673 휴먼시티1층 106호",
        "Latitude": 37.7430306,
        "Longitude": 127.0570849
      },
      {
        "Branch": "옥정제이드웰",
        "Location": "경기 양주시 옥정동 1085-1",
        "Latitude": 37.8149038,
        "Longitude": 127.0993455
      },
      {
        "Branch": "목감물왕호수",
        "Location": "경기 시흥시 산현마을길 56",
        "Latitude": 37.3764645,
        "Longitude": 126.8455128
      },
      {
        "Branch": "광명소하2동",
        "Location": "경기 광명시 기아로 6 107호",
        "Latitude": 37.436369,
        "Longitude": 126.8803913
      },
      {
        "Branch": "호원한승",
        "Location": "경기도 의정부시 호원동 425-2 한승프라자 103호,104호",
        "Latitude": 37.7251353,
        "Longitude": 127.0488474
      },
      {
        "Branch": "광명충현",
        "Location": "경기 광명시 성채로 36 경기 광명시 성채로 36",
        "Latitude": 37.4332411,
        "Longitude": 126.8822151
      },
      {
        "Branch": "PB시흥휴게소",
        "Location": "경기 시흥시 조남동 산 15-1",
        "Latitude": 37.3863933,
        "Longitude": 126.8562678
      },
      {
        "Branch": "의정부장암",
        "Location": "경기 의정부시 신곡로 47",
        "Latitude": 37.7309416,
        "Longitude": 127.0562874
      },
      {
        "Branch": "목감조남",
        "Location": "경기도 시흥시 목감남서로 9-19 메이저타워 107호",
        "Latitude": 37.3777687,
        "Longitude": 126.8526946
      },
      {
        "Branch": "호원미소",
        "Location": "경기 의정부시 평화로 252",
        "Latitude": 37.7142761,
        "Longitude": 127.0477609
      },
      {
        "Branch": "의정부금오",
        "Location": "경기도 의정부시 금오동 청사로 37 1층",
        "Latitude": 37.7514152,
        "Longitude": 127.0698609
      },
      {
        "Branch": "금오드림밸리",
        "Location": "경기도 의정부시 장곡로596번길 9",
        "Latitude": 37.7495046,
        "Longitude": 127.0693745
      },
      {
        "Branch": "신곡이편한",
        "Location": "경기도 의정부시 시민로 242 101호, 102호",
        "Latitude": 37.7356307,
        "Longitude": 127.0616716
      },
      {
        "Branch": "장암동아",
        "Location": "경기도 의정부시 장암동 24-1",
        "Latitude": 37.7248717,
        "Longitude": 127.0557201
      },
      {
        "Branch": "의정부블루밍",
        "Location": "경기 의정부시 상금로 25",
        "Latitude": 37.7568783,
        "Longitude": 127.0745661
      },
      {
        "Branch": "안산초지",
        "Location": "경기 안산시 단원구 광덕1로 55 21세기타워 109~110호",
        "Latitude": 37.3088226,
        "Longitude": 126.8158235
      },
      {
        "Branch": "목감",
        "Location": "경기 시흥시 동서로 1111-1",
        "Latitude": 37.3882579,
        "Longitude": 126.8612982
      },
      {
        "Branch": "안산고잔",
        "Location": "경기도 안산시 단원구 삼일로 469",
        "Latitude": 37.3300338,
        "Longitude": 126.8288967
      },
      {
        "Branch": "의정부신곡중앙",
        "Location": "경기도 의정부시 동일로 456 박사빌딩 106, 107, 108호",
        "Latitude": 37.728992,
        "Longitude": 127.0597468
      },
      {
        "Branch": "망월사역",
        "Location": "경기도 의정부시 평화로 196",
        "Latitude": 37.70943,
        "Longitude": 127.0483705
      },
      {
        "Branch": "안산풍림",
        "Location": "경기도 안산시 단원구 초지2로 69",
        "Latitude": 37.3064894,
        "Longitude": 126.8165307
      },
      {
        "Branch": "안산단원병원",
        "Location": "경기도 안산시 단원구 원포공원1로 20",
        "Latitude": 37.3001935,
        "Longitude": 126.8130166
      },
      {
        "Branch": "고대안산병원",
        "Location": "경기 안산시 단원구 적금로 123 본관동 지하1층",
        "Latitude": 37.3185144,
        "Longitude": 126.8249033
      },
      {
        "Branch": "운천",
        "Location": "경기 포천시 영북면 영북로 178",
        "Latitude": 38.0901735,
        "Longitude": 127.2752234
      },
      {
        "Branch": "광명역데시앙",
        "Location": "경기 광명시 양지로 17 어반브릭스 B동 1층 170,171호",
        "Latitude": 37.4187496,
        "Longitude": 126.8826474
      },
      {
        "Branch": "목감역",
        "Location": "경기 시흥시 목감우회로 51 동한메디컬프라자 104호",
        "Latitude": 37.3822473,
        "Longitude": 126.8619256
      },
      {
        "Branch": "안산시청",
        "Location": "안산시 단원구 화랑로 358",
        "Latitude": 37.3210011,
        "Longitude": 126.8274895
      },
      {
        "Branch": "광명역사",
        "Location": "경기도 광명시 일직동 267-8",
        "Latitude": 37.4160818,
        "Longitude": 126.8851549
      },
      {
        "Branch": "양주자이",
        "Location": "경기 양주시 삼숭동 685-1",
        "Latitude": 37.796047,
        "Longitude": 127.1059383
      },
      {
        "Branch": "안산법원",
        "Location": "경기 안산시 단원구 광덕서로 92 대원빌딩 110호",
        "Latitude": 37.3129069,
        "Longitude": 126.8276277
      },
      {
        "Branch": "의정부송산사랑",
        "Location": "경기도 의정부시 부용로 236",
        "Latitude": 37.7487291,
        "Longitude": 127.0796337
      },
      {
        "Branch": "안산대림",
        "Location": "경기 안산시 단원구 광덕1로 159 대림프라자 1층",
        "Latitude": 37.3081558,
        "Longitude": 126.8271684
      },
      {
        "Branch": "고잔중앙",
        "Location": "경기도 안산시 단원구 당곡로 11",
        "Latitude": 37.3183211,
        "Longitude": 126.8330149
      },
      {
        "Branch": "안산중앙주공",
        "Location": "경기도 안산시 단원구 예술대학로 83",
        "Latitude": 37.3244241,
        "Longitude": 126.8371186
      },
      {
        "Branch": "안산광덕",
        "Location": "안산시 상록구 광덕산안길 28",
        "Latitude": 37.335946,
        "Longitude": 126.8450727
      },
      {
        "Branch": "안산네오빌루비",
        "Location": "경기 안산시 단원구 광덕동로 91",
        "Latitude": 37.3126499,
        "Longitude": 126.8325718
      },
      {
        "Branch": "안산중앙",
        "Location": "경기도 안산시 고잔동 537-3",
        "Latitude": 37.3174842,
        "Longitude": 126.8358678
      },
      {
        "Branch": "안산네오빌",
        "Location": "경기 안산시 단원구 광덕동로 71 네오빌딩 105호",
        "Latitude": 37.3108123,
        "Longitude": 126.8324217
      },
      {
        "Branch": "안산호수대우",
        "Location": "경기도 안산시 상록구 사동 1512 상가 1동 102호",
        "Latitude": 37.2956821,
        "Longitude": 126.8238254
      },
      {
        "Branch": "해피석수",
        "Location": "경기 안양시 만안구 연현로 79번길 41",
        "Latitude": 37.4305266,
        "Longitude": 126.9014835
      },
      {
        "Branch": "송산그린시티",
        "Location": "경기도 화성시 수노을중앙로 142",
        "Latitude": 37.2843867,
        "Longitude": 126.8185905
      },
      {
        "Branch": "용현보충대",
        "Location": "경기도 의정부시 시민로 405 디유빌딩",
        "Latitude": 37.7343374,
        "Longitude": 127.0789261
      },
      {
        "Branch": "안산성포",
        "Location": "경기도 안산시 상록구 성포동 592",
        "Latitude": 37.325693,
        "Longitude": 126.8432238
      },
      {
        "Branch": "안산다농",
        "Location": "경기도 안산시 상록구 예술광장로 11 1층",
        "Latitude": 37.3290218,
        "Longitude": 126.8452556
      },
      {
        "Branch": "안산월피",
        "Location": "경기도 안산시 상록구 월피동 447 한양아파트 상가 102호",
        "Latitude": 37.3323198,
        "Longitude": 126.8482896
      },
      {
        "Branch": "안산중앙역남부",
        "Location": "경기 안산시 단원구 이삭로 14",
        "Latitude": 37.3140297,
        "Longitude": 126.8381045
      },
      {
        "Branch": "의정부송산",
        "Location": "경기 의정부시 효자로 14",
        "Latitude": 37.7435814,
        "Longitude": 127.0866577
      },
      {
        "Branch": "안산예술인",
        "Location": "경기도 안산시 상록구 화랑로 501 1층 106호",
        "Latitude": 37.3206487,
        "Longitude": 126.8439624
      },
      {
        "Branch": "송우주공",
        "Location": "경기 포천시 소흘읍 태봉로 156",
        "Latitude": 37.8314185,
        "Longitude": 127.1409789
      },
      {
        "Branch": "용현아이파크",
        "Location": "경기도 의정부시 오목로 16 1층",
        "Latitude": 37.7322416,
        "Longitude": 127.08515
      },
      {
        "Branch": "안양충훈부",
        "Location": "경기 안양시 만안구 충훈로 99",
        "Latitude": 37.4073761,
        "Longitude": 126.8974178
      },
      {
        "Branch": "안산한양대",
        "Location": "경기도 안산시 상록구 사동 1569-2",
        "Latitude": 37.3007105,
        "Longitude": 126.8383812
      },
      {
        "Branch": "의정부민락",
        "Location": "경기도 의정부시 민락동 700-2 지상1층",
        "Latitude": 37.7404934,
        "Longitude": 127.0930277
      },
      {
        "Branch": "안산그랑시티자이",
        "Location": "경기도 안산시 상록구 해양1로 199",
        "Latitude": 37.2820034,
        "Longitude": 126.8283536
      },
      {
        "Branch": "송우리",
        "Location": "경기도 포천시 소흘읍 봉솔로5길 27",
        "Latitude": 37.8278016,
        "Longitude": 127.145
      },
      {
        "Branch": "안산수암하늘",
        "Location": "경기도 안산시 상록구 수인로 2016 1층",
        "Latitude": 37.3632065,
        "Longitude": 126.8762197
      },
      {
        "Branch": "의정부민락중앙",
        "Location": "경기도 의정부시 오목로 209",
        "Latitude": 37.7452042,
        "Longitude": 127.0988618
      },
      {
        "Branch": "안양석수2동",
        "Location": "경기 안양시 만안구 안양로 497 더 파인 타운",
        "Latitude": 37.4137343,
        "Longitude": 126.9086608
      },
      {
        "Branch": "안산부곡",
        "Location": "경기도 안산시 상록구 부곡동 662-4 1층",
        "Latitude": 37.3334427,
        "Longitude": 126.8636141
      },
      {
        "Branch": "대진대",
        "Location": "경기도 포천시 호국로 1005",
        "Latitude": 37.8545908,
        "Longitude": 127.1664341
      },
      {
        "Branch": "안양박달2호",
        "Location": "경기 안양시 만안구 박달로 480",
        "Latitude": 37.4022841,
        "Longitude": 126.9057626
      },
      {
        "Branch": "안산금강",
        "Location": "경기도 안산시 상록구 중보로 22 1층 101~2호",
        "Latitude": 37.3060249,
        "Longitude": 126.8511509
      },
      {
        "Branch": "안양석수대림",
        "Location": "경기 안양시 만안구 경수대로 1201",
        "Latitude": 37.4160358,
        "Longitude": 126.9141922
      },
      {
        "Branch": "안양박달",
        "Location": "경기 안양시 만안구 양화로 137",
        "Latitude": 37.4047559,
        "Longitude": 126.9089518
      },
      {
        "Branch": "민락제일",
        "Location": "경기도 의정부시 용민로 401 에스프라자프라임 104호,105호",
        "Latitude": 37.7555686,
        "Longitude": 127.1129308
      },
      {
        "Branch": "안양박달시장",
        "Location": "경기 안양시 만안구 안양로405번길 18",
        "Latitude": 37.4065686,
        "Longitude": 126.9136595
      },
      {
        "Branch": "안산이동",
        "Location": "경기도 안산시 상록구 이동 529-6",
        "Latitude": 37.3101246,
        "Longitude": 126.8590947
      },
      {
        "Branch": "안산사파이어",
        "Location": "경기 안산시 상록구 성호로 100",
        "Latitude": 37.3136372,
        "Longitude": 126.8627036
      },
      {
        "Branch": "안산감골",
        "Location": "경기도 안산시 상록구 감골2로 47 1층 103",
        "Latitude": 37.2906766,
        "Longitude": 126.849825
      },
      {
        "Branch": "안산사동중앙",
        "Location": "경기도 안산시 상록구 석호로 196",
        "Latitude": 37.2953571,
        "Longitude": 126.8526082
      },
      {
        "Branch": "포천",
        "Location": "경기 포천시 중앙로 139-1",
        "Latitude": 37.8986349,
        "Longitude": 127.2042713
      },
      {
        "Branch": "안양병목안",
        "Location": "만안구 병목안로 125",
        "Latitude": 37.3926446,
        "Longitude": 126.9097538
      },
      {
        "Branch": "안산초당",
        "Location": "경기도 안산시 상록구 사2동 1418-1",
        "Latitude": 37.2834196,
        "Longitude": 126.8476043
      },
      {
        "Branch": "안양과학대",
        "Location": "경기 안양시 만안구 안양동 954-1",
        "Latitude": 37.3967818,
        "Longitude": 126.9135962
      },
      {
        "Branch": "민락스퀘어",
        "Location": "경기도 의정부시 용민로 493 민락동 엘스퀘어 제1층 114,115호",
        "Latitude": 37.7499865,
        "Longitude": 127.1185994
      },
      {
        "Branch": "안양만안",
        "Location": "만안구 안양로 334",
        "Latitude": 37.4016341,
        "Longitude": 126.9194155
      },
      {
        "Branch": "안양성원",
        "Location": "경기 안양시 만안구 장내로 71-1",
        "Latitude": 37.3945946,
        "Longitude": 126.9167773
      },
      {
        "Branch": "의정부고산",
        "Location": "경기도 의정부시 서광로 135",
        "Latitude": 37.7289622,
        "Longitude": 127.1109434
      },
      {
        "Branch": "안산사동",
        "Location": "경기도 안산시 상록구 사2동 1470-9",
        "Latitude": 37.2806461,
        "Longitude": 126.852154
      },
      {
        "Branch": "안산일동",
        "Location": "경기도 안산시 상록구 일동 632-15 101,102,111호",
        "Latitude": 37.3097392,
        "Longitude": 126.8692284
      },
      {
        "Branch": "안양중앙",
        "Location": "경기 안양시 만안구 안양로 303 S106-1,2,3",
        "Latitude": 37.3988146,
        "Longitude": 126.9208266
      },
      {
        "Branch": "상록수역",
        "Location": "경기도 안산시 상록구 본오동 873-7",
        "Latitude": 37.3010672,
        "Longitude": 126.8658859
      },
      {
        "Branch": "안산본오한양",
        "Location": "경기도 안산시 상록구 샘골로 144",
        "Latitude": 37.2966193,
        "Longitude": 126.8633526
      },
      {
        "Branch": "안산본오",
        "Location": "경기도 안산시 상록구 석호로 290",
        "Latitude": 37.2933668,
        "Longitude": 126.8627215
      },
      {
        "Branch": "안양1동래미안",
        "Location": "경기 안양시 만안구 안양동 1377",
        "Latitude": 37.401057,
        "Longitude": 126.9250144
      },
      {
        "Branch": "안산본오우성",
        "Location": "경기 안산시 상록구 본오로 142",
        "Latitude": 37.2976562,
        "Longitude": 126.866906
      },
      {
        "Branch": "안양샘병원",
        "Location": "경기 안양시 만안구 삼덕로 14",
        "Latitude": 37.3935768,
        "Longitude": 126.9237487
      },
      {
        "Branch": "화성남양",
        "Location": "경기도 화성시 남양읍 남양성지로 143 1층",
        "Latitude": 37.2093085,
        "Longitude": 126.8187803
      },
      {
        "Branch": "안산본오중",
        "Location": "경기도 안산시 상록구 본오동 8600",
        "Latitude": 37.2921005,
        "Longitude": 126.8666076
      },
      {
        "Branch": "안산본오스타",
        "Location": "경기 안산시 상록구 본오동 770-160",
        "Latitude": 37.294399,
        "Longitude": 126.8728663
      },
      {
        "Branch": "안양비산롯데",
        "Location": "경기도 안양시 동안구 관악대로 106 1층",
        "Latitude": 37.398982,
        "Longitude": 126.9357532
      },
      {
        "Branch": "안양덕천래미안",
        "Location": "경기 안양시 만안구 안양천서로 177 177",
        "Latitude": 37.3940293,
        "Longitude": 126.9336534
      },
      {
        "Branch": "화성시청뉴타운",
        "Location": "경기 화성시 남양읍 역골중앙로 2",
        "Latitude": 37.2015718,
        "Longitude": 126.8253578
      },
      {
        "Branch": "안양만안구청",
        "Location": "경기 안양시 만안구 안양로 137",
        "Latitude": 37.3866629,
        "Longitude": 126.9311488
      },
      {
        "Branch": "비산래미안",
        "Location": "경기도 안양시 동안구 관악대로 133",
        "Latitude": 37.3994214,
        "Longitude": 126.9386655
      },
      {
        "Branch": "안양덕천초교",
        "Location": "경기 안양시 만안구 덕천로 130-1",
        "Latitude": 37.391981,
        "Longitude": 126.93527
      },
      {
        "Branch": "청학",
        "Location": "경기 남양주시 별내면 청학로68번길 9",
        "Latitude": 37.7082757,
        "Longitude": 127.1194009
      },
      {
        "Branch": "산본8단지",
        "Location": "경기 군포시 산본동 1151-5 한양프라자상가 113호",
        "Latitude": 37.3572471,
        "Longitude": 126.9177658
      },
      {
        "Branch": "성결대사거리",
        "Location": "경기 안양시 만안구 안양로 97",
        "Latitude": 37.3836633,
        "Longitude": 126.9336829
      },
      {
        "Branch": "산본9단지",
        "Location": "경기도 군포시 고산로 529 C, D동 106호",
        "Latitude": 37.360958,
        "Longitude": 126.9225128
      },
      {
        "Branch": "산본목련",
        "Location": "경기도 군포시 산본동 1091 한양목련아파트상가",
        "Latitude": 37.3688461,
        "Longitude": 126.9290812
      },
      {
        "Branch": "안양종합운동장",
        "Location": "경기 안양시 동안구 비산동 1031-7 지상1층",
        "Latitude": 37.4041651,
        "Longitude": 126.9498786
      },
      {
        "Branch": "산본동백",
        "Location": "경기 군포시 산본동 1061-3 1층",
        "Latitude": 37.3710798,
        "Longitude": 126.9339703
      },
      {
        "Branch": "산본한숲",
        "Location": "경기 군포시 산본천로 43-6",
        "Latitude": 37.3606752,
        "Longitude": 126.9281736
      },
      {
        "Branch": "산본대림",
        "Location": "경기도 군포시 산본로 378 1층",
        "Latitude": 37.3639985,
        "Longitude": 126.9306992
      },
      {
        "Branch": "평촌샛별",
        "Location": "경기 안양시 동안구 동안로 194 한양스포츠센터 131호",
        "Latitude": 37.395819,
        "Longitude": 126.9491281
      },
      {
        "Branch": "범계사거리",
        "Location": "경기 안양시 동안구 시민대로 137 진성베가타운 109호",
        "Latitude": 37.3885276,
        "Longitude": 126.9470034
      },
      {
        "Branch": "산본시장",
        "Location": "경기 군포시 금산로 92",
        "Latitude": 37.37025,
        "Longitude": 126.9372583
      },
      {
        "Branch": "안양관양",
        "Location": "경기도 안양시 동안구 관평로 319",
        "Latitude": 37.4051987,
        "Longitude": 126.9574352
      },
      {
        "Branch": "산본6단지",
        "Location": "경기도 군포시 광정로 60 1층",
        "Latitude": 37.3587197,
        "Longitude": 126.9308247
      },
      {
        "Branch": "수촌마을",
        "Location": "경기도 안양시 동안구 관평로305",
        "Latitude": 37.4039684,
        "Longitude": 126.9568884
      },
      {
        "Branch": "평촌범계",
        "Location": "경기도 안양시 동안구 시민대로 175 동안프라자",
        "Latitude": 37.3913538,
        "Longitude": 126.9504303
      },
      {
        "Branch": "수리산역",
        "Location": "경기도 군포시 번영로 380-1 1차 상가 110-4",
        "Latitude": 37.3494854,
        "Longitude": 126.9264709
      },
      {
        "Branch": "안산행복",
        "Location": "경기도 안산시 상록구 건건동 532 덕천빌딩 1층",
        "Latitude": 37.3116671,
        "Longitude": 126.9050939
      },
      {
        "Branch": "산본역2호",
        "Location": "경기도 군포시 번영로 497 금화프라자 107호",
        "Latitude": 37.3583214,
        "Longitude": 126.9322945
      },
      {
        "Branch": "안산반월",
        "Location": "경기도 안산시 상록구 건건동 635-13",
        "Latitude": 37.3045878,
        "Longitude": 126.9019345
      },
      {
        "Branch": "산본3단지",
        "Location": "경기 군포시 광정로 25-57 (금정동, 110호, 118호, 119호, 120호",
        "Latitude": 37.3540936,
        "Longitude": 126.9310404
      },
      {
        "Branch": "산본역",
        "Location": "경기 군포시 번영로 502",
        "Latitude": 37.357605,
        "Longitude": 126.9334185
      },
      {
        "Branch": "관양카페",
        "Location": "경기도 안양시 동안구 관악대로 344",
        "Latitude": 37.4034431,
        "Longitude": 126.961144
      },
      {
        "Branch": "평촌한가람",
        "Location": "경기 안양시 동안구 관평로 227 한가람 APT 상가 1층 110호",
        "Latitude": 37.3967621,
        "Longitude": 126.9578147
      },
      {
        "Branch": "금정역",
        "Location": "경기 군포시 군포로 739",
        "Latitude": 37.3711463,
        "Longitude": 126.9431183
      },
      {
        "Branch": "범계로데오",
        "Location": "경기도 안양시 동안구 평촌대로 223",
        "Latitude": 37.3914648,
        "Longitude": 126.9551123
      },
      {
        "Branch": "안양관양지구",
        "Location": "경기도 안양시 동안구 동편로 136 경진빌딩 1층",
        "Latitude": 37.4101668,
        "Longitude": 126.9670528
      },
      {
        "Branch": "별내별가람역",
        "Location": "경기 남양주시 별내3로 340",
        "Latitude": 37.6677031,
        "Longitude": 127.1166463
      },
      {
        "Branch": "관양1동",
        "Location": "경기 안양시 동안구 관악대로 385",
        "Latitude": 37.4049127,
        "Longitude": 126.9656532
      },
      {
        "Branch": "금정신환",
        "Location": "경기도 군포시 금재로 1 1층",
        "Latitude": 37.3624249,
        "Longitude": 126.941686
      },
      {
        "Branch": "안양법원",
        "Location": "경기 안양시 동안구 시민대로 273 효성인텔리안",
        "Latitude": 37.3947862,
        "Longitude": 126.9603852
      },
      {
        "Branch": "평촌무궁화",
        "Location": "경기 안양시 동안구 동안로 33 무궁화한양아파트상가 107호",
        "Latitude": 37.3821931,
        "Longitude": 126.9554782
      },
      {
        "Branch": "평촌스마트",
        "Location": "경기도 안양시 동안구 시민대로 311 금강스마트빌딩 101호",
        "Latitude": 37.3960855,
        "Longitude": 126.9646697
      },
      {
        "Branch": "평촌역",
        "Location": "경기 안양시 동안구 관평로170번길 43",
        "Latitude": 37.3933191,
        "Longitude": 126.9631752
      },
      {
        "Branch": "군포송정",
        "Location": "경기도 군포시 송부로34번길 35 105호",
        "Latitude": 37.3162665,
        "Longitude": 126.9194501
      },
      {
        "Branch": "별내신안",
        "Location": "경기 남양주시 별내5로5번길 1",
        "Latitude": 37.6496436,
        "Longitude": 127.1135541
      },
      {
        "Branch": "평촌귀인",
        "Location": "경기 안양시 동안구 귀인로 198",
        "Latitude": 37.3854615,
        "Longitude": 126.9611624
      },
      {
        "Branch": "군포삼성마을",
        "Location": "경기도 군포시 삼성로20번길 4-14 1층",
        "Latitude": 37.3369043,
        "Longitude": 126.93381
      },
      {
        "Branch": "평촌어바인퍼스트",
        "Location": "평촌어바인퍼스트 2동상가 103,104호",
        "Latitude": 37.3746076,
        "Longitude": 126.9561631
      },
      {
        "Branch": "군포아카",
        "Location": "경기 군포시 용호1로 4",
        "Latitude": 37.3432943,
        "Longitude": 126.9386591
      },
      {
        "Branch": "안양호계시장",
        "Location": "경기 안양시 동안구 경수대로 572",
        "Latitude": 37.3738368,
        "Longitude": 126.957835
      },
      {
        "Branch": "당동우체국",
        "Location": "경기 군포시 군포로 492",
        "Latitude": 37.3502326,
        "Longitude": 126.9447457
      },
      {
        "Branch": "과천래미안",
        "Location": "경기도 과천시 관문로 161 1층",
        "Latitude": 37.4355213,
        "Longitude": 126.9944906
      },
      {
        "Branch": "군포당동2호",
        "Location": "경기도 군포시 군포로456번길 6 1층",
        "Latitude": 37.3467949,
        "Longitude": 126.9439952
      },
      {
        "Branch": "별내화성",
        "Location": "경기 남양주시 순화궁로 357",
        "Latitude": 37.658579,
        "Longitude": 127.1247612
      },
      {
        "Branch": "평촌라이프",
        "Location": "경기 안양시 동안구 귀인로 262",
        "Latitude": 37.3875069,
        "Longitude": 126.9678021
      },
      {
        "Branch": "과천중앙",
        "Location": "경기 과천시 중앙로 135 과천중앙빌딩",
        "Latitude": 37.4286024,
        "Longitude": 126.9915286
      },
      {
        "Branch": "인덕원역",
        "Location": "경기 안양시 동안구 흥안대로 527 나야빌딩",
        "Latitude": 37.4011365,
        "Longitude": 126.9761498
      },
      {
        "Branch": "별내타운",
        "Location": "경기 남양주시 송산로307번길 16",
        "Latitude": 37.6700053,
        "Longitude": 127.1326883
      },
      {
        "Branch": "인덕원삼성",
        "Location": "경기 안양시 동안구 안양판교로 8 1층",
        "Latitude": 37.4011407,
        "Longitude": 126.977408
      },
      {
        "Branch": "과천",
        "Location": "경기도 과천시 별양상가2로 20 1층",
        "Latitude": 37.426835,
        "Longitude": 126.9925709
      },
      {
        "Branch": "과천부림",
        "Location": "경기 과천시 별양로 184-1",
        "Latitude": 37.434356,
        "Longitude": 126.9980299
      },
      {
        "Branch": "과천3단지",
        "Location": "경기 과천시 별양로 28 슈르래미안 3단지 종합상가 A동 1001,",
        "Latitude": 37.421204,
        "Longitude": 126.9912599
      },
      {
        "Branch": "평촌벤처빌",
        "Location": "경기 안양시 동안구 흥안대로 418 1층",
        "Latitude": 37.3915923,
        "Longitude": 126.9745752
      },
      {
        "Branch": "별내로데오",
        "Location": "경기 남양주시 별내중앙로 64",
        "Latitude": 37.6479963,
        "Longitude": 127.1234134
      },
      {
        "Branch": "평촌민백사거리",
        "Location": "경기 안양시 동안구 포일로 8",
        "Latitude": 37.3882308,
        "Longitude": 126.9739929
      },
      {
        "Branch": "평촌샘마을",
        "Location": "경기 안양시 동안구 흥안대로223번길 샘마을상가 14,15호",
        "Latitude": 37.3766563,
        "Longitude": 126.9675341
      },
      {
        "Branch": "인덕원",
        "Location": "경기 안양시 동안구 흥안대로 456번길",
        "Latitude": 37.3938557,
        "Longitude": 126.9776224
      },
      {
        "Branch": "구리갈매더샵",
        "Location": "경기도 구리시 갈매순환로 11 CM파크빌딩 1층",
        "Latitude": 37.6258063,
        "Longitude": 127.1121424
      },
      {
        "Branch": "과천역",
        "Location": "1층 5호",
        "Latitude": 37.4320041,
        "Longitude": 127.0000714
      },
      {
        "Branch": "갈매중앙",
        "Location": "경기 구리시 갈매중앙로 91 한덕프라자 112, 113호",
        "Latitude": 37.6327442,
        "Longitude": 127.1176506
      },
      {
        "Branch": "의왕자이",
        "Location": "경기 의왕시 내손로 10 포일자이상가 나동 105호",
        "Latitude": 37.3835731,
        "Longitude": 126.9737243
      },
      {
        "Branch": "군포당정역",
        "Location": "경기 군포시 고산로211번길 31",
        "Latitude": 37.3439051,
        "Longitude": 126.9509706
      },
      {
        "Branch": "별내역",
        "Location": "경기 남양주시 별내중앙로 24",
        "Latitude": 37.6454475,
        "Longitude": 127.1262842
      },
      {
        "Branch": "안양포도원",
        "Location": "경기 안양시 동안구 경수대로 426 하늘빌딩",
        "Latitude": 37.3618099,
        "Longitude": 126.9623976
      },
      {
        "Branch": "군포당정",
        "Location": "경기 군포시 고산로 151번길 4 1층 103호,104호",
        "Latitude": 37.348234,
        "Longitude": 126.954792
      },
      {
        "Branch": "의왕포일2지구",
        "Location": "경기 의왕시 봇들로 40 포일프라자 108호109호",
        "Latitude": 37.3964133,
        "Longitude": 126.9852821
      },
      {
        "Branch": "의왕내손",
        "Location": "경기 의왕시 내손중앙로 43",
        "Latitude": 37.3869296,
        "Longitude": 126.9804313
      },
      {
        "Branch": "군포부곡",
        "Location": "경기도 군포시 송부로291번안길 3-14 1층",
        "Latitude": 37.3222104,
        "Longitude": 126.944243
      },
      {
        "Branch": "일동하나로",
        "Location": "경기도 포천시 일동면 화대리 797-9",
        "Latitude": 37.9604036,
        "Longitude": 127.3202898
      },
      {
        "Branch": "오전성원",
        "Location": "경기 의왕시 오전로 198 성원1차 이화아파트 상가 101호",
        "Latitude": 37.3584658,
        "Longitude": 126.9685469
      },
      {
        "Branch": "장현",
        "Location": "경기 남양주시 진접읍 장현리 644-8",
        "Latitude": 37.7167277,
        "Longitude": 127.1802188
      },
      {
        "Branch": "퇴계원",
        "Location": "경기 남양주시 퇴계원읍 퇴계원로 46",
        "Latitude": 37.6507296,
        "Longitude": 127.1420076
      },
      {
        "Branch": "퇴계원중앙",
        "Location": "경기 남양주시 퇴계원읍 도제원로 91",
        "Latitude": 37.6563156,
        "Longitude": 127.1452926
      },
      {
        "Branch": "화성조암",
        "Location": "경기도 화성시 우정읍 조암남로 12",
        "Latitude": 37.0824127,
        "Longitude": 126.8173307
      },
      {
        "Branch": "의왕부곡시장",
        "Location": "경기도 의왕시 부곡중앙남5길 43 1층",
        "Latitude": 37.319016,
        "Longitude": 126.9522503
      },
      {
        "Branch": "의왕부곡",
        "Location": "경기도 의왕시 부곡중앙로 47 1층",
        "Latitude": 37.3213291,
        "Longitude": 126.9542532
      },
      {
        "Branch": "진접센트레빌",
        "Location": "경기 남양주시 진접읍 광릉내로 22",
        "Latitude": 37.7419009,
        "Longitude": 127.1984219
      },
      {
        "Branch": "진접금강",
        "Location": "경기도 남양주시 진접읍 장현리 44-5",
        "Latitude": 37.732197,
        "Longitude": 127.1938283
      },
      {
        "Branch": "내각리",
        "Location": "경기도 남양주시 진접읍 내각리 32",
        "Latitude": 37.7077118,
        "Longitude": 127.179746
      },
      {
        "Branch": "수원당수",
        "Location": "경기 수원시 권선구 당진로 29-4",
        "Latitude": 37.2916007,
        "Longitude": 126.9401889
      },
      {
        "Branch": "광릉내",
        "Location": "경기도 남양주시 진접읍 팔야리 728-5",
        "Latitude": 37.746805,
        "Longitude": 127.2056868
      },
      {
        "Branch": "의왕오전",
        "Location": "경기 의왕시 전주남이길 8 102동 107호",
        "Latitude": 37.3504088,
        "Longitude": 126.9755511
      },
      {
        "Branch": "수원금곡LG",
        "Location": "경기도 수원시 권선구 금곡동 520 주상가동 103.104.105",
        "Latitude": 37.2752398,
        "Longitude": 126.9336943
      },
      {
        "Branch": "진접중앙",
        "Location": "경기도 남양주시 진접읍 금곡리 1081",
        "Latitude": 37.7127676,
        "Longitude": 127.1872781
      },
      {
        "Branch": "의왕신안",
        "Location": "경기 의왕시 왕곡로 47 B04동",
        "Latitude": 37.3463272,
        "Longitude": 126.980125
      },
      {
        "Branch": "구리인창2호",
        "Location": "경기 구리시 동구릉로85번길 6",
        "Latitude": 37.6080761,
        "Longitude": 127.1338973
      },
      {
        "Branch": "수원금곡칠보",
        "Location": "경기 수원시 권선구 금곡동 1082",
        "Latitude": 37.2738634,
        "Longitude": 126.941283
      },
      {
        "Branch": "진접역",
        "Location": "경기 남양주시 진접읍 해밀예당1로 221 진접역",
        "Latitude": 37.7206411,
        "Longitude": 127.2027304
      },
      {
        "Branch": "인창대로",
        "Location": "경기도 구리시 건원대로 91 중앙빌딩",
        "Latitude": 37.6090687,
        "Longitude": 127.1382395
      },
      {
        "Branch": "구리한양대병원",
        "Location": "경기도 구리시 경춘로 162",
        "Latitude": 37.6004567,
        "Longitude": 127.1333308
      },
      {
        "Branch": "수원입북",
        "Location": "경기 수원시 권선구 입북로 41",
        "Latitude": 37.2953267,
        "Longitude": 126.959166
      },
      {
        "Branch": "다산역",
        "Location": "경기도 남양주시 다산중앙로 145번길 17 메트로타워 1층 105,106호",
        "Latitude": 37.625293,
        "Longitude": 127.1504735
      },
      {
        "Branch": "다산가람초교",
        "Location": "경기도 남양주시 다산순환로 118-77 1층",
        "Latitude": 37.6201011,
        "Longitude": 127.1483241
      },
      {
        "Branch": "양지대림",
        "Location": "경기 남양주시 오남읍 양지로 240번길",
        "Latitude": 37.699419,
        "Longitude": 127.1955653
      },
      {
        "Branch": "의왕백운밸리",
        "Location": "경기 의왕시 백운중앙로 46",
        "Latitude": 37.3694352,
        "Longitude": 127.0050877
      },
      {
        "Branch": "구리인창",
        "Location": "경기도 구리시 건원대로34번길 27 세신인창종합상가",
        "Latitude": 37.6048323,
        "Longitude": 127.1415998
      },
      {
        "Branch": "다산아이파크",
        "Location": "경기도 남양주시 다산중앙로 172",
        "Latitude": 37.6282105,
        "Longitude": 127.1560418
      },
      {
        "Branch": "구리제일",
        "Location": "경기도 구리시 경춘로 229 1층 102호",
        "Latitude": 37.6011493,
        "Longitude": 127.1407261
      },
      {
        "Branch": "구리교문",
        "Location": "경기도 구리시 교문동 809",
        "Latitude": 37.5910025,
        "Longitude": 127.135517
      },
      {
        "Branch": "수원율전주공",
        "Location": "경기도 수원시 장안구 율전동 554",
        "Latitude": 37.3057035,
        "Longitude": 126.9710647
      },
      {
        "Branch": "호매실역",
        "Location": "경기 수원시 권선구 금곡로 213",
        "Latitude": 37.2748513,
        "Longitude": 126.9536439
      },
      {
        "Branch": "사능",
        "Location": "경기도 남양주시 진건읍 용정리 76",
        "Latitude": 37.6840681,
        "Longitude": 127.1921748
      },
      {
        "Branch": "수택중앙",
        "Location": "경기 구리시 체육관로80번길 23",
        "Latitude": 37.5918969,
        "Longitude": 127.1393765
      },
      {
        "Branch": "수원성대역",
        "Location": "경기도 수원시 장안구 서부로 2157",
        "Latitude": 37.3009323,
        "Longitude": 126.9724039
      },
      {
        "Branch": "구리토평",
        "Location": "경기도 구리시 수택동 873 알버트프라자 102호, 103호",
        "Latitude": 37.5873073,
        "Longitude": 127.1382362
      },
      {
        "Branch": "성균관대",
        "Location": "경기도 수원시 장안구 서부로 2135",
        "Latitude": 37.299083,
        "Longitude": 126.9717469
      },
      {
        "Branch": "다산이편한",
        "Location": "경기도 남양주시 다산순환로 418",
        "Latitude": 37.6202812,
        "Longitude": 127.1577411
      },
      {
        "Branch": "양지",
        "Location": "경기도 남양주시 오남읍 양지리 95",
        "Latitude": 37.6979873,
        "Longitude": 127.203947
      },
      {
        "Branch": "도농남양",
        "Location": "경기도 남양주시 미금로 37-6 연성프라자",
        "Latitude": 37.608395,
        "Longitude": 127.1515686
      },
      {
        "Branch": "수원칠보",
        "Location": "경기도 수원시 권선구 금호로53번길 2",
        "Latitude": 37.2698126,
        "Longitude": 126.9575962
      },
      {
        "Branch": "수원능실마을",
        "Location": "경기도 수원시 권선구 호매실동 1388 휴먼시아 상가 1519동 107호",
        "Latitude": 37.2603474,
        "Longitude": 126.9524225
      },
      {
        "Branch": "수원천천",
        "Location": "경기도 수원시 장안구 천천동 571-3",
        "Latitude": 37.3008693,
        "Longitude": 126.9769286
      },
      {
        "Branch": "해군2함대",
        "Location": "경기도 평택시 포승읍 원정리 1247",
        "Latitude": 37.0028499,
        "Longitude": 126.8080884
      },
      {
        "Branch": "구리수택",
        "Location": "경기도 구리시 토평동 964-3 새롬프라자 9차 112호",
        "Latitude": 37.5910692,
        "Longitude": 127.145471
      },
      {
        "Branch": "수원스카이뷰",
        "Location": "경기도 수원시 장안구 이목로 24 601동 103~105호",
        "Latitude": 37.3078654,
        "Longitude": 126.9848532
      },
      {
        "Branch": "검배마을",
        "Location": "경기도 구리시 토평동 998",
        "Latitude": 37.5940846,
        "Longitude": 127.151039
      },
      {
        "Branch": "도농역",
        "Location": "경기도 남양주시 도농로 32 부영그린타운",
        "Latitude": 37.6093987,
        "Longitude": 127.1599938
      },
      {
        "Branch": "가운지구",
        "Location": "경기도 남양주시 가운로1길 1",
        "Latitude": 37.604457,
        "Longitude": 127.1585613
      },
      {
        "Branch": "남양주부영",
        "Location": "경기도 남양주시 미금로 232",
        "Latitude": 37.61162,
        "Longitude": 127.1636125
      },
      {
        "Branch": "수원일월",
        "Location": "경기도 수원시 권선구 구운동 911-3",
        "Latitude": 37.2834023,
        "Longitude": 126.9744939
      },
      {
        "Branch": "수원마그넷",
        "Location": "경기도 수원시 장안구 율천동 만석로1",
        "Latitude": 37.2967609,
        "Longitude": 126.9827055
      },
      {
        "Branch": "호매실스위첸",
        "Location": "경기 수원시 권선구 호매실동1400-2",
        "Latitude": 37.2588516,
        "Longitude": 126.9626609
      },
      {
        "Branch": "수원탑동삼성",
        "Location": "경기도 수원시 권선구 구운중로4",
        "Latitude": 37.2755725,
        "Longitude": 126.9735915
      },
      {
        "Branch": "오남",
        "Location": "경기도 남양주시 오남읍 오남리 47",
        "Latitude": 37.6937728,
        "Longitude": 127.2167947
      },
      {
        "Branch": "수원율현",
        "Location": "경기 수원시 팔달구 일월로22번길 3",
        "Latitude": 37.2855577,
        "Longitude": 126.9800598
      },
      {
        "Branch": "정자3동",
        "Location": "경기도 수원시 장안구 정자3동 920",
        "Latitude": 37.2936331,
        "Longitude": 126.9848464
      },
      {
        "Branch": "천천푸르지오",
        "Location": "경기도 수원시 팔달구 화서동 736",
        "Latitude": 37.2900978,
        "Longitude": 126.984683
      },
      {
        "Branch": "진접아울렛",
        "Location": "경기도 남양주시 진접읍 금곡리 10",
        "Latitude": 37.7140086,
        "Longitude": 127.2312011
      },
      {
        "Branch": "진접제일",
        "Location": "경기도 남양주시 진접읍 금곡리 10",
        "Latitude": 37.7140086,
        "Longitude": 127.2312011
      },
      {
        "Branch": "강산타워",
        "Location": "경기 남양주시 다산지금로16번길 87",
        "Latitude": 37.6078355,
        "Longitude": 127.1706589
      },
      {
        "Branch": "수원정자1동",
        "Location": "경기도 수원시 장안구 정자1동 333-5",
        "Latitude": 37.2989244,
        "Longitude": 126.9920615
      },
      {
        "Branch": "수원탑동우방",
        "Location": "경기 수원시 권선구 탑동로 8",
        "Latitude": 37.2696128,
        "Longitude": 126.9753736
      },
      {
        "Branch": "정자동신",
        "Location": "경기 수원시 장안구 장안로 232",
        "Latitude": 37.3029503,
        "Longitude": 126.9946738
      },
      {
        "Branch": "화성상리",
        "Location": "경기도 화성시 봉담읍 삼천병마로 126",
        "Latitude": 37.219299,
        "Longitude": 126.948254
      },
      {
        "Branch": "오목천동",
        "Location": "경기 수원시 권선구 삼천병마로 1599",
        "Latitude": 37.2452228,
        "Longitude": 126.9634459
      },
      {
        "Branch": "수원송죽동",
        "Location": "경기 수원시 장안구 경수대로 1020",
        "Latitude": 37.3069354,
        "Longitude": 127.0005068
      },
      {
        "Branch": "정자금강",
        "Location": "경기 수원시 장안구 대평로 74",
        "Latitude": 37.2950105,
        "Longitude": 126.9938507
      },
      {
        "Branch": "다산한강초교",
        "Location": "경기 남양주시 다산지금로146번길 8-5",
        "Latitude": 37.6002677,
        "Longitude": 127.1730611
      },
      {
        "Branch": "화서역",
        "Location": "경기 수원시 팔달구 화서동 644-5 그린프라자 110호",
        "Latitude": 37.2849952,
        "Longitude": 126.9910674
      },
      {
        "Branch": "수원한일",
        "Location": "경기도 수원시 장안구 송죽동 495",
        "Latitude": 37.3041349,
        "Longitude": 127.0045337
      },
      {
        "Branch": "오목천중앙",
        "Location": "경기도 수원시 권선구 오목천동 551-1",
        "Latitude": 37.2404314,
        "Longitude": 126.9695842
      },
      {
        "Branch": "수원정자",
        "Location": "경기도 수원시 장안구 정자동 74-170",
        "Latitude": 37.2903512,
        "Longitude": 126.9989807
      },
      {
        "Branch": "화성발안",
        "Location": "경기 화성시 향남읍 평리 81-46",
        "Latitude": 37.1311372,
        "Longitude": 126.9089862
      },
      {
        "Branch": "화성봉담",
        "Location": "경기도 화성시 봉담읍 동화리 599-4",
        "Latitude": 37.216566,
        "Longitude": 126.9588483
      },
      {
        "Branch": "화서블루밍",
        "Location": "경기 수원시 팔달구 화서동 206-80",
        "Latitude": 37.2809389,
        "Longitude": 126.9968292
      },
      {
        "Branch": "장안구청",
        "Location": "경기 수원시 장안구 송원로 81 메가플러스A동 115호",
        "Latitude": 37.3021322,
        "Longitude": 127.0092298
      },
      {
        "Branch": "수원고색",
        "Location": "경기 수원시 권선구 매송고색로 693",
        "Latitude": 37.2509499,
        "Longitude": 126.9802729
      },
      {
        "Branch": "수원정자로얄",
        "Location": "경기도 수원시 장안구 송원로 20 107,108호(수원아너스빌위즈상가)",
        "Latitude": 37.2973332,
        "Longitude": 127.0068716
      },
      {
        "Branch": "향남상신",
        "Location": "경기도 화성시 향남읍 상신하길로 74 105호",
        "Latitude": 37.100895,
        "Longitude": 126.8964552
      },
      {
        "Branch": "수원정자2동",
        "Location": "경기 수원시 장안구 수성로 305",
        "Latitude": 37.291623,
        "Longitude": 127.0056671
      },
      {
        "Branch": "금곡동남",
        "Location": "경기도 남양주시 금곡동 653",
        "Latitude": 37.6274523,
        "Longitude": 127.2017369
      },
      {
        "Branch": "수원조원",
        "Location": "경기 수원시 장안구 금당로 36",
        "Latitude": 37.3034913,
        "Longitude": 127.0153675
      },
      {
        "Branch": "화서사거리",
        "Location": "경기 수원시 팔달구 동말로 72 경기 수원시 팔달구 동말로 72 화서상",
        "Latitude": 37.2785721,
        "Longitude": 127.0020936
      },
      {
        "Branch": "향남시범",
        "Location": "경기도 화성시 향남읍 행정중앙1로 14 제이에스플라자",
        "Latitude": 37.1260519,
        "Longitude": 126.9160112
      },
      {
        "Branch": "향남2지구",
        "Location": "경기 화성시 향남읍 상신하길로298",
        "Latitude": 37.1148,
        "Longitude": 126.911
      },
      {
        "Branch": "금곡중앙",
        "Location": "경기 남양주시 경춘로 997",
        "Latitude": 37.6352342,
        "Longitude": 127.2124317
      },
      {
        "Branch": "서울공항",
        "Location": "경기 성남시 수정구 심곡로 16",
        "Latitude": 37.4497175,
        "Longitude": 127.1045376
      },
      {
        "Branch": "수원북문",
        "Location": "경기도 수원시 장안구 영화동 정조로9",
        "Latitude": 37.2902811,
        "Longitude": 127.013458
      },
      {
        "Branch": "화성보보스",
        "Location": "경기 화성시 기안동 371-2",
        "Latitude": 37.222759,
        "Longitude": 126.974828
      },
      {
        "Branch": "화성향남",
        "Location": "경기도 화성시 향남읍 행정중앙2로 63 백상프라자 105호, 106호",
        "Latitude": 37.1298831,
        "Longitude": 126.9218901
      },
      {
        "Branch": "향남부영사랑",
        "Location": "경기도 화성시 향남읍 한절이1길 37",
        "Latitude": 37.1185031,
        "Longitude": 126.9162381
      },
      {
        "Branch": "수원역",
        "Location": "경기도 수원시 팔달구 매산로1가 61-1",
        "Latitude": 37.2673648,
        "Longitude": 127.0014705
      },
      {
        "Branch": "성남고등",
        "Location": "경기 성남시 수정구 청계산로 689 1층 105호, 106호",
        "Latitude": 37.4274726,
        "Longitude": 127.0948607
      },
      {
        "Branch": "수원역로데오",
        "Location": "경기 수원시 팔달구 갓매산로 51 1층",
        "Latitude": 37.2689547,
        "Longitude": 127.0045568
      },
      {
        "Branch": "향남도이",
        "Location": "경기도 화성시 향남읍 행정리 477-4",
        "Latitude": 37.1323024,
        "Longitude": 126.926986
      },
      {
        "Branch": "서판교",
        "Location": "경기도 성남시 분당구 운중로 118 스타타워",
        "Latitude": 37.391379,
        "Longitude": 127.0760669
      },
      {
        "Branch": "포승",
        "Location": "경기도 평택시 포승읍 도곡리 1138-11",
        "Latitude": 36.9890998,
        "Longitude": 126.8468208
      },
      {
        "Branch": "화성와우",
        "Location": "경기도 화성시 봉담읍 와우로 85 토마토오피스텔상가 B동 101호, 102호",
        "Latitude": 37.2140474,
        "Longitude": 126.9750817
      },
      {
        "Branch": "수원대",
        "Location": "경기도 화성시 봉담읍 와우리 73-1",
        "Latitude": 37.2157564,
        "Longitude": 126.9761498
      },
      {
        "Branch": "미사강변포레",
        "Location": "경기도 하남시 미사강변북로65",
        "Latitude": 37.5742265,
        "Longitude": 127.1863093
      },
      {
        "Branch": "미사강변",
        "Location": "경기도 하남시 미사강변대로 228",
        "Latitude": 37.5698869,
        "Longitude": 127.1839902
      },
      {
        "Branch": "수원교동",
        "Location": "경기 수원시 팔달구 매산로 99 경기 수원시 팔달구 매산로 99",
        "Latitude": 37.2707169,
        "Longitude": 127.0116377
      },
      {
        "Branch": "발안산단",
        "Location": "경기도 화성시 향남읍 발안공단로 115",
        "Latitude": 37.0862745,
        "Longitude": 126.9065332
      },
      {
        "Branch": "수원세류LH",
        "Location": "경기 수원시 권선구 세류로 32",
        "Latitude": 37.2618437,
        "Longitude": 127.0072826
      },
      {
        "Branch": "수원남문",
        "Location": "경기도 수원시 팔달구 팔달로2가47-12",
        "Latitude": 37.2778357,
        "Longitude": 127.0172991
      },
      {
        "Branch": "호평문화센터",
        "Location": "경기도 남양주시 호평동 716-12",
        "Latitude": 37.6594916,
        "Longitude": 127.2426291
      },
      {
        "Branch": "평내프라자",
        "Location": "경기도 남양주시 평내동 578-2",
        "Latitude": 37.6456657,
        "Longitude": 127.2347346
      },
      {
        "Branch": "동서울대",
        "Location": "경기 성남시 수정구 복정로 77 (복정동)",
        "Latitude": 37.4599773,
        "Longitude": 127.1265073
      },
      {
        "Branch": "평내중앙",
        "Location": "경기도 남양주시 평내동 203-8",
        "Latitude": 37.6497464,
        "Longitude": 127.2374966
      },
      {
        "Branch": "미사중앙",
        "Location": "경기도 하남시 아리수로 565-1 105.106호",
        "Latitude": 37.5677163,
        "Longitude": 127.1895814
      },
      {
        "Branch": "미사하남고",
        "Location": "경기도 하남시 미사강변남로 29",
        "Latitude": 37.5598038,
        "Longitude": 127.1850099
      },
      {
        "Branch": "수원연무",
        "Location": "경기도 수원시 장안구 창룡대로 185",
        "Latitude": 37.2925141,
        "Longitude": 127.0303391
      },
      {
        "Branch": "세류2동",
        "Location": "경기도 수원시 권선구 세류2동 459-7",
        "Latitude": 37.2557306,
        "Longitude": 127.010985
      },
      {
        "Branch": "경기남부지방경찰청",
        "Location": "경기도 수원시 장안구 창룡대로 223",
        "Latitude": 37.2947127,
        "Longitude": 127.0336978
      },
      {
        "Branch": "호평역",
        "Location": "경기 남양주시 호평동 639",
        "Latitude": 37.6556593,
        "Longitude": 127.2440744
      },
      {
        "Branch": "평내마을",
        "Location": "경기도 남양주시 평내동 604-12 604-12",
        "Latitude": 37.6430284,
        "Longitude": 127.2369376
      },
      {
        "Branch": "미사센트럴포레",
        "Location": "경기도 하남시 미사강변서로 30",
        "Latitude": 37.5529868,
        "Longitude": 127.184501
      },
      {
        "Branch": "판교원마을",
        "Location": "경기 성남시 분당구 운중로 239",
        "Latitude": 37.389828,
        "Longitude": 127.0898262
      },
      {
        "Branch": "호평제일",
        "Location": "경기 남양주시 호평동 269-1 호만프라자 1층",
        "Latitude": 37.6620539,
        "Longitude": 127.2488806
      },
      {
        "Branch": "인계파밀리에",
        "Location": "경기도 수원시 팔달구 세지로 211",
        "Latitude": 37.2703127,
        "Longitude": 127.0226671
      },
      {
        "Branch": "미사역",
        "Location": "경기도 하남시 미사강변동로 85 113, 114호",
        "Latitude": 37.562532,
        "Longitude": 127.1918814
      },
      {
        "Branch": "평내중흥",
        "Location": "경기도 남양주시 평내동 599",
        "Latitude": 37.6459589,
        "Longitude": 127.2418423
      },
      {
        "Branch": "수원세류",
        "Location": "경기 수원시 권선구 세지로 61",
        "Latitude": 37.2576391,
        "Longitude": 127.0169911
      },
      {
        "Branch": "수원월드컵",
        "Location": "경기도 수원시 팔달구 우만동 523-11",
        "Latitude": 37.2846522,
        "Longitude": 127.0325389
      },
      {
        "Branch": "미사청아초교",
        "Location": "경기도 하남시 미사강변중앙로 111",
        "Latitude": 37.5582931,
        "Longitude": 127.1910128
      },
      {
        "Branch": "감일포웰시티",
        "Location": "경기 하남시 감일백제로 109 엠타워 106호, 107호",
        "Latitude": 37.504795,
        "Longitude": 127.1608029
      },