Branch,Location,Latitude,Longitude
화천사내점,강원도 화천군 사내면 수피령로 25,38.06968633,127.5249197
동해이도점,강원도 동해시 이원길 25,37.47981465,129.09464
홍천터미널점,강원도 홍천군 홍천읍 홍천로3길 7,37.68917918,127.8799659
정선리조트점,강원도 정선군 고한읍 물한리길 8,37.2115714,128.8351976
홍천아이파크점,강원도 홍천군 홍천읍 남산마을길 15,37.6841912,127.8838515
인제기린점,강원도 인제군 기린면 기린로 41,37.95601394,128.3179073
양구정림점,강원도 양구군 양구읍 박수근로 322,38.10022495,127.9828827
평창대화점,강원도 평창군 대화면 대화중앙로 129-1,37.50050839,128.4549323
해오름점,강원도 속초시 새마을길 56,38.1864266,128.6045034
애플점,강원도 춘천시 공지로 69-10,37.85363262,127.7501753
화천사내점,강원도 화천군 사내면 사내로1길 12,38.07015243,127.524324
홍천미진점,강원도 홍천군 홍천읍 석화로 116,37.69629935,127.8911014
묵호중앙점,강원도 동해시 중앙시장길 9,37.55072161,129.1087136
대진항점,강원도 고성군 현내면 한나루로 122,38.49886987,128.4253499
문막동화점,강원도 원주시 문막읍 왕건로 36,37.32302408,127.8299333
원주동화점,강원도 원주시 문막읍 왕건로 81,37.32669943,127.8291013
신철원점,강원도 철원군 갈말읍 삼부연로8번길 2,38.14495362,127.3087163
강원도청점,강원도 춘천시 중앙로 1,37.88542373,127.7309913
속초조양점,강원도 속초시 온정로 24,38.18603683,128.594375
속초부영점,강원도 속초시 조양로142번길 13,38.18888483,128.5852201
운영도급점,강원도 동해시 대동로 430,37.5034085,129.1305203
속초양우점,강원도 속초시 온정로1길 30,38.18669314,128.5892892
원주상지영서대점,강원도 원주시 상지대길 84,37.37265969,127.9299598
영월세경대점,강원도 영월군 영월읍 하송로 197,37.17282363,128.4542666
춘천효제점,강원도 춘천시 효제길23번길 18-9,37.87240192,127.7381201
영월삼거리점,강원도 영월군 북면 원동재로 6-1,37.21249136,128.4175152
사북아리랑점,강원도 정선군 사북읍 사북중앙로 13,37.22716751,128.8160999
포남대로점,강원도 강릉시 경강로 2202,37.76121053,128.9050314
홍천강변점,강원도 홍천군 홍천읍 남산강변로2길 2,37.68630442,127.879585
삼척터미널점,강원도 삼척시 봉황로 9-22,37.4401258,129.1687234
고한원진점,강원도 정선군 고한읍 강원남로 6484,37.19642728,128.8722252
춘천미소점,강원도 춘천시 근화길15번길 43,37.87231515,127.7199906
안목해맞이점,강원도 강릉시 창해로14번길 30,37.77201846,128.9479789
원주흥업점,강원도 원주시 흥업면 남원로 57,37.30142885,127.9192646
춘천그린점,강원도 춘천시 효자문길 3,37.87129813,127.7320998
원주태장주공점,강원도 원주시 현충로 301,37.38003099,127.9478846
원주호반점,강원도 원주시 지정면 신지정로 265,37.37839338,127.8693519
삼척건지점,강원도 삼척시 엑스포로 174,37.43605843,129.1479477
남춘천점,강원도 춘천시 퇴계로 66,37.86334168,127.7280143
문막동화점,강원도 원주시 문막읍 왕건로 42,37.32336597,127.8295601
철원자등점,강원도 철원군 서면 신술1길 4,38.16459052,127.4121608
횡계올림픽점,강원도 평창군 대관령면 올림픽로 302,37.66228249,128.6989051
강릉제일점,강원도 강릉시 강릉대로 171-1,37.75764602,128.8891792
원주혁신8호점,강원도 원주시 양지뜰4길 32,37.32651526,127.9831275
낙산해변점,강원도 양양군 강현면 낙산사로 46,38.12142763,128.6307005
태백3주공점,강원도 태백시 고원로 281,37.17631388,128.981734
태백아날점,강원도 태백시 태백산로 5136,37.14578972,128.9930012
하이원휠콘도점,강원도 정선군 고한읍 고한로 35,37.20807994,128.8434171
흥업정성점,강원도 원주시 흥업면 남원로 32,37.29906772,127.9189739
편의점,강원도 춘천시 동면 만천로 240,37.88965785,127.755454
고성공현진점,강원도 고성군 죽왕면 공현진해변길 57,38.35392096,128.5103231
강릉영진점,강원도 강릉시 연곡면 해안로 1459,37.86938502,128.8445339
한화리조트평창점,강원도 평창군 봉평면 태기로 228-33,37.57877176,128.3317396
속초5주공점,강원도 속초시 소평로 110,38.18931301,128.5714563
속사IC점,강원도 평창군 용평면 운두령로 15,37.63899074,128.4959775
원주비발디점,강원도 원주시 모란1길 86,37.3624873,127.9318998
속초자이점,강원도 속초시 조양로 163,38.18721789,128.5816223
동해아람점,강원도 동해시 지리골길 33,37.54839633,129.1010743
춘천동부점,강원도 춘천시 충열로 32,37.89861065,127.7331492
원주에버빌점,강원도 원주시 단관길 98-3,37.32046235,127.9575276
속초조양점,강원도 속초시 온정로 6,38.18444541,128.5937229
강릉온누리점,강원도 강릉시 옥천로 44,37.75923074,128.9011827
만도원주공장점,강원도 원주시 문막읍 문막공단길 62,37.29474663,127.8007951
홍천동면점,강원도 홍천군 동면 속초길 1,37.67769936,127.9379047
동해북평시장,강원도 동해시 대동로 130,37.48328082,129.1265761
주문진신리점,강원도 강릉시 주문진읍 신리천로 56,37.88400478,128.8247042
둔내중앙점,강원도 횡성군 둔내면 둔방로 13,37.51339745,128.2105249
장호항점,강원도 삼척시 근덕면 장호항길 70,37.28631372,129.3180753
원주혁신9호점,강원도 원주시 혁신로 400,37.33723706,127.9748754
강릉교동점,강원도 강릉시 가작로 14,37.76916171,37.76916171
홍천대명기숙사,강원도 홍천군 서면 한치골길592번길 9,37.66371243,127.6938673
엘리시안강촌점,강원도 춘천시 남산면 북한강변길 688,37.83013203,127.5787958
삼척건지점,강원도 삼척시 엑스포로 176,37.43636254,129.1472517
원주뜨란채점,강원도 원주시 시청로 90,37.33436003,127.9259553
편의점,강원도 정선군 사북읍 사북1길 37,37.22758103,128.8136252
평창진부점,강원도 평창군 진부면 진부중앙로 67,37.63743158,128.5585578
강릉에이스점,강원도 강릉시 솔올로 51,37.76668451,128.8781983
교동하슬라점,강원도 강릉시 하슬라로206번길 2,37.76797199,128.8759094
춘천으뜸점,강원도 춘천시 춘천로 72-1,37.87070553,127.7251798
원주금대로점,강원도 원주시 치악로 1651,37.33014082,127.9588989
춘천캐슬점,강원도 춘천시 방송길 70,37.87013559,127.7166117
강릉문화점,강원도 강릉시 문화의길8번길 2,37.75486456,128.8947747
거진항점,강원도 고성군 거진읍 거탄진로 155-1,38.44828886,128.4571536
지경삼거리점,강원도 철원군 김화읍 청양로 92,38.23571512,127.3509905
춘천센터점,강원도 춘천시 춘천로 360,37.88550174,127.7500335
태백센터점,강원도 태백시 감천로 18,37.15904166,128.9880068
원주성호점,강원도 원주시 치악로 2045,37.36217618,127.9613199
삼척동부점,강원도 삼척시 동해대로 4273,37.4554931,37.4554931
사천비치점,강원도 강릉시 사천면 진리해변길 73,37.83862706,128.8762557
경포대점,강원도 강릉시 창해로 485,37.80344538,128.9091691
삼척옥원점,강원도 삼척시 원덕읍 삼척로 648,37.19137066,129.3307834
인제용대점,강원도 인제군 북면 미시령로 999,38.19506018,128.3267413
강릉발전소점,강원도 강릉시 강동면 율곡로 1947,37.72733866,128.9786393
원주상지점,강원도 원주시 북원로2475번길 66,37.36630057,127.9346962
강릉안목점,강원도 강릉시 창해로 10,37.77321564,128.9458829
사북산수빌점,강원도 정선군 사북읍 소금강로 3535,37.22851513,128.837334
동해센터점,강원도 동해시 대학로 16,37.52192449,129.1134911
동해묵호역점,강원도 동해시 발한로 184-1,37.54694692,129.1067225
진부점,강원도 평창군 진부면 송정택지1길 34,37.63696902,128.5629846
원주문막공단점,강원도 원주시 문막읍 반산1로 22,37.29940209,127.8042007
원주단구점,강원도 원주시 천매봉길 116,37.32600719,127.9431489
영월장릉점,강원도 영월군 영월읍 단종로 182,37.19520155,128.455865
원주오성점,강원도 원주시 판부면 오성마을길 63-13,37.31874668,37.31874668
춘천후석로점,강원도 춘천시 후석로46번길 18,37.85768155,127.7433316
원주관설점,강원도 원주시 나비허리길 118,37.32096868,127.9625596
단계봉화산점,강원도 원주시 봉화서부로 14,37.35643342,127.9200298
경포윌점,강원도 강릉시 창해로 419,37.79912731,128.9141124
동해삼화점,강원도 동해시 삼화1길 37,37.487103,129.068185
원주에버빌점,강원도 원주시 단관길 104-12,37.31988559,127.9573926
김유정역점,강원도 춘천시 신동면 김유정로 1417,37.81802598,127.7154253
강릉대박점,강원도 강릉시 강중길 12-1,37.75291162,128.9062694
동해부곡점,강원도 동해시 발한로 61,37.53792636,129.1020292
주문진대로점,강원도 강릉시 주문진읍 연주로 593,37.90480078,128.8220138
춘천남춘로점,강원도 춘천시 남춘로51번길 43,37.86746077,127.728613
관대사랑점,강원도 강릉시 관대길 36,37.7393755,128.8768545
홍천태림점,강원도 홍천군 홍천읍 홍천로 462,37.69471692,127.8948911
춘천신북점,강원도 춘천시 신북읍 신샘밭로 366,37.92483408,127.7512768
초당현대점,강원도 강릉시 초당원길 26-1,37.78433012,128.9167569
오크밸리점,강원도 원주시 지정면 오크밸리2길 22,37.40975481,127.8059133
원주기업도시점,강원도 원주시 지정면 신지정로 177-1,37.37343651,127.877027
화천상서점,강원도 화천군 상서면 영서로 7752-1,38.21030555,127.6639808
강릉공단점,강원도 강릉시 강변로534번길 22,37.76425117,128.9196189
강현해맞이점,강원도 양양군 강현면 동해대로 3507,38.14980157,128.6080803
뉴강릉발전소점,강원도 강릉시 강동면 율곡로 1961-1,37.72707149,128.9782614
홍천터미널점,강원도 홍천군 홍천읍 석화로 126-5,37.69629189,127.8928023
고성경동대점,강원도 고성군 토성면 봉포4길 30,38.25228808,128.5607749
만종빛나점,강원도 원주시 호저면 원문로 637,37.35321896,127.8996698
교암해변점,강원도 고성군 토성면 교암길 42,38.28900475,128.5468712
관대빌리지점,강원도 강릉시 관솔길 10,37.74048808,128.8689707
강일타운점,강원도 원주시 남원로 562,37.33417357,127.9480969
시정선남면점,강원도 정선군 남면 칠현로 64,37.26764624,128.7405326
주문진교항점,강원도 강릉시 주문진읍 연주로 247,37.87504129,128.8296171
남춘천역점,강원도 춘천시 영서로 2261,37.86392436,127.7228637
조양사거리점,강원도 속초시 동해대로 4147,38.18958428,128.5804425
강릉IC점,강원도 강릉시 경강로 1843,37.74643811,128.8709692
뉴인제현리점,강원도 인제군 기린면 내린천로 3903,37.94612733,128.3154754
삼척사랑점,강원도 삼척시 사대길 38,37.44534314,129.1696069
강릉교동부영점,강원도 강릉시 가작로 71,37.76896617,128.8839459
인제현리점,강원도 인제군 기린면 내린천로 3901,37.94599258,128.3153269
태백철암점,강원도 태백시 동태백로 448-4,37.11719262,129.0387958
홍천화계점,강원도 홍천군 북방면 영서로 2694,37.70509733,127.8529598
무릉계곡점,강원도 동해시 삼화로 533,37.46328178,129.0199624
태백5주공점,강원도 태백시 버들치길 4,37.14003569,128.9784286
춘천메가시티점,강원도 춘천시 춘천로 188,37.87626116,127.7353555
설악일성콘도점,강원도 고성군 토성면 고성대로 47-24,38.2096135,128.5021315
강릉회산점,강원도 강릉시 강변로 72,37.74267766,128.8774721
강릉포남중앙점,강원도 강릉시 명륜로 130,37.76955023,128.9031694
강릉현대점,강원도 강릉시 관대길16번길 6,37.74184639,128.878994
원주청솔6차점,강원도 원주시 단관초교길 9,37.31752731,127.9655174
정동진역점,강원도 강릉시 강동면 정동역길 24,37.69093353,129.0329596
원주학성점,강원도 원주시 남산로 142,37.34925418,127.939621
화천만능점,강원도 화천군 상서면 신월동로 8,38.19181032,127.5985717
속초명지점,강원도 속초시 미시령로3337번길 6-17,38.20682004,128.5712163
후평본점,강원도 춘천시 후만로98번길 12,37.87551226,127.7557168
춘천호반점,강원도 춘천시 동내면 거두택지길 80,37.85495123,127.7603416
원주만대로점,강원도 원주시 만대공원길 24,37.33790233,127.9274528
동해프라임점,강원도 동해시 양지길 20-2,37.49936993,129.106936
영월역점,강원도 영월군 영월읍 영월로 2103,37.18260697,128.4801499
강릉강동점,강원도 강릉시 강변로410번길 38,37.75573295,128.9107978
원주중앙로점,강원도 원주시 중앙로 112,37.34989004,37.34989004
춘천삼성점,강원도 춘천시 충열로16번길 21-20,37.89858521,127.7298973
동해동회점,강원도 동해시 효자남길 34,37.48926318,129.1085395
장학춘천로점,강원도 춘천시 동면 춘천로449번길 20,37.89462809,127.7538117
경포현대점,강원도 강릉시 경포로463번안길 15,37.80179494,128.9011659
양양중앙점,강원도 양양군 양양읍 양양로 19,38.07772704,128.6261875
속초장사점,강원도 속초시 중앙로 421,38.22504023,128.58712
양양현남점,강원도 양양군 현남면 동해대로 603,37.95907324,128.7665161
양양기사문점,강원도 양양군 현북면 기사문길 45,38.00904614,128.7305392
원주단계점,강원도 원주시 장미공원길 25-13,37.34596128,127.9325242
주문진동방점,강원도 강릉시 주문진읍 매맥이아랫길 24,37.87608962,128.8266052
원주둥지점,강원도 원주시 단구로 319-1,37.32716719,127.9590472
원주통일점,강원도 원주시 치악로 1692,37.33655747,127.9610171
삼척이편한점,강원도 삼척시 하실길 42,37.45194008,129.1703878
양구행복점,강원도 양구군 동면 펀치볼로 65,38.216776,128.0506335
원주태장대흥점,강원도 원주시 흥양로18번길 35,37.38032042,127.9503686
원주판부점,강원도 원주시 판부면 매봉길 14,37.32138417,127.9425318
철원명성로점,강원도 철원군 갈말읍 명성로 179-1,38.14781923,127.3072745
춘천산수빌점,강원도 춘천시 동내면 향군길 25,37.8478234,127.764478
원주희망점,강원도 원주시 원문로 170-1,37.35658465,127.9312391
포남공원점,강원도 강릉시 경강로2255번길 23,37.76650395,128.9067985
강릉옥천점,강원도 강릉시 토성로 196,37.75756763,128.8971451
춘천사북점,강원도 춘천시 사북면 영서로 4714,38.02929368,127.6415833
김화학포점,강원도 철원군 김화읍 김화로 642-1,38.24631684,127.4211113
한라대,강원도 원주시 흥업면 한라대길 12-2,37.30454019,37.30454019
수산항,강원도 양양군 손양면 수산1길 20-16,38.07710866,128.6744419
춘천CGV점,강원도 춘천시 지석로 80,37.85051924,127.7437428
강릉교동현대점,강원도 강릉시 교동광장로 138-15,37.7628242,128.8799345
낙산점,강원도 양양군 강현면 해맞이길 46,38.11752589,128.6324689
춘천장학점,강원도 춘천시 동면 삭주로 231,37.88945932,127.7553069
덕우삼거리,강원도 정선군 정선읍 칠현로 1309,37.35586381,128.7185964
태장북원점,강원도 원주시 북원중길 21-2,37.3868354,127.9503305
삼척센트럴점,강원도 삼척시 대학로 49-9,37.445481,129.1629414
원주혁신7호,강원도 원주시 배울로 50,37.3213868,127.976607
강릉로얄점,강원도 강릉시 경강로2267번길 7,37.7662447,128.9088724
동해어달항점,강원도 동해시 일출로 215,37.5612969,129.1195212
원주상지원룸점,강원도 원주시 돌터1길 23,37.37030353,127.9384976
삼척남화산,강원도 삼척시 원덕읍 삼척로 1224,37.2338273,129.3429
삼척금빛점,강원도 삼척시 동해대로 4181,37.45344729,129.1764919
양양북문점,강원도 양양군 양양읍 북문길 22-6,38.07814708,128.620036
진부IC점,강원도 평창군 진부면 진부중앙로 192,37.64724201,128.5646713
인제남북점,강원도 인제군 인제읍 인제로 103,38.06371149,128.1639543
원주한신점,강원도 원주시 송림길 58-14,37.33058918,127.9529968
속초중앙점,강원도 속초시 중앙로 161-1,38.20514988,128.5919042
삼척장호항점,강원도 삼척시 근덕면 삼척로 2095,37.28337318,37.28337318
태백구문소,강원도 태백시 장성로 233,37.10058564,129.0211093
강릉터미널점,강원도 강릉시 하슬라로 20,37.75521352,128.879538
동해천곡원룸점,강원도 동해시 감추4길 11,37.51571351,129.1195072
동해3주공점,강원도 동해시 동굴로 61-21,37.51979137,129.1103712
원주성원점,강원도 원주시 무실로 164,37.34165818,127.9403832
속초중앙점,강원도 속초시 중앙로 161,38.20510495,128.591881
양구동면점,강원도 양구군 동면 금강산로 1688,38.20157005,128.0442519
춘천새아침점,강원도 춘천시 남춘천새길 11,37.86229963,127.7333257
원주뉴일산점,강원도 원주시 남산로 77,37.34496651,127.9429088
금호설악점,강원도 속초시 사당골길 43,38.18386176,128.5488695
춘천동면점,강원도 춘천시 동면 가산로 90-4,37.91192081,127.7822883
영진로타리점,강원도 강릉시 연곡면 연주로 150,37.86965558,128.8381948
극동점,강원도 춘천시 후석로 459,37.8894733,127.7407883
강릉센트럴,강원도 강릉시 대학길 12-1,37.75420546,128.8961399
강릉강문점,강원도 강릉시 창해로350번길 23-1,37.79612954,128.9172547
원주뜨란채점,강원도 원주시 시청로 90-1,37.33543168,127.9248822
춘천애막골점,강원도 춘천시 우석로79번길 25,37.86646645,127.7516663
포남타운점,강원도 강릉시 강릉대로 443,37.77310468,128.911953
영진로타리점,강원도 강릉시 연곡면 연주로 150,37.86956394,128.8384097
영월주천점,강원도 영월군 주천면 송학주천로 1436-1,37.27138348,128.2704335
양양서문점,강원도 양양군 양양읍 양양로 122-1,38.07358181,128.6160881
뉴정선고한점,강원도 정선군 고한읍 고한로 151,37.20143261,128.8530873
시고성간성점,강원도 고성군 간성읍 간성로 64-1,38.37958604,128.4678231
춘천강남점,강원도 춘천시 충혼길52번길 18,37.86074311,127.718807
원주일산로점,강원도 원주시 일산로 51,37.34699697,37.34699697
강릉입암점,강원도 강릉시 성덕포남로 41,37.75892471,128.9198026
강릉송정주공점,강원도 강릉시 하평길 55-1,37.77015422,128.9148112
철원금강점,강원도 철원군 동송읍 금학로201번길 9,38.20645141,127.2178855
동해묵호역점,강원도 동해시 발한로 186,37.54702747,129.1067803
대관령치항교점,강원도 평창군 대관령면 차항길 4,37.68736168,128.6938001
홍천설악로점,강원도 홍천군 홍천읍 설악로 1016,37.65651196,127.8262968
강릉강일점,강원도 강릉시 화부산로 97,37.76470483,128.8886735
강릉대박점,강원도 강릉시 강중길 12,37.75287681,128.9061101
속초시외터미널점,강원도 속초시 장안로 15,38.21147879,128.5910876
양양정암점,강원도 양양군 강현면 동해대로 3371,38.1387372,128.6150726
동해하나리움점,강원도 동해시 평원로 115,37.53344537,129.1119426
영월주천점,강원도 영월군 주천면 송학주천로 1436-1,37.27138348,128.2704335
홍천으뜸점,강원도 홍천군 홍천읍 무궁화로5길 19-5,37.68482014,127.8733402
행촌로점,강원도 춘천시 행촌로 11,37.85884047,127.7219849
강릉기산점,강원도 강릉시 범일로 528,37.73432678,128.8808792
춘천중앙점,강원도 춘천시 남춘로 47,37.86519795,127.7320082
횡계수하점,강원도 평창군 대관령면 올림픽로 300,37.66238059,128.699076
후평사거리점,강원도 춘천시 후석로344번길 3,37.88158891,127.7489213
조양대로점,강원도 속초시 조양상가길 5,38.19126667,128.5791088
태백은주점,강원도 태백시 갈골길 7,37.12878168,129.0458754
원주양월점,강원도 원주시 앙월길 4,37.31799203,127.9541442
동해부곡미성점,강원도 동해시 부곡4길 10,37.53716922,129.1087958
주문진신리점,강원도 강릉시 주문진읍 신리천로 58,37.88394315,128.8244989
동해발한점,강원도 동해시 발한로 152,37.54555843,129.1039295
원주황둔점,강원도 원주시 신림면 신림황둔로 1212,37.26167408,128.1890664
경동타운점,강원도 원주시 부론면 모산길 5,37.26240661,127.7910491
단계에이스점,강원도 원주시 소삼터길 37,37.34743151,37.34743151
홍천주공점,강원도 홍천군 홍천읍 갈마로 16,37.69240445,127.8986023
한화리조트설악점,강원도 속초시 미시령로2983번길 111,38.21058715,128.5286759
원주일번가점,강원도 원주시 토지길 12,37.32311164,127.9575374
속초보광병원점,강원도 속초시 중앙로 11,38.19810702,128.5787063
화천간동점,강원도 화천군 간동면 오봉산길 1,38.02867032,127.8169585
원주천매점,강원도 원주시 천매봉길 80,37.32425814,127.9413335
속초설악점,강원도 속초시 노리5길 5,38.18975998,38.18975998
철원명품점,강원도 철원군 갈말읍 명성로139번길 12,38.14423887,127.3066809
횡계점,강원도 평창군 대관령면 대관령로 100,37.67230616,128.7072969
강릉유천,강원도 강릉시 선수촌로63번길 22-4,37.75675753,128.8681622
시여량2호점,강원도 정선군 여량면 여량6길 24-1,37.47288736,128.7230504
청초호점,강원도 속초시 청초호반로 281,38.20137709,128.5878661
홍천태학점,강원도 홍천군 홍천읍 홍천로 646,37.70600004,127.9079176
춘천요선점,강원도 춘천시 서부대성로 48,37.88303882,127.7282943
하조대터미널점,강원도 양양군 현북면 조준길 4,38.01915701,128.7244325
원주혁신부영점,강원도 원주시 양지로 160,37.33586023,127.9862853
강릉발전소점,강원도 강릉시 강동면 율곡로 1947,37.72733866,128.9786393
신림황둔점,강원도 원주시 신림면 신림황둔로 164,37.24269712,128.088444
원주만종점,강원도 원주시 호저면 원문로 422,37.36164541,127.9123476
장학춘천로점,강원도 춘천시 동면 춘천로449번길 30,37.89480803,127.753686
원주상지영서대점,강원도 원주시 상지대길 83,37.36911829,127.9298954
원주무실원룸점,강원도 원주시 섬밭들1길 24,37.33317742,127.9226049
삼척항점,강원도 삼척시 새천년도로 84,37.43911399,129.1906526
고성유진점,강원도 고성군 토성면 아야진해변길 3,38.26770538,128.5546995
삼척용화점,강원도 삼척시 근덕면 삼척로 2242,37.28830874,129.2998181
정선민둥산점,강원도 정선군 남면 무릉1로 89,37.24601057,128.7771115
단계행복점,강원도 원주시 백간길 91,37.35209844,127.9335684
문막대로점,강원도 원주시 문막읍 원문로 1648,37.31809477,37.31809477
새말IC점,강원도 횡성군 우천면 한우로 1406,37.4493404,128.0750899
낙산터미널점,강원도 양양군 강현면 동해대로 3089,38.11768379,128.6282278
평창대화점,강원도 평창군 대화면 대화3길 46,37.50057146,128.4549327
춘천낭만점,강원도 춘천시 동내면 순환대로 664,37.84108531,127.7653061
속초등대점,강원도 속초시 영랑해안길 5,38.21265572,128.6006208
교동점,강원도 속초시 수복로 9,38.19391816,128.5749057
춘천현진점,강원도 춘천시 스무숲길 1,37.85007945,127.7487214
정선여량점,강원도 정선군 여량면 여량6길 11,37.47231699,128.7220161
속초부영점,강원도 속초시 조양로142번길 12,38.18810923,128.5853737
영월삼거리점,강원도 영월군 북면 원동재로 6-1,37.21249136,128.4175152
횡성휴먼시아점,강원도 횡성군 횡성읍 앞들서2로 34,37.48830782,127.9799927
영월터미널점,강원도 원주시 개봉교길 21,37.343837,127.9568034
강릉이편한점,강원도 강릉시 가작로 175,37.77000283,128.8946279
한림대점,강원도 춘천시 삭주로 66,37.88331357,127.7382065
춘천유정점,강원도 춘천시 김유정로 1887,37.85473943,127.7370916
영월세경대점,강원도 영월군 영월읍 중앙로 4,37.18222041,128.4640874
정선스타점,강원도 정선군 정선읍 녹송로 63,37.38264651,128.6706458
양양물치점,강원도 양양군 강현면 동해대로 3559,38.15461441,128.6077665
원주인동점,강원도 원주시 중앙로 38-1,37.34691761,127.9536413
삼척유성점,강원도 삼척시 동해대로 4044-13,37.44192786,129.1787073
동해항점,강원도 동해시 대동로 253,37.49244368,129.1238188
고성제일점,강원도 고성군 현내면 금강산로 126,38.48769883,128.4325974
무실코아루점,강원도 원주시 시청로 89-16,37.33748022,127.9298006
속초장사항점,강원도 속초시 중앙로 390,38.22294689,128.5895358
강원대기숙사점,강원도 춘천시 공지로 188-77,37.8656798,127.7461453
GS25홍천현대점,강원도 홍천군 홍천읍 연봉중앙로 16,37.68129793,127.8742192
속초시티프라디움점,강원도 속초시 미시령로 3307,38.20523713,128.5687833
춘천럭키점,강원도 춘천시 벌말길 106-1,37.86215279,127.7401907
양양설해원점,강원도 양양군 손양면 공항로 230,38.05550723,128.6642048
속초아뜨리움점,강원도 속초시 조양로 40,38.18782544,128.5970037
오션투유리조트점,강원도 고성군 죽왕면 삼포해변길 9,38.31711539,128.5310037
포남제일점,강원도 강릉시 남강초교2길 40,37.76936677,128.9198979
문막중앙점,강원도 원주시 문막읍 원문로 1595,37.32045103,127.8328388
오크밸리스키점,강원도 원주시 지정면 오크밸리2길 58,37.40785843,127.8089455
평창데이즈힐점,강원도 평창군 대관령면 솔봉로 278-84,37.66128853,128.6619009
원주롯데캐슬,강원도 원주시 지정면 가곡로 50-1,37.37696223,37.37696223
원주기업캐슬점,강원도 원주시 지정면 가곡로 70,37.38002374,127.8771631
원주흥양리점,강원도 원주시 소초면 치악로 2334,37.38335606,127.9757182
문막세오름점,강원도 원주시 문막읍 세오름길 6,37.33069231,127.829758
원주라온점,강원도 원주시 지정면 가곡로 132,37.38348118,127.8744811
속초영동점,강원도 속초시 미시령로3337번길 6-49,38.20667421,128.5734075
봄내박물관점,강원도 춘천시 우석로 46,37.8631219,127.7508479
영월고씨굴점,강원도 영월군 김삿갓면 영월동로 1121-8,37.13043516,128.5360371
춘천서천리점,강원도 춘천시 남산면 방하로 1165,37.82728539,127.5267506
속초선사로점,강원도 속초시 선사로5길 29,38.18899242,128.588931
횡성한우로점,강원도 횡성군 횡성읍 한우로 312,37.48710136,127.9871623
간현유원지점,강원도 원주시 지정면 소금산길 20,37.36476816,127.833147
원주귀래점,강원도 원주시 귀래면 운남길 22,37.17038723,127.8869059
삼척근덕점,강원도 삼척시 근덕면 삼척로 3684,37.3830531,129.2256847
속초오복점,강원도 속초시 청대로 22-8,38.18463021,128.5981419
기업도시중앙,강원도 원주시 지정면 신지정로 153-48,37.37498131,127.8808409
원주태장소일점,강원도 원주시 치악로 2195,37.3726401,127.9681907
입암대로점,강원도 강릉시 월대산로 59,37.76017103,128.9171169
인구해변점,강원도 양양군 현남면 인구길 28-35,37.96973519,128.7618696
동해해오름점,강원도 동해시 발한로 384,37.56224211,129.1014138
춘천에이스점,강원도 춘천시 삭주로108번길 32,37.88227579,127.7415638
태백가온점자판기,강원도 태백시 서황지로 80,37.17672423,128.9844082
한림대학사점1,강원도 춘천시 한림대학길 1,37.88543267,127.7349362
속초시외터미널점,강원도 속초시 장안로 15,38.21147879,128.5910876
원주기업반도점,강원도 원주시 지정면 조엄로 397,37.37520357,127.8694477
속초마리나베이점,강원도 속초시 청초호반로 28,38.19066975,128.5922094
대성점,강원도 삼척시 중앙시장길 48-29,37.44240107,129.1664308
원주일산점,강원도 원주시 남산로 75,37.34479532,127.9429541
속초블루핀점,강원도 속초시 교동로1길 11,38.20061847,128.5809868
철원내대리점,강원도 철원군 갈말읍 두루미로 410-2,38.20390432,127.2981343
속초은성점,강원도 속초시 동해대로 4002,38.19028533,128.5969553
원주장양점,강원도 원주시 북원로 2870,37.39915457,127.9529202
동해타운점,강원도 동해시 동굴로 125-5,37.51960982,129.1172012
동해부곡일정점,강원도 동해시 해안로 449,37.54091181,129.1094056
원주남원로점,강원도 원주시 남원로 629,37.33936561,127.9519643
문막으뜸점,강원도 원주시 문막읍 문막시장1길 27,37.30699193,127.8169849
동해하나리움점,강원도 동해시 평원로 115,37.53344537,129.1119426
태백온누리점,강원도 태백시 백두대간로 12,37.18189184,128.9784501
춘천으뜸점,강원도 춘천시 춘천로 70,37.870471,127.725067
영월별마로점,강원도 영월군 영월읍 봉래산로 27-17,37.18610343,128.4711505
강릉용강점,강원도 강릉시 임영로 155,37.755069,128.8915769
삼척임원점,강원도 삼척시 원덕읍 임원중앙로 34,37.23070277,129.3442983
고성죽왕점,강원도 고성군 죽왕면 동해대로 5900,38.32891068,128.5245933
대관령점,강원도 평창군 대관령면 올림픽로 191,37.66600142,128.7098668
사내제일,강원도 화천군 사내면 사내로 35,38.07124785,127.5211713
춘천로데오점,강원도 춘천시 춘천순환로 46,37.85510781,127.7489998
인제에코캐슬점,강원도 인제군 북면 원통로211번길 1,38.1246325,128.206702
강원평창점,강원도 평창군 평창읍 송학로 40,37.36798171,128.3929613
G춘천푸른강산점,강원도 춘천시 춘천로 22,37.86670704,127.7222281
강릉화부산로점,강원도 강릉시 화부산로 6,37.75751982,128.8867945
속초타워점,강원도 속초시 철새길 43,38.19198731,128.582779
도계새롬점,강원도 삼척시 도계읍 도계우회로2길 8,37.23749548,129.0462711
사북중앙점,강원도 정선군 사북읍 지장천로 699,37.22619642,128.8249015
원주청솔점,강원도 원주시 늘품로 6,37.32053171,127.9505095
춘천교동점,강원도 춘천시 삭주로70번길 18,37.88199959,127.7388932
속초럭키점,강원도 속초시 만천길 20-2,38.19961269,128.5748249
속초시외터미널점,강원도 속초시 장안로 19,38.21139575,128.5914752
한화리조트설악별관점,강원도 속초시 미시령로2983번길 16,38.20466191,128.5339538
영진해변점,강원도 강릉시 연곡면 해안로 1445,37.86853843,128.8457404
정선아리점,강원도 정선군 정선읍 정선로 1328,37.3793007,128.6615375
하조대해변점,강원도 양양군 현북면 하조대해안길 11,38.02149756,128.7262209
대진항점,강원도 고성군 현내면 대진항길 82,38.49900268,128.4259927
고성아이파크콘도점,강원도 고성군 토성면 고성대로 75-16,38.20978336,128.504542
기린점,강원도 인제군 기린면 기린로 41,37.95608593,128.3179418
원주태장주공점,강원도 원주시 흥양로51번길 20-1,37.38526099,127.9567571
강릉대로점,강원도 강릉시 동해대로 3292,37.78478676,128.8744617
영월청령포점,강원도 영월군 영월읍 청령포로 12,37.18513227,128.4568182
강릉아이파크점,강원도 강릉시 경강로 2511,37.77499346,128.9353714
강릉포남점,강원도 강릉시 경강로2301번길 17,37.76875318,128.9118996
정선용담점,강원도 정선군 정선읍 용담길 74,37.3772884,128.6490429
횡성우천점,강원도 횡성군 우천면 수남로 359-1,37.4594653,128.0656839
사북황소점,강원도 정선군 사북읍 사북중앙로 47,37.22769185,128.8197679
삼척원당점,강원도 삼척시 오십천로 301-11,37.43947771,129.1521358
춘천만천사거리점,강원도 춘천시 동면 순환대로 1065,37.87498606,127.7765884
둔내백두점,강원도 횡성군 둔내면 고원로 335,37.50222439,128.2342452
편의점,강원도 철원군 서면 와수로173번길 25,38.23865498,127.4370276
천곡원룸,강원도 동해시 감추4길 11,37.51571351,129.1195072
단구에버빌점,강원도 원주시 나비허리길 22,37.32435489,127.9567356
남애항점,강원도 양양군 현남면 매바위길 113,37.94344463,128.7850809
그랑블루점,강원도 강릉시 창해로 271,37.78888004,128.9237047
화천본점,강원도 화천군 화천읍 화천새싹길 5,38.10653443,127.7058603
양양푸르미점,강원도 양양군 양양읍 남대천로 99-14,38.06263134,128.6167484
주문진점,강원도 강릉시 주문진읍 시장3길 4-5,37.89187111,128.8284757
원주아이씨점,강원도 원주시 적동2길 1,37.39646007,127.9524249
춘천외솔점,강원도 춘천시 동내면 외솔길19번길 66,37.85771989,127.757162
원주삼광점,강원도 원주시 행구로 83,37.34198379,127.9662736
강릉노암한라점,강원도 강릉시 남부로125번길 4,37.74247158,128.8941035
회산한신점,강원도 강릉시 회산로339번길 12,37.73927295,128.8638961
홍천신내점,강원도 홍천군 화촌면 구룡령로 9,37.74771616,127.9476959
경포호수점,강원도 강릉시 경포로 489-6,37.8040202,128.9047246
원주유보라점,강원도 원주시 지정면 조엄로 393,37.3744819,127.8687377
홍천대명점,강원도 춘천시 서면 박사로 844,37.89194133,127.691856
강릉율곡점,강원도 강릉시 율곡로 2880,37.7605041,128.894888
영월터미널점,강원도 영월군 영월읍 중앙1로 17-3,37.18262913,128.4655652
동해동인병원점,강원도 동해시 하평로 26,37.5306074,129.1071146
고성율곡부대점,강원도 고성군 토성면 뒷골길 106,38.28495315,128.5019185
홍천미르점,강원도 홍천군 홍천읍 연봉로 37,37.68163506,127.8777672
삼척중앙점,강원도 삼척시 남산길 65,37.43526332,129.1647494
횡성학곡점,강원도 횡성군 횡성읍 경강로 1646,37.50326875,127.9569153
원주영진점,강원도 원주시 현충로 155,37.36850682,127.9502071
태백장성점,강원도 태백시 장성1길 53,37.10057879,129.0071593
영월고씨굴점,강원도 영월군 김삿갓면 영월동로 1121-8,37.13043516,128.5360371
홍천로점,강원도 홍천군 홍천읍 홍천로 289,37.68900545,127.8775057
강촌춘천점,강원도 춘천시 남산면 강촌로 63,37.81334115,37.81334115
춘천신북점,강원도 춘천시 신북읍 신샘밭로 364,37.92482435,127.7509356
신북산천점,강원도 춘천시 신북읍 장본길 3,37.94732424,127.7516106
속초동명점,강원도 속초시 중앙로 205,38.20888465,128.5927452
신동정원점,강원도 정선군 신동읍 의림로 201,37.21063564,128.6412134
뉴동해타운,강원도 동해시 동굴로 125-5,37.51960982,129.1172012
태백3주공점,강원도 태백시 고원로 279,37.17546871,128.9815091
춘천현주점,강원도 춘천시 후만로 37,37.87492113,37.87492113
춘천웰라움점,강원도 춘천시 공지로218번길 26,37.86417346,127.7412633
횡성으뜸,강원도 횡성군 횡성읍 교항북로 20,37.48692053,127.9824356
양구해링턴점,강원도 양구군 양구읍 금송로 32,38.09788334,127.9920843
정선역점,강원도 정선군 정선읍 녹송8길 67,37.38734471,128.6716136
후평대로점,강원도 춘천시 춘천로 402,37.88901051,127.751818
시남원주점,강원도 원주시 북원로 1833,37.31269952,127.9159357
원주애플점,강원도 원주시 봉대길 20,37.33413968,127.9928197
속초하우스토리점,강원도 속초시 동해대로 4280,38.198649,128.5729107
강릉하평해변,강원도 강릉시 사천면 진리해변길 167,37.84495492,128.8710245
홍천두촌점,강원도 홍천군 두촌면 자은로 356,37.86846565,128.0197853
동해프라임,강원도 동해시 양지길 20-1,37.49871109,129.1080119
거두안길점,강원도 춘천시 동내면 거두택지길14번길 6,37.85248584,127.7532814
고성대로점,강원도 고성군 토성면 동해대로 4857,38.24617208,128.5679482
도문점,강원도 속초시 떡밭재로 25,38.16605903,128.5860532
백두2호점,강원도 횡성군 둔내면 둔내로 49,37.51263924,128.2162353
문막IC점,강원도 원주시 문막읍 건등로 76,37.31503126,127.823825
강촌방곡로드점,강원도 춘천시 남산면 강촌로 242,37.79829183,127.639239
원주봉황점,강원도 원주시 봉황2길 1,37.33049014,127.9924251
속초갯배점,강원도 속초시 중앙부두길 41,38.20267087,128.5921696
시편의점,강원도 춘천시 충열로 153,37.90667062,127.7393178
영월에듀타운,강원도 영월군 영월읍 봉래산로 114,37.19313169,128.4735483
영월극동,강원도 영월군 영월읍 하송로 146,37.17707666,128.4566908
양덕원점,강원도 홍천군 남면 양덕원로 101,37.61856669,127.7678651
가진해변점,강원도 고성군 죽왕면 가진해변길 85,38.37083934,128.5085765
속초해변점,강원도 속초시 해오름로188번길 12,38.19171195,128.6016475
화천본2호점,강원도 화천군 화천읍 상승로 49-6,38.10553929,127.7042451
설악산점,강원도 속초시 설악산로 804,38.16908337,128.519691
자유시장점,강원도 원주시 중앙시장길 11,37.35023163,127.9486163
양양센텀마크점,강원도 양양군 양양읍 한고개길 9,38.0790557,128.6151537
홍천갈마로점,강원도 홍천군 홍천읍 갈마로 41,37.69412731,127.9007657
홍천아산병원점,강원도 홍천군 홍천읍 공작산로 28,37.69232108,127.8959944
원주뉴하이츠점,강원도 원주시 단관공원길 104,37.31485725,127.9571021
속초서희스타점,강원도 속초시 동해대로 3961,38.18832337,128.6000671
고성센트럴점,강원도 고성군 간성읍 남천길 24,38.37977219,128.4775186
원주헬씨점,강원도 원주시 서원대로 387,37.33259713,127.9492941
양양손양,강원도 양양군 손양면 손중로 211-6,38.06105102,128.6409964
평창하진부점,강원도 평창군 진부면 진부로 27,37.64512481,128.566491
평창서울대점,강원도 평창군 대화면 평창대로 1368,37.53870212,37.53870212
연세청연학사점,강원도 원주시 흥업면 연세대길 1,37.27483464,37.27483464
명륜포스코점,강원도 원주시 서원대로 290,37.33773816,37.33773816
춘천엘타워점,강원도 춘천시 공지로 455,37.87395583,37.87395583
속초베니키아점,강원도 속초시 동해대로 3691,38.16573096,38.16573096
성남대로점,경기도 성남시 수정구 성남대로 1196,37.43657438,127.1287073
서이천IC,경기도 이천시 신둔면 서이천로 876,37.29641796,127.3993466
일산시티,경기도 고양시 일산서구 원일로 121,37.68523606,126.775623
의정부제일점,경기도 의정부시 시민로143번길 83,37.74143722,127.0508168
수원망고점,경기도 수원시 장안구 하률로25번길 5-8,37.30333044,126.9755633
기흥써니점,경기도 용인시 기흥구 고매로 16,37.23120193,127.1109489
매탄드림점,경기도 수원시 영통구 인계로270번길 2,37.26363781,127.0467786
원당대림점,경기도 고양시 덕양구 호국로 859,37.65950894,126.83855
인창대림점,경기도 구리시 동구릉로 64,37.60563084,127.1348144
편의점,경기도 화성시 향남읍 행정동로 22,37.12615378,126.9272699
궐동본점,경기도 오산시 궐리사로 96,37.1581841,127.0628415
첼시아웃렛점,경기도 파주시 탄현면 필승로 210,37.76861813,126.6920861
수지금호점,경기도 용인시 수지구 상현로 59,37.30544256,127.0790545
판교우림점,경기도 성남시 분당구 판교로255번길 9-22,37.40402042,127.1000783
청강대점,경기도 이천시 마장면 청강가창로 414,37.21245614,127.3588328
수지자이점,경기도 용인시 수지구 신봉2로 73,37.32801378,127.0731598
양평양근점,경기도 양평군 양평읍 양근로137번길 9,37.49348905,127.4878472
이천안홍점,경기도 이천시 애련정로 74,37.27785763,127.4518623
기흥공세점,경기도 용인시 기흥구 공세로90번길 1,37.23284643,127.109149
고색대성점,경기도 수원시 권선구 매송고색로711번길 10,37.25185303,126.9820096
아치울점,경기도 구리시 아치울길 30,37.57492322,127.1189921
광주회덕점,경기도 광주시 행정타운로138번길 3,37.42760833,127.2438443
웨스턴돔,경기도 고양시 일산동구 정발산로 24,37.65588881,126.7720252
화성신일점,경기도 화성시 효행로291번길 26,37.22311426,126.9764352
안양동영점,경기도 안양시 만안구 덕천로 45,37.38524672,126.9357287
하이닉스점,경기도 이천시 부발읍 경충대로 2120,37.25457843,127.48939
고암사랑점,경기도 양주시 청담로 308-6,37.82641192,127.0666092
신봉자이점,경기도 용인시 수지구 신봉2로 6,37.32354503,127.077852
매탄우리점,경기도 수원시 영통구 신원로 217,37.25527338,127.0600169
매산로2가점,경기도 수원시 팔달구 고화로13번길 2,37.27077649,127.0075524
김포데시앙점,경기도 김포시 양촌읍 황금로89번길 25,37.61862972,126.6240369
용인타운,경기도 용인시 처인구 백옥대로1402번길 18,37.25993365,127.2148478
평택포승점,경기도 평택시 포승읍 여술3길 13,36.98713713,126.8463478
덕평IC점,경기도 광주시 도척면 도척로 214,37.33344535,127.3370984
안산경남점,경기도 안산시 단원구 원선1로 61,37.32832421,126.8043782
광명프라자점,경기도 광명시 범안로 1040,37.46161537,126.8786601
포천어룡점,경기도 포천시 호국로 1359,37.88110344,127.1869399
덕계현진점,경기도 양주시 고덕로 159,37.80785,127.0608013
송림오거리점,경기도 화성시 남양읍 고향의봄길381번길 25-9,37.18194822,126.8409928
수원운동장점,경기도 수원시 장안구 송원로14번길 52,37.29635471,37.29635471
동두천터미널점,경기도 동두천시 평화로2169번길 24,37.88155584,127.0533751
성남신흥역점,경기도 성남시 중원구 산성대로 270-1,37.44040484,127.1473655
영통신원로점,경기도 수원시 영통구 신원로 274,37.25982249,127.060975
용인신갈점,경기도 용인시 기흥구 용구대로2152번길 4-1,37.27941294,127.1064692
이천중일점,경기도 이천시 설봉로 29,37.27919587,127.4374748
이천호법점,경기도 이천시 호법면 이섭대천로 523,37.22248216,127.4267181
궐동하이빌점,경기도 오산시 궐리사로 26,37.16004464,127.0554328
중산산들점,경기도 고양시 일산동구 중산로157번길 54-4,37.68437889,126.7789816
화성송곡점,경기도 화성시 향남읍 발안로 611,37.1263974,126.972056
남양주현대점,경기도 남양주시 진접읍 봉현로 21,37.71542905,127.179884
수원파라곤점,경기도 수원시 팔달구 효원로308번길 58-11,37.25809621,127.0334557
호원가나안점,경기도 의정부시 평화로 228,37.71219236,127.0477534
기흥푸르지오점,경기도 용인시 기흥구 기흥역로 16,37.27360842,127.1146676
수지아드리아점,경기도 용인시 수지구 풍덕천로160번길 9-17,37.32483382,127.1001208
수지영진점,경기도 용인시 수지구 풍덕천로189번길 6,37.32710289,127.1010867
근형심포니점,경기도 광주시 도척면 도척로 404-6,37.3180084,127.3336913
안산산재병원,경기도 안산시 상록구 구룡로 87,37.31677957,126.8739785
용인목련점,경기도 용인시 처인구 포곡읍 포곡로118번길 42-5,37.26841954,127.2226635
의왕솔밭점,경기도 의왕시 솔밭길 18-9,37.31723859,37.31723859
협성대점,경기도 화성시 봉담읍 샘마을길 62,37.21549618,126.9522917
능곡점,경기도 고양시 덕양구 토당로 110,37.62466978,126.8180105
광명시청점,경기도 광명시 시청로 15,37.47840921,126.8633946
의정궁전점,경기도 의정부시 범골로145번길 28,37.73737047,127.0415199
탄현세진점,경기도 고양시 일산서구 일현로 38,37.69055239,126.7627121
호평클래스점,경기도 남양주시 천마산로 109-225,37.67469377,127.2447221
수원원천점,경기도 수원시 영통구 매영로 163,37.26552949,127.0602277
의정리빙점,경기도 의정부시 신흥로208번길 14,37.73461699,127.0441875
안산레이크빌점,경기도 안산시 단원구 광덕1로 163,37.30836577,126.8278083
동탄새강점,경기도 화성시 10용사3길 32,37.19209105,127.0671984
마명제일점,경기도 포천시 내촌면 부마로 285,37.76716375,127.1952261
은현운암점,경기도 양주시 은현면 화합로 827,37.86989758,127.0204154
용인희성점,경기도 용인시 처인구 금령로 135,37.23567082,127.2113691
야탑타운점,경기도 광주시 고불로 118,37.39341731,127.2251354
양평점,경기도 양평군 양평읍 양평시장길 34,37.49126456,127.4902033
수지중앙점,경기도 용인시 수지구 만현로 79,37.30928952,127.0871073
오남상일점,경기도 남양주시 오남읍 진건오남로 552,37.68274244,127.2106849
에이스파평점,경기도 파주시 파평면 청송로 510,37.93577014,126.8669561
오남푸른솔점,경기도 남양주시 오남읍 진건오남로 735-17,37.69427187,127.2101092
수원감천점,경기도 수원시 장안구 경수대로776번길 28,37.29305163,127.0205685
성남성수점,경기도 성남시 수정구 모란로 28,37.43577534,127.1278803
광주신현점,경기도 광주시 오포읍 머루숯길 11,37.36095429,127.1558061
부천북중점,경기도 부천시 부천로366번길 18,37.51658863,126.7857592
글로벌원마운트점,경기도 고양시 일산서구 한류월드로 300,37.66454404,126.7545073
호평주공점,경기도 남양주시 늘을1로 31,37.65359872,127.2388613
광주동막점,경기도 광주시 오포읍 문형산길 25,37.3604477,127.1618625
광주역동점,경기도 광주시 광주대로 22,37.40831918,127.2614227
마석프라자점,경기도 남양주시 화도읍 비룡로 2,37.65250037,127.3016452
가평더베이점,경기도 가평군 가평읍 북한강변로 190,37.74862316,127.5285682
안산성포점,경기도 안산시 상록구 예술광장1로 131,37.32477238,126.8422666
오산시티자이점,경기도 오산시 부산중앙로 12,37.14920157,127.0908026
동백백현점,경기도 용인시 기흥구 동백8로131번길 9,37.2828549,127.1644266
광주곤지암점,경기도 광주시 곤지암읍 광여로 46,37.35027192,127.3506533
수원파크빌점,경기도 수원시 팔달구 향교로 52,37.2689201,127.0064605
미사동로,경기도 하남시 미사동로 41,37.5709381,127.2009534
봉담동화점,경기도 화성시 봉담읍 동화북길 23,37.22296302,126.9539688
신여주휴게소점,경기도 여주시 웅골로 3,37.26081345,127.6414123
이천현진점,경기도 이천시 안흥로 53,37.28252272,127.4551891
사동제일점,경기도 안산시 상록구 이화2길 21,37.29901606,126.8576403
김포고촌점,경기도 김포시 고촌읍 고송로 20,37.60469615,126.7688582
여주명성점,경기도 여주시 세종로475번길 2,37.25789082,127.6464091
포천하성북점,경기도 포천시 군내면 호국로 1696,37.90375623,127.210991
용현브레뉴점,경기도 의정부시 용민로 49-1,37.73653653,127.0839515
동백동창점,경기도 용인시 기흥구 동백중앙로 193,37.27102966,127.1526167
중앙주공점,경기도 안산시 단원구 당곡3로 20,37.32608122,126.8397416
안산원곡본점,경기도 안산시 단원구 원곡로 51,37.33169237,126.7935486
부천애플점,경기도 부천시 원미로 216,37.50153451,126.7938858
화성동남점,경기도 화성시 정남면 만년로 470,37.16207629,126.9840367
호매실타운점,경기도 수원시 권선구 금곡로102번길 126,37.26967361,126.9426117
곤지암점,경기도 광주시 곤지암읍 광여로 342,37.36086342,127.3764475
소하신성점,경기도 광명시 소하로 78,37.44790966,126.8833401
광명광문점,경기도 광명시 도덕로 18,37.46775518,126.8499792
남양주송능점,경기도 남양주시 진건읍 진건오남로 372,37.6726124,127.1983115
운정드림점,경기도 파주시 가람로21번길 26-9,37.73533528,126.7527436
차병원점,경기도 성남시 분당구 야탑로 59,37.41045802,127.1258243
경민대정문점,경기도 의정부시 호국로1111번길 42,37.74467933,127.0263232
일산구산점,경기도 고양시 일산서구 구산로 119,37.6941216,126.704111
대화건영점,경기도 고양시 일산서구 성저로46번길 89,37.68519058,126.7557833
프로방스,경기도 파주시 탄현면 새오리로 69,37.79040598,126.684981
장암현대점,경기도 의정부시 신곡로 35,37.72912421,127.0546722
와우시티점,경기도 파주시 문산읍 방촌로 1719-10,37.86663988,126.7840834
중동뉴서울점,경기도 부천시 중동로71번길 36,37.48671278,126.7625541
덕계선강점,경기도 양주시 평화로1475번길 585,37.8211297,127.0295337
일산금호점,경기도 고양시 일산서구 일산로 562,37.67887258,126.7658876
동탄남광장점,경기도 화성시 동탄문화센터로 71-17,37.20025342,127.0727303
창현주공점,경기도 남양주시 화도읍 녹촌로 9,37.64464958,127.3011975
장암주공점,경기도 의정부시 회룡로 252,37.72641553,127.0618647
양주본점,경기도 양주시 평화로 1255,37.80310334,127.0453155
이천삼익점,경기도 이천시 부발읍 경충대로 2253,37.2601791,127.4760377
정왕유호점,경기도 시흥시 공단1대로 263,37.33550208,126.7305197
기흥IC본점,경기도 용인시 기흥구 기흥단지로 6,37.22201777,127.1035185
청덕대로점,경기도 용인시 기흥구 구성로 264,37.29037008,127.1380427
시화드림,경기도 시흥시 정왕대로 350,37.3382433,126.7493194
수원그랜드점,경기도 수원시 권선구 세지로28번길 13,37.25451406,127.0164571
안양냉천로점,경기도 안양시 만안구 냉천로 177,37.39584906,126.9204677
향남7단지,경기도 화성시 향남읍 상신하길로274번길 61,37.1126341,126.91406
동두천법원점,경기도 동두천시 지행로 107,37.89255808,127.0591236
안산다정점,경기도 안산시 단원구 원곡로 26,37.32944648,126.7924449
남양주도곡점,경기도 남양주시 와부읍 덕소로 230-40,37.57701177,127.2198971
장안천천점,경기도 수원시 장안구 덕영대로511번길 27,37.29910682,126.9800195
성남을지점,경기도 성남시 수정구 산성대로 581,37.46215709,127.1676466
민락센터점,경기도 의정부시 용민로 441,37.75609729,127.1169502
대진대사랑점,경기도 포천시 호국로 1029,37.85635288,127.1676204
시흥삼미시장점,경기도 시흥시 삼미시장4길 32-1,37.44031515,126.7813313
광주희망점,경기도 광주시 곤지암읍 도척로 147,37.33893574,127.3375806
송탄가곡리점,경기도 평택시 진위면 가곡길 92,37.11797192,127.0737235
수원삼성로점,경기도 수원시 영통구 신원로 66,37.24810075,127.048744
고색산단점,경기도 수원시 권선구 오목천로152번길 68,37.2413654,126.9779466
대부바다점,경기도 안산시 단원구 대부황금로 1485,37.28710993,126.5741625
샘터충장로점,경기도 고양시 덕양구 충장로 118-31,37.62248001,126.8351956
파주티오피,경기도 파주시 월롱면 엘씨디로8번길 38,37.81195438,126.7758046
삼송로얄점,경기도 고양시 덕양구 세솔로 104,37.65324245,126.8876386
화성우남점,경기도 화성시 10용사로 288,37.19926998,127.0498302
조암삼괴점,경기도 화성시 우정읍 조암동로35번길 2,37.08800667,126.8224487
산본우정점,경기도 군포시 산본로323번길 20-25,37.35963958,126.9308639
소사벌타운점,경기도 평택시 비전9길 72,37.00281336,127.1133233
수택공원점,경기도 구리시 원수택로52번길 8,37.59610419,127.1418664
우만1동점,경기도 수원시 팔달구 창룡대로150번길 38,37.28971172,127.0275026
안산광덕중점,경기도 안산시 상록구 광덕산안길 29-1,37.33617903,126.8449466
장암주공점,경기도 의정부시 회룡로 254,37.72601656,127.0604177
동두천타운점,경기도 동두천시 못골로 31,37.90172193,127.066
동탄반송점,경기도 화성시 동탄공원로1길 12-7,37.2024614,127.0601878
김포1동점,경기도 김포시 봉화로182번길 26,37.62858775,126.7029501
용인삼정점,경기도 용인시 처인구 금어로 74,37.26547676,127.2232462
청학제일점,경기도 남양주시 별내면 청학로114번길 43,37.71209298,127.1147846
화성진안점,경기도 화성시 병점동로 115,37.21396901,127.0389199
통진타운점,경기도 김포시 통진읍 율마로438번길 18-5,37.68827065,126.6043387
화도광장점,경기도 남양주시 화도읍 경춘로 2206,37.65475439,127.3330285
파주야당점,경기도 파주시 송학길 42-23,37.70681455,126.7651975
오산매홀점,경기도 오산시 내삼미로80번길 9-6,37.16949697,127.0679153
과천삼성점,경기도 과천시 별양로 12,37.42300267,126.9935031
시흥능곡점,경기도 시흥시 승지로60번길 25,37.36797797,126.8122389
안산공고점,경기도 안산시 상록구 시낭북로5길 13,37.33564552,126.8596136
평택교육청점,경기도 평택시 중앙1로 49,36.99782329,127.0886309
수지파크,경기도 용인시 수지구 수지로 125,37.31337699,127.0796797
백석본점,경기도 고양시 일산동구 일산로 67,37.64426989,126.7889867
팔달유진점,경기도 수원시 팔달구 중부대로 119,37.2783913,37.2783913
백마2단지점,경기도 고양시 일산동구 일산로 205,37.65406943,126.7886462
안성타운점,경기도 안성시 대덕면 내리5길 26-2,36.99944649,127.2217362
수원나루점,경기도 수원시 권선구 세권로304번길 29-1,37.25102915,127.0364655
춘의우남점,경기도 부천시 계남로301번길 48,37.50425307,126.7839685
광주경화타운점,경기도 광주시 수하길11번길 15,37.41701846,127.2620377
벽적골주공점,경기도 수원시 영통구 봉영로1517번길 27,37.24813005,127.0671505
박달우회로점,경기도 안양시 만안구 박달우회로 138,37.40748525,126.9100444
망포원룸점,경기도 수원시 영통구 덕영대로1483번길 16-4,37.24646651,127.0528336
안양제일점,경기도 안양시 만안구 장내로 150,37.39811645,126.9240606
월롱산단,경기도 파주시 월롱면 휴암로 449-1,37.83052931,126.7780764
성남소망점,경기도 성남시 수정구 성남대로1221번길 7,37.43871417,127.1268405
호계효성,경기도 안양시 동안구 시민대로110번길 43,37.38503759,126.9475998
안산반석점,경기도 안산시 상록구 반석로 99,37.29670113,126.8708717
이천사랑점,경기도 이천시 마장면 덕평로661번길 2,37.21989303,127.3744998
남양주마석점,경기도 남양주시 화도읍 맷돌로 135,37.65808975,127.3051857
의정그랑빌,경기도 의정부시 태평로 181,37.74783316,127.0484203
수원삼익점,경기도 수원시 권선구 세지로 94,37.26012784,127.0186275
죽전솔하임,경기도 용인시 수지구 정든로 5,37.32755558,127.1133129
호계반도점,경기도 안양시 동안구 경수대로 550,37.37176887,126.9582286
산내신우,경기도 파주시 청암로17번길 31,37.72844317,126.7358773
자이사랑점,경기도 양주시 삼숭로38번길 191,37.7974249,127.107102
부천제일점,경기도 부천시 부일로460번길 12,37.48558884,126.7809807
능곡대림점,경기도 고양시 덕양구 토당로42번길 21,37.62038419,126.8219411
안산정재로점,경기도 안산시 상록구 부곡로 127,37.33325903,126.8634976
덕정제일점,경기도 양주시 덕정길 38,37.84387313,127.0642986
양주송추점,경기도 양주시 장흥면 가마골로 34,37.72130185,126.9757554
삼송역점,경기도 고양시 덕양구 삼송로 191,37.65387012,126.8949842
성남현대점,경기도 성남시 수정구 제일로147번길 4,37.43989572,127.1318894
용인상갈점,경기도 용인시 기흥구 금화로 14,37.26137633,127.1057128
광주도곡점,경기도 광주시 초월읍 경충대로 1023-18,37.37018182,127.3008948
원흥역점,경기도 고양시 덕양구 삼송로 8,37.64977935,126.874953
퇴계원제일점,경기도 남양주시 퇴계원읍 퇴계원로 83,37.65398912,127.1433653
뉴동안산병원점,경기도 안산시 상록구 월피로 83,37.33599144,126.8525215
이천초교점,경기도 이천시 향교로40번길 1,37.28470431,127.4418433
금강스마트,경기도 안양시 동안구 시민대로 311,37.39608216,126.9646685
양평전자고점,경기도 양평군 양서면 경강로 1000,37.51003496,127.3984535
봉담토마토점,경기도 화성시 봉담읍 와우로 89,37.2141488,126.9754409
부천팰리스,경기도 부천시 중동로 108,37.488711,126.7658004
마두백마점,경기도 고양시 일산동구 일산로 208,37.65494095,126.790162
월피제일점,경기도 안산시 상록구 안산천동로4길 32,37.33356311,126.852062
성남은행시장점,경기도 성남시 중원구 은이로7번길 3,37.45776021,127.1651408
포천설운점,경기도 포천시 호국로 885,37.84555202,127.1590611
수원토란,경기도 수원시 영통구 반달로35번길 19,37.25173323,127.0761916
신봉자이점,경기도 용인시 수지구 신봉2로 6,37.32354503,127.077852
화성마도로,경기도 화성시 마도면 마도로 831,37.19258844,126.793006
고강제일시장점,경기도 부천시 성지로112번길 42,37.52862895,126.8134862
중동타운점,경기도 부천시 석천로 174,37.50276537,126.763047
안산두리점,경기도 안산시 단원구 달미로 100,37.34465528,37.34465528
청계옛골점,경기도 성남시 수정구 청계산로 440,37.43027937,127.0711772
도곡두산점,경기도 남양주시 와부읍 덕소로 180,37.57876516,127.2139123
양주고읍세란점,경기도 양주시 고읍로35번길 29-3,37.80047475,127.0807324
안산현대점,경기도 안산시 상록구 감골1로 43,37.28943886,126.8503192
이천모전리점,경기도 이천시 백사면 이여로 254,37.31970687,127.4700511
이천이평점,경기도 이천시 마장면 덕평로 703,37.22191794,127.3706068
포천석향점,경기도 포천시 소흘읍 태봉로 239,37.83308854,127.1486829
이천가좌리점,경기도 이천시 부발읍 가좌로 67,37.25850935,127.469364
평촌삼성점,경기도 안양시 동안구 학의로 146,37.3994156,126.9564116
구운번영업,경기도 수원시 권선구 구운로 12-1,37.27704716,126.976754
분당아크로점,경기도 성남시 분당구 성남대로 295,37.36250116,127.1075283
시화MTV점,경기도 시흥시 시화벤처로 249,37.31894046,126.7006188
본오신영,경기도 안산시 상록구 본원로 114,37.29149678,126.8712765
양주대교점,경기도 양주시 백석읍 부흥로 1166-3,37.79467215,127.0074323
광명북점,경기도 광명시 시청로 142,37.48750723,126.8687635
수원베스트점,경기도 수원시 장안구 덕영대로535번길 34,37.29711541,126.9821105
안성점,경기도 안성시 공도읍 서동대로 4441,37.00866362,127.1958208
세류덕영점,경기도 수원시 권선구 세권로 1,37.26136169,127.0045193
용문역점,경기도 양평군 용문면 용문역길 17,37.4829273,127.5942874
시용인백암점,경기도 용인시 처인구 백암면 백원로 544,37.16508298,127.3720693
의정부현대점,경기도 의정부시 신촌로17번길 33,37.75172653,127.0363417
김포마산타운점,경기도 김포시 김포한강7로22번길 174-127,37.6427141,126.6411894
킨텍스3호점,경기도 고양시 일산서구 킨텍스로 217-59,37.66383726,126.7422442
정남면서봉로점,경기도 화성시 정남면 서봉로 855,37.15111574,126.9618375
안산매화점,경기도 안산시 상록구 매화로4길 1,37.30402913,126.8617043
진위산단점,경기도 평택시 진위면 진위산단로 53-12,37.12394026,127.0822146
송추삼거리점,경기도 양주시 장흥면 호국로 510,37.71626844,126.971991
진건타운점,경기도 남양주시 진건읍 진건오남로86번길 44-21,37.65779264,127.1828985
명지사거리점,경기도 용인시 처인구 중부대로 1303,37.23626307,127.1896453
상동뱅뱅점,경기도 부천시 송내대로265번길 85,37.50734559,126.7539004
신정프라자점,경기도 하남시 미사강변중앙로 165,37.5615413,127.1905498
오산퍼스트점,경기도 오산시 궐리사로29번길 14,37.16121288,37.16121288
기산래미안,경기도 화성시 동탄지성로 333,37.22231943,127.0475016
봉담휴먼시아점,경기도 화성시 봉담읍 동화길 81-13,37.21822098,126.9567722
정교공단점,경기도 포천시 가산면 마정로 308,37.81698378,127.1799203
장안어은점,경기도 화성시 장안면 포승장안로 1527,37.08298573,126.8268115
광주추자점,경기도 광주시 오포읍 포은대로 433,37.36772821,127.2321736
신갈오거리점,경기도 용인시 기흥구 신갈로 52,37.27127185,127.1059115
안양석천로점,경기도 안양시 만안구 석천로 171,37.41215976,126.9078755
중동프린스점,경기도 부천시 중동로254번길 27,37.5023925,126.7704836
시흥드림점,경기도 시흥시 동서로 1097,37.3866287,126.8597226
안산서해점,경기도 안산시 상록구 건건5길 6,37.30584936,126.9046773
관산럭키점,경기도 고양시 덕양구 동헌로1번길 4,37.70498292,126.8579021
화성백토점,경기도 화성시 향남읍 솔태상두길 304,37.11635593,126.9501037
동탄센터점,경기도 화성시 동탄대로시범길 53,37.19908088,127.1042066
이천도드람점,경기도 이천시 마장면 서이천로 481-3,37.26540178,37.26540178
안산초당점,경기도 안산시 상록구 장화3안길 25-18,37.28463875,126.8543054
동탄치동천점,경기도 화성시 동탄치동천로1길 8,37.20289881,127.1243261
성남현영점,경기도 성남시 수정구 제일로110번길 17,37.43700283,127.1355163
S상현역점,경기도 용인시 수지구 광교중앙로 312,37.29771612,127.0693132
용인좌항리점,경기도 용인시 처인구 원삼면 원양로 475,37.19270383,127.3153864
오산궐동점,경기도 오산시 궐동로 57,37.15712859,127.0604115
LGD파주러닝센터점,경기도 파주시 월롱면 엘씨디로 139,37.80448929,126.7675588
성남테크노점,경기도 성남시 중원구 둔촌대로 388,37.43248412,127.1586419
위례타운점,경기도 성남시 수정구 위례서일로1길 19,37.46743886,127.1376982
파주오사랑점,경기도 파주시 탄현면 성동로 9,37.77956025,126.6859791
의왕신안점,경기도 의왕시 왕곡로 47,37.34633313,126.9801146
서하남IC점,경기도 하남시 서하남로 47,37.51651467,127.1494188
운정캐슬점,경기도 파주시 가온로 205,37.72114454,126.7501913
성남신동아점,경기도 성남시 수정구 산성대로 321,37.44307006,127.1521043
여주가남점,경기도 여주시 가남읍 경충대로 1371,37.20998768,127.5414488
호수아이파크,경기도 화성시 동탄순환대로8길 14,37.16411676,127.1100351
남양큐브점,경기도 화성시 남양읍 남양로 675,37.19867208,126.8263189
남양스타점,경기도 화성시 남양읍 시청로202번길 54-14,37.19673287,126.8288608
오정소사로점,경기도 부천시 소사로808번길 6,37.52799466,126.8050903
삼송18단지점,경기도 고양시 덕양구 덕수천1로 37,37.64811544,126.88095
수원SK뷰점,경기도 수원시 장안구 이목로 24,37.30939185,37.30939185
광교중앙역점,경기도 수원시 영통구 도청로 45,37.28825151,127.0518815
동탄성심병원점,경기도 화성시 큰재봉길 7,37.21650239,127.079934
설악태양점,경기도 가평군 설악면 한서로 25,37.67612773,127.4965707
시흥대동점,경기도 시흥시 시청로 59,37.37959128,126.8005049
풍동세훈점,경기도 고양시 일산동구 숲속마을로 50-54,37.66788396,126.7994165
송내점,경기도 부천시 부일로221번길 26,37.48949966,126.7550903
검산점,경기도 파주시 평화로 346,37.77287086,126.7442699
주교제일점,경기도 고양시 덕양구 마상로57번길 58,37.66428208,126.8319358
수지서봉점,경기도 용인시 수지구 신봉1로 318,37.33283366,127.0548197
광주매산,경기도 광주시 오포읍 매자리길 11,37.35720472,127.2477909
고양동익점,경기도 고양시 덕양구 푸른마을로 15,37.70991758,126.9031461
일산다온점,경기도 고양시 일산서구 장자길82번길 3,37.69840085,126.7440304
동탄주공점,경기도 화성시 동탄순환대로24길 101,37.20501594,127.1194011
분당미켈란,경기도 성남시 분당구 정자일로 100,37.35860017,127.1076197
능평타운점,경기도 광주시 오포읍 오포로171번길 31,37.34873027,127.180684
오전공단점,경기도 의왕시 고래들길 49,37.35730664,126.9612957
중동중앙점,경기도 부천시 부흥로307번길 52,37.49680537,37.49680537
남양성지점,경기도 화성시 남양읍 남양성지로 22-5,37.20537704,126.8065685
포천무봉점,경기도 포천시 소흘읍 호국로 224,37.79414764,127.1266596
하남동부점,경기도 하남시 역말로 52,37.53633816,127.2023864
신갈점,경기도 용인시 기흥구 신구로12번길 23,37.27450423,127.1115563
신현에코힐점,경기도 광주시 오포읍 신현로 12-74,37.35557687,127.1472987
광주학동점,경기도 광주시 초월읍 동막골길 143,37.38262712,127.3307035
교하본점,경기도 파주시 청석로 300,37.73001413,126.7186528
풍무대림점,경기도 김포시 풍무로93번길 30,37.60420468,126.7201233
평택지제대로점,경기도 평택시 남북대로 262,37.02390861,127.0605825
진위엘지로점,경기도 평택시 진위면 갈곶길 64,37.12435585,127.0719352
구운번영점,경기도 수원시 권선구 구운로14번길 8-4,37.27718975,126.9765717
세류하이퍼,경기도 수원시 권선구 경수대로225번길 16,37.24741422,127.0165493
흥덕중앙,경기도 용인시 기흥구 흥덕중앙로105번길 41,37.28094094,127.0766129
양평수입리점,경기도 양평군 서종면 북한강로 1290,37.64347177,127.375566
시화공고점,경기도 시흥시 정왕천로 395,37.34336916,126.750916
N해병사본점,경기도 화성시 봉담읍 시청로 1311,37.17308611,126.922643
시화세종,경기도 시흥시 정왕대로 56,37.35450555,126.7230096
사동사랑점,경기도 안산시 상록구 평안로3길 8,37.28287012,126.8531143
오남양지점,경기도 남양주시 오남읍 진건오남로 919,37.7052492,127.1932083
덕양성사점,경기도 고양시 덕양구 고양대로1384번길 9,37.65354442,126.837657
화도가곡점,경기도 남양주시 화도읍 비룡로 448,37.68724644,127.3126804
LGD파주복지동B,경기도 파주시 월롱면 엘씨디로 231,37.81100121,37.81100121
향남풍림점,경기도 화성시 향남읍 행정동로 64,37.12942619,126.9274262
부천원종고점,경기도 부천시 성오로160번길 48,37.52725688,126.7998639
군포흥안점,경기도 군포시 군포로456번길 14,37.34657362,126.9448638
장현주공점,경기도 남양주시 진접읍 봉현로 6,37.71521701,127.1830849
수택서현점,경기도 구리시 안골로 95-2,37.59766197,127.1417239
의정신도드림점,경기도 의정부시 용현로 72,37.74034075,127.0853569
남양주타운점,경기도 남양주시 진접읍 장현천로10번길 9,37.71866702,127.1855538
망포늘프른점,경기도 수원시 영통구 영통로90번길 24,37.23826692,37.23826692
성남산호점,경기도 성남시 수정구 모란로 77-6,37.4399385,127.1254702
시화시티점,경기도 시흥시 정왕시장길 62,37.34605552,126.7493253
시화청솔점,경기도 시흥시 중심상가로 128,37.3471251,126.7313059
부천은하점,경기도 부천시 계남로 165,37.50761162,37.50761162
상록신안점,경기도 안산시 상록구 샘골로 101,37.29292822,126.8626723
금곡로드점,경기도 남양주시 석실로 703,37.62442411,127.2022278
산본스타,경기도 군포시 고산로724번길 22,37.37292834,126.9386463
죽전월드점,경기도 용인시 수지구 푸른솔로 78,37.32521822,127.1188692
흥덕사랑점,경기도 용인시 기흥구 흥덕2로 46,37.27147409,127.0736165
평촌신라점,경기도 안양시 동안구 달안로 124,37.39751951,126.9559749
원미한우리점,경기도 부천시 원미로144번길 26,37.49471178,126.7928195
송탄정암점,경기도 평택시 이충로35번길 19,37.05926938,127.0675114
배곧한라점,경기도 시흥시 배곧1로 27-15,37.36521604,126.7127583
동탄하나점,경기도 화성시 동탄하나3길 3-1,37.21380855,127.0627511
화산한승점,경기도 화성시 화산중앙로 34,37.20836768,127.0130456
화성제부도점,경기도 화성시 서신면 해안길 272,37.16547099,126.6178055
동곤지암점,경기도 광주시 곤지암읍 광여로 847,37.38797986,127.406714
선부타운점,경기도 안산시 단원구 달미로 128,37.34718923,126.8157041
능평센터점,경기도 광주시 오포읍 오포로 198,37.34909125,127.1846757
송산주공점,경기도 의정부시 효자로 28,37.74397469,127.0880467
인계원룸점,경기도 수원시 팔달구 장다리로283번길 21,37.27536968,127.0279014
동탄테크노점,경기도 화성시 동탄순환대로 830,37.20998395,127.0970476
일죽방초점,경기도 안성시 일죽면 사실로 25,37.11386223,127.4308686
평택세교점,경기도 평택시 세교2로 45,37.00100112,127.0835371
상록드림점,경기도 안산시 상록구 청룡1길 22,37.36078891,126.872215
동탄리슈빌점,경기도 화성시 동탄순환대로 689,37.20623953,127.1107011
칠원동광점,경기도 평택시 원칠원길 58,37.03178935,127.1007576
원미파크점,경기도 부천시 원미로143번길 39,37.49558581,126.7892997
송탄추담점,경기도 평택시 이충로 16,37.05880391,127.0702044
와동제일,경기도 안산시 단원구 사세충열로1길 20,37.33666788,126.8295917
동작노량,경기도 포천시 원모루로 31,37.89057812,127.1929182
안녕우방점,경기도 화성시 안녕남로 246-21,37.20381371,127.0050954
안산타원점,경기도 안산시 단원구 별망로 555,37.30103386,126.786955
이천리슈빌,경기도 이천시 부발읍 경충대로2092번길 31,37.25261372,37.25261372
평택항로점,경기도 평택시 포승읍 평택항로 509,36.99432256,126.8467111
용인골드점,경기도 용인시 처인구 금령로71번길 6-4,37.23567277,127.2049226
장안거북점,경기도 수원시 장안구 팔달로279번길 16,37.29057959,127.0147697
여주창동점,경기도 여주시 영릉로 64,37.29297537,127.630026
평촌부영점,경기도 안양시 동안구 관평로138번길 63,37.39285733,126.9637529
삼송힐스테이트점,경기도 고양시 덕양구 동송로 70,37.65263717,126.8961017
영통산남점,경기도 수원시 영통구 동수원로514번길 43-24,37.27269414,127.0490661
파주첼시점,경기도 파주시 탄현면 여치길 5,37.76877759,126.6991658
병점주공점,경기도 화성시 병점중앙로 107,37.20780354,127.0409021
백석동문점,경기도 고양시 일산동구 경의로 25-37,37.63908026,126.7881305
사동원룸점,경기도 안산시 상록구 석호로 197,37.29548612,126.8532161
수원역광장점,경기도 수원시 팔달구 덕영대로 925,37.26608417,127.0014017
의왕숲속마을점,경기도 의왕시 포일세거리로 93,37.40465914,126.9863728
화성한진점,경기도 화성시 우정읍 버들로 110,37.08058152,126.8035341
안중금곡우림점,경기도 평택시 안중읍 서동대로 1832-23,36.99377076,126.9524316
김포갈산점,경기도 김포시 월곶면 김포대로 2515-9,37.70035642,126.5707854
한화리조트양평점,경기도 양평군 옥천면 신촌길 188,37.56694186,127.4569733
마도타운점,경기도 화성시 마도면 마도북로 390-27,37.20482798,126.7713736
수원방글,경기도 수원시 장안구 정조로946번길 8,37.29202959,127.0125177
편의점,경기도 안성시 장기로 96,37.00389083,127.2731734
신곡본점,경기도 의정부시 회룡로 223,37.7268132,127.0586266
성남중원점,경기도 성남시 중원구 산성대로 330-4,37.44262669,127.1531038
송정금강점,경기도 군포시 송부로96번길 13,37.31667759,126.9250194
팔탄노하점,경기도 화성시 팔탄면 노하길 398-1,37.16194815,126.8694003
동탄푸르지오점,경기도 화성시 동탄순환대로26길 81,37.210043,127.1192526
소사중앙점,경기도 부천시 은성로37번길 28,37.47645048,126.7948544
이천태극점,경기도 이천시 서희로96번길 30-2,37.28387341,127.4452778
고덕태평점,경기도 평택시 고덕면 효덕새싹길 31,37.01778986,127.0347437
남양브릭스점,경기도 남양주시 경춘로 368,37.60460116,127.1556199
관악역점,경기도 안양시 만안구 경수대로1273번길 55,37.41840931,126.9103944
부천역곡원진점,경기도 부천시 부일로815번길 20-2,37.4906642,126.8184745
용인배머루점,경기도 용인시 처인구 포곡읍 영문로 64,37.27248658,127.2095194
송탄삼익점,경기도 평택시 경기대로 1578,37.08489614,127.0639358
박달신안점,경기도 안양시 만안구 박달로 420,37.40099747,126.8993295
권선고산로점,경기도 수원시 권선구 고산로27번길 15,37.24871673,126.980902
기흥이안점,경기도 용인시 기흥구 중부대로 376,37.2714473,127.1088636
광교호반점,경기도 수원시 영통구 웰빙타운로 70,37.30661208,127.0447135
광교데시앙점,경기도 수원시 영통구 광교로 114,37.29061724,127.0457616
화성병점점,경기도 화성시 경기대로 990,37.20451943,127.0381724
안성서원로점,경기도 안성시 양성면 덕봉서원로 314,37.03027901,127.1795989
다산리코빌점,경기도 남양주시 다산순환로 220,37.62910849,37.62910849
일산장항로점,경기도 고양시 일산동구 장항로 207,37.6397825,126.7758595
배곧엔시티점,경기도 시흥시 서울대학로278번길 43-7,37.36874236,126.7297227
호평메인점,경기도 남양주시 늘을2로 26,37.65508304,127.2440935
소사해링턴점,경기도 평택시 소사3로 22,36.98782293,127.1273031
덕양관산점,경기도 고양시 덕양구 통일로 752,37.68755403,126.8668996
궐동타운점,경기도 오산시 궐리사로 61,37.15928246,127.059304
궐동상미점,경기도 오산시 궐동로 9,37.15830415,127.0552631
편의점우만파크점,경기도 수원시 팔달구 권광로340번길 79,37.27612738,127.04237
부천팰리스점,경기도 부천시 중동로 108,37.49179576,126.7669709
김포감정점,경기도 김포시 중봉1로 12,37.62271068,126.6994499
우만센트럴점,경기도 수원시 팔달구 경수대로692번길 40,37.28785796,127.0289024
회덕타운점,경기도 광주시 회덕길28번길 27-25,37.43172455,127.2435769
수지인현점,경기도 용인시 수지구 현암로 27,37.33170977,127.1121356
여주도예점,경기도 여주시 현암3길 41,37.31072091,127.6396299
동탄우미린점,경기도 화성시 동탄대로 181,37.17201965,127.1040757
평택송화점,경기도 평택시 팽성읍 동서촌로 74,36.96443209,127.0603592
탑동남부점,경기도 수원시 권선구 하탑로 27,37.26895546,126.9746762
상록성호로점,경기도 안산시 상록구 식물원로3길 7,37.3158856,126.8615368
서판교로점,경기도 성남시 분당구 서판교로44번길 3-1,37.39107474,127.098076
광교중흥점,경기도 수원시 영통구 광교호수공원로 277,37.28381985,127.0566058
금성점,경기도 오산시 현충로60번길 14,37.16216435,127.0716645
현대차기숙사점,경기도 화성시 남양읍 시청로102번길 11,37.20077322,126.8246643
분당한솔마을점,경기도 성남시 분당구 백현로 234,37.36655623,127.1207907
안양무림점,경기도 안양시 만안구 석천로197번길 52,37.41546142,126.9092623
광주고불센터점,경기도 광주시 고불로 210,37.39529903,127.2153354
서재빌리지점,경기도 평택시 서재1길 2-29,37.01086195,127.0979703
군포고점,경기도 군포시 번영로550번길 23,37.35869285,126.9388017
광명IC점,경기도 광명시 광명로 423-5,37.43817847,126.8449175
성남상원점,경기도 성남시 중원구 은행로 4,37.45480248,127.1622801
화성덕절리점,경기도 화성시 정남면 정남동로 33-8,37.13884718,127.0326675
상동목련마을점,경기도 부천시 신상로 91,37.49696975,126.7474685
분당상록우성점,경기도 성남시 분당구 내정로 55,37.3654052,127.1138612
파크리움점,경기도 평택시 서두물로35번길 113,37.05779201,127.0584446
송내푸르지오점,경기도 부천시 경인로117번길 27,37.48565568,126.7665856
고덕풍경채점,경기도 평택시 고덕면 고덕국제대로 179,37.05400607,127.0414132
미사오페라점,경기도 하남시 미사강변동로 70,37.56133983,127.1940269
이천창전점,경기도 이천시 아리역로15번길 3,37.28660417,127.4472878
이천신둔점,경기도 이천시 신둔면 경충대로 3172,37.309561,127.4020962
선부경일점,경기도 안산시 단원구 석수로9길 1,37.34700922,126.8058653
임진각평화점,경기도 파주시 문산읍 임진각로 148-73,37.89144247,126.7402575
용인고당점,경기도 용인시 처인구 원삼면 고당로15번길 8,37.16422196,127.3111621
철산사성로점,경기도 광명시 광복로 70,37.49007791,126.8662257
송탄제일점,경기도 평택시 지산2로96번길 59,37.08064443,127.0607152
용인금령점,경기도 용인시 처인구 금학로 91,37.2401737,127.1739709
수지심곡로점,경기도 용인시 수지구 심곡로 87,37.31101315,127.0816151
송정3단지점,경기도 군포시 송부로49번길 10,37.31706115,126.9196437
위례아이페리온점,경기도 성남시 수정구 위례광장로 19,37.46565796,127.1406126
의정센타점,경기도 의정부시 시민로 128,37.73809044,127.049203
야탑아델파크점,경기도 성남시 분당구 장미로 198,37.41243077,127.142972
일산드림점,경기도 고양시 일산서구 일산로 729,37.67804591,126.7515495
기흥힉스점,경기도 용인시 기흥구 중부대로 184,37.26914918,127.0910423
편의점,경기도 고양시 덕양구 화신로 311,37.63132334,126.826538
일산으뜸점,경기도 고양시 일산서구 일산로 485,37.67498451,126.7732069
마장제일점,경기도 이천시 마장면 오천로 22-1,37.25440604,127.3511162
대화도서관점,경기도 고양시 일산서구 대산로226번길 23-16,37.68037342,126.7535284
가평역점,경기도 가평군 가평읍 문화로 13-39,37.81359144,127.5117211
화성19단지점,경기도 화성시 향남읍 벌말길 16,37.1114583,126.903793
청북사거리점,경기도 평택시 청북읍 안청로3길 28,37.02264329,126.9104648
청북서해로점,경기도 평택시 청북읍 서해로 1540,37.02965472,126.9414077
평내데시앙점,경기도 남양주시 경춘로1286번길 35,37.64643866,127.239365
성남태평점,경기도 성남시 수정구 수정로119번길 17,37.44275007,127.1328396
점촌로점,경기도 평택시 점촌로19번길 34,37.064904,127.0564451
평택서정역점,경기도 평택시 탄현로 48,37.05678222,127.0538473
신곡본점,경기도 의정부시 신곡로 13,37.72685358,127.0557901
구래마스터점,경기도 김포시 김포한강4로 565,37.64484234,126.6211626
호계뉴타운,경기도 안양시 동안구 갈산로76번길 10,37.37868098,126.96038
고촌타운점,경기도 김포시 고촌읍 장차로 7,37.60296952,126.7700418
화도묵현점,경기도 남양주시 화도읍 먹갓로서길 32,37.65941832,127.2729623
의정부역점,경기도 의정부시 평화로 553,37.74130599,37.74130599
갈매사랑점,경기도 구리시 갈매중앙로 185-4,37.63813664,127.1257357
안양하이츠,경기도 안양시 만안구 만안로 264,37.40362472,126.9204126
안정순환로점,경기도 평택시 팽성읍 안정순환로 255,36.96060172,127.0500978
김포귀전점,경기도 김포시 통진읍 월하로 519,37.71253351,126.6134332
평택동삭로점,경기도 평택시 동삭로 384,37.0201894,127.0968823
다산에일린점,경기도 남양주시 다산지금로16번길 88,37.60711444,127.1707795
여주신륵사점,경기도 여주시 신륵로 37,37.30116643,127.653832
화정보람점,경기도 고양시 덕양구 은빛로29번길 31-24,37.63976724,126.8303029
공세빌리지점,경기도 용인시 기흥구 한일로9번길 3,37.24342436,127.1030508
청평삼밭골점,경기도 가평군 설악면 유명로 2005,37.68756399,127.4642813
여주태평점,경기도 여주시 가남읍 태평2길 22-18,37.20387162,127.5468031
포천가산점,경기도 포천시 군내면 마전길 25-18,37.85211321,127.2033829
안산고잔,경기도 안산시 단원구 광덕서로 62,37.31020899,126.8274074
행신햇빛점,경기도 고양시 덕양구 충장로152번길 39,37.62481876,126.8384557
경기도청역점,경기도 수원시 영통구 도청로 65,37.28931289,127.0493983
보정현대점,경기도 용인시 기흥구 보정로 109,37.31947779,127.1151791
양주고암점,경기도 양주시 엄상동길 22-15,37.83070776,127.067498
사동대학로점,경기도 안산시 상록구 학사3길 16,37.30092905,126.8421585
의정청사점,경기도 의정부시 청사로5번길 8-17,37.74959105,127.0699807
은계호반점,경기도 시흥시 은계남로 12,37.43591939,126.8017308
의왕백운초교점,경기도 의왕시 백운초등길 1,37.38627043,126.9740745
김포중흥점,경기도 김포시 김포한강2로 362,37.65086178,126.6666854
진접연평리점,경기도 남양주시 진접읍 양진로 989,37.70723872,127.1811878
구래포인트,경기도 김포시 김포한강9로75번길 96,37.64371116,126.6215121
중동현대점,경기도 부천시 소향로 119,37.50254834,126.7612523
동탄공원점,경기도 화성시 동탄공원로2길 21,37.20607938,127.0619004
여주장미,경기도 여주시 우암로 158,37.2885626,127.622322
광주미라클점,경기도 광주시 초월읍 현산로 355,37.4171389,127.2860545
성남앙뜨점,경기도 성남시 중원구 광명로 115,37.4365035,127.1411834
송내2단지점,경기도 동두천시 지행로 16,37.88899514,127.0496532
시수원한라점,경기도 수원시 팔달구 중부대로 110,37.27744955,127.0287993
의왕신명점,경기도 의왕시 위인로 20,37.34412234,126.9776616
수지제일점,경기도 용인시 수지구 동천로 39,37.34039336,127.0986486
여주백년점,경기도 여주시 가남읍 여주남로 949,37.22393135,127.5589208
안양사랑점,경기도 안양시 동안구 관평로358번길 45,37.40631217,126.9619185
가능수정점,경기도 의정부시 가능로 86-1,37.74668068,127.0407417
의정한신점,경기도 의정부시 회룡로105번길 15,37.72651654,127.0452672
안산초지점,경기도 안산시 단원구 초지로 94,37.30725751,126.8151463
기흥고매,경기도 용인시 기흥구 동탄기흥로 707,37.2227539,127.0984053
소하휴먼시아점,경기도 광명시 서원로 13,37.43159799,126.8849723
화성화산점,경기도 화성시 우정읍 기아자동차로 719,37.07114395,126.8112955
광주열미점,경기도 광주시 곤지암읍 광여로 215,37.35337554,127.3663165
송탄밀월로점,경기도 평택시 밀월로15번길 83-2,37.078615,127.0514167
위례창곡점,경기도 성남시 수정구 위례서일로3길 7-13,37.46613688,127.1383236
광주쌍용점,경기도 광주시 회안대로 350-22,37.38557083,127.23652
안성원곡본점,경기도 안성시 원곡면 가천중앙1길 76,37.04110873,127.1312238
광주현대점,경기도 광주시 고불로 33,37.39324915,127.233901
산호점,경기도 안산시 단원구 달미로 10,37.33619326,126.8127058
안산고잔점,경기도 안산시 단원구 광덕서로 62,37.31020899,126.8274074
향남풍림점,경기도 화성시 향남읍 행정동로 64,37.12807419,126.929381
동탄잎새점,경기도 화성시 동탄반송1길 36-22,37.2103838,127.0638187
동두천샤인점,경기도 동두천시 행선로 123-18,37.89812944,127.0617815
화성신일점,경기도 화성시 효행로291번길 26,37.22273921,126.9757867
산내빌리지,경기도 파주시 산내로104번길 10,37.72817117,126.7382415
고색3산단점,경기도 수원시 권선구 산업로 182,37.2427205,126.9846346
이천안평점,경기도 이천시 호법면 중부대로 755,37.24669229,127.4168973
포천소흘점,경기도 포천시 소흘읍 솔모루로 86-1,37.82882724,127.147505
수원이목,경기도 수원시 장안구 장안로 422,37.31745295,126.9821296
남양주금곡점,경기도 남양주시 사릉로 14,37.63426397,127.2076404
신현타운점,경기도 광주시 오포읍 새말길 79,37.36670545,127.1599188
청평하나점,경기도 가평군 청평면 경춘로 1234,37.76703994,127.4475569
안성IC점,경기도 안성시 공도읍 서동대로 4032,36.99747726,127.1538754
부천소사점,경기도 부천시 부천로10번길 33,37.48501584,126.7848344
인창스타점,경기도 구리시 동구릉로 278,37.62280492,127.1410045
스낵포판교센터,경기도 성남시 분당구 운중로 186,37.39071999,127.0835798
서재자이점,경기도 평택시 서재1길 57,37.01264703,127.1004551
양감요당점,경기도 화성시 양감면 은행나무로 112,37.07018954,126.9376734
평택호점,경기도 평택시 현덕면 서동대로 157,36.92370103,126.90569
시남양가운점,경기도 남양주시 가운로2길 114,37.59835955,127.1610469
원종중앙점,경기도 부천시 원종로51번길 27,37.52526008,126.8055411
정왕영남점,경기도 시흥시 옥구천동로 420,37.35773354,126.7315901
호평클래스점,경기도 남양주시 늘을3로 65-26,37.65970048,127.2503823
북삼송점,경기도 고양시 덕양구 신원로 40,37.66396359,126.8884874
운정라피아노점,경기도 파주시 교하로159번길 33,37.72360084,126.7397142
서암드림점,경기도 김포시 통진읍 담터로 67,37.69490526,126.5970257
중동계남점,경기도 부천시 길주로 243,37.50441919,126.7695569
안양행운점,경기도 안양시 동안구 관악대로388번길 8,37.40406838,126.9660157
영통프리미엄점,경기도 수원시 영통구 영통로525번길 19,37.26560186,127.0762928
동두천신천,경기도 동두천시 생연로 28,37.89527159,127.04922
장안주곡,경기도 화성시 장안면 버들로 938,37.11620149,126.8205832
시흥대우점,경기도 시흥시 은행로 107,37.44127275,126.7974077
오남두산점,경기도 남양주시 오남읍 진건오남로 781-9,37.69632631,127.2047578
시편의점,경기도 이천시 설성면 설가로 12,37.13839109,127.5116818
신길온천역점,경기도 안산시 단원구 신길중앙로4길 18-7,37.33717782,126.7636801
동두천월드점,경기도 동두천시 장고갯로 116,37.90443379,127.0637142
송추풍차점,경기도 양주시 장흥면 호국로 475,37.71477262,126.9688812
신갈제일점,경기도 용인시 기흥구 신갈로 98,37.27531741,37.27531741
춘의역점,경기도 부천시 길주로 406,37.50363397,126.7868512
금정스마트점,경기도 군포시 군포로 695,37.36747805,126.9448195
평택서부점,경기도 평택시 원평2로27번길 16,36.99111682,127.0813528
안산주은,경기도 안산시 단원구 고잔1길 69,37.31823124,126.841408
김포캐슬점,경기도 김포시 고촌읍 태리로 236,37.59502733,126.7550328
신흥행복점,경기도 성남시 수정구 산성대로 271-1,37.44123229,127.1471527
용인두성점,경기도 용인시 처인구 포곡읍 경안천로 414,37.26684773,127.2138854
평촌한양점,경기도 안양시 동안구 시민대로 295,37.39559733,126.9628117
주엽르네상스점,경기도 고양시 일산서구 중앙로 1425,37.66979561,126.7629434
진위중앙점,경기도 평택시 진위면 봉남길 50-1,37.09977495,127.0895711
일산동국중앙점,경기도 고양시 일산동구 동국로 30,37.67676138,126.8076508
성남대로점,경기도 성남시 수정구 수정로74번길 36-1,37.43684008,127.1293031
산본경원점,경기도 군포시 산본로 329,37.36001093,126.9330712
실촌제일,경기도 광주시 곤지암읍 광여로 698,37.37473339,127.4048424
정왕영남점,경기도 시흥시 옥구천동로 420,37.35815708,126.7315943
수택제일점,경기도 구리시 검배로29번길 53,37.60076245,127.144327
이천수하점,경기도 이천시 신둔면 원적로290번길 59,37.31527865,127.4248521
동두천휴먼빌점,경기도 동두천시 행선로 52,37.89316992,127.061276
마도사거리점,경기도 화성시 마도면 송정로 4,37.20737525,126.7754555
광주역동점,경기도 광주시 광주대로 15,37.40790849,127.2605908
평택계양로점,경기도 평택시 팽성읍 본정2길 2,36.94946667,127.0118151
하남산곡점,경기도 하남시 하남대로 193,37.49283414,127.2335975
운정타운,경기도 파주시 하우고개길 158,37.71164869,126.7673743
파주율곡점,경기도 파주시 법원읍 자운서원로 32,37.85251145,126.8699019
송탄화신점,경기도 평택시 신장1로 37,37.08123452,127.0533298
병점중앙로점,경기도 화성시 병점중앙로155번길 15-4,37.21094456,127.0370994
용인위브점,경기도 용인시 처인구 지삼로590번길 9,37.24039705,127.1672624
성남학년점,경기도 성남시 중원구 금상로 56,37.44016219,127.1625789
안산선일점,경기도 안산시 단원구 지곡로2길 31,37.33582361,126.8046318
수원행복점,경기도 수원시 영통구 덕영대로1555번길 13,37.24676424,127.0607989
오산스위첸점,경기도 오산시 오산로 49-6,37.13170436,127.0679063
동탄서후점,경기도 화성시 삼성1로 278-2,37.22778383,127.0718073
호평후레쉬점,경기도 남양주시 호평로 145,37.65684604,127.2563725
안산보네르점,경기도 안산시 단원구 안산천남로 211,37.30836034,126.8400591
백암원대점,경기도 용인시 처인구 백암면 백암로 73,37.15549268,127.3836433
수원곡반정점,경기도 수원시 권선구 경수대로54번길 58,37.23414323,127.0244302
자이사랑,경기도 양주시 삼숭로38번길 191,37.79908855,127.1078655
운정호수점,경기도 파주시 한빛로 70,37.71649463,126.7569386
덕정은동점,경기도 양주시 화합로1426번길 39,37.83848509,127.0688429
장항일호점,경기도 고양시 일산동구 정발산로 11,37.65654509,126.7701558
화도묵현점,경기도 남양주시 화도읍 먹갓로 30,37.65686969,127.2746418
안성봉산메가점,경기도 안성시 낙원길 182,37.00536001,127.279137
안산송호,경기도 안산시 상록구 송호5길 8,37.31287973,126.8461041
용인다보스점,경기도 용인시 처인구 백옥대로1068번길 5-1,37.23123107,127.2104237
내각창조,경기도 남양주시 진접읍 내각2로32번길 1,37.7045507,127.1602711
광주용상점,경기도 광주시 오포읍 능평로30번길 8,37.35453356,127.1639826
이천공장,경기도 이천시 신둔면 황무로579번길 40-9,37.30895424,127.4122879
이천희한,경기도 이천시 중부대로 1199,37.25903225,127.4574891
이천신하점,경기도 이천시 부발읍 경충대로 2216-10,37.25963797,127.4800211
평택팽성점,경기도 평택시 팽성읍 동서촌로 127,36.96491932,127.0661479
용인한보라점,경기도 용인시 기흥구 한보라1로 91,37.24798119,127.1062657
광주운동장,경기도 광주시 오포읍 양벌로 58,37.39085451,127.2539823
고읍파스텔점,경기도 양주시 고읍남로 20-6,37.79514607,127.0791066
분당구미점,경기도 성남시 분당구 미금일로79번길 5,37.3453352,127.1110723
심곡대로점,경기도 부천시 부천로 47,37.48870371,126.7833386
심곡복개천점,경기도 부천시 부흥로 444,37.48710795,126.7885094
금오주공점,경기도 의정부시 부용로214번길 14,37.74941978,127.0791516
위례성산점,경기도 성남시 수정구 위례광장로 25,37.46656402,127.1400596
덕양원흥점,경기도 고양시 덕양구 도래울3로 20,37.63042883,126.8715401
분당이매역점,경기도 성남시 분당구 방아로 8,37.39785293,127.1296188
용인홍진점,경기도 용인시 처인구 이동읍 서리로 28,37.19445798,127.186623
포천원앙로점,경기도 포천시 원앙로 46-1,37.90029066,127.2034552
걸포오스타점,경기도 김포시 걸포1로 11,37.6341788,126.7033854
군포금정점,경기도 군포시 금재로12번길 13-1,37.36115395,126.9419504
화도구암리점,경기도 남양주시 화도읍 북한강로 1714,37.65993075,127.3715632
양주조은점,경기도 양주시 고암길 252-36,37.83562166,127.0736391
양주신산점,경기도 양주시 남면 개나리길 38,37.89489852,126.9736844
남양주대명점,경기도 남양주시 경춘로1308번길 8-12,37.64917376,127.2401304
파라디움점,경기도 성남시 수정구 공원로 322,37.44331909,127.1516495
향남블루점,경기도 화성시 향남읍 행정동로 7,37.12479394,126.9263663
시화메가점,경기도 시흥시 협력로 281,37.35204614,126.7147327
수원화홍점,경기도 수원시 팔달구 수원천로 357,37.2852947,127.0174775
상암서림,경기도 고양시 덕양구 자유로 38,37.57919218,126.859849
수내제일점,경기도 성남시 분당구 내정로174번길 6,37.37349042,127.1202356
야당역점,경기도 파주시 송학1길 65,37.71248683,126.762234
포천내촌점,경기도 포천시 내촌면 금강로 2258,37.78018655,127.2266216
오산랜드빌점,경기도 오산시 대원로 59,37.14656613,127.0751197
성남영성,경기도 성남시 중원구 둔촌대로 250,37.42823952,127.1460007
민락호반점,경기도 의정부시 송양로 16,37.75140984,127.1070992
성포공원점,경기도 안산시 상록구 예술광장로 63,37.32668553,126.8453289
고읍우미점,경기도 양주시 고읍로35번길 8,37.79910105,127.0790461
수지수풍로점,경기도 용인시 수지구 수풍로 110-2,37.333436,127.0938004
용인동림점,경기도 용인시 처인구 모현읍 문형동림로32번길 1,37.33903546,127.1979094
송담중앙점,경기도 평택시 안중읍 송담6길 46-18,36.98129547,126.9287903
문산추천점,경기도 파주시 문산읍 당동1로 25-4,37.86197727,126.7749548
의정휴먼시아점,경기도 의정부시 본원로 39,37.76194823,127.0390578
운정호수공원캐슬점,경기도 파주시 가온로 170,37.71966716,126.7510668
하우스빌,경기도 성남시 분당구 백현로 105,37.37620493,127.1120969
오산한솔점,경기도 오산시 오산로 93,37.13518003,127.0687191
경의초교점,경기도 의정부시 경의로 145,37.7333096,127.0518849
화정중앙로점,경기도 고양시 덕양구 중앙로 624,37.6273957,126.8293413
광주지월점,경기도 광주시 초월읍 설월길23번길 20-2,37.42574714,127.2835549
성남늘푸른점,경기도 성남시 중원구 광명로 132,37.43694852,37.43694852
신평공단점,경기도 포천시 신북면 신평로 60-2,37.94963327,127.2311068
율전래미안,경기도 수원시 장안구 화산로187번길 19,37.29797042,126.9757262
가평상천점,경기도 가평군 청평면 경춘로 1151,37.76224836,127.4403287
화정미래점,경기도 고양시 덕양구 은빛로29번길 5-19,37.63851097,126.8299147
광명로데오점,경기도 광명시 오리로 856,37.4747159,126.8672492
성남산호점,경기도 성남시 수정구 모란로 79,37.44003027,127.1256951
죽전단대점,경기도 용인시 수지구 죽전로168번길 17,37.32457115,127.1251728
수원칸점,경기도 수원시 장안구 장안로 395,37.31430072,126.9833567
안산각골점,경기도 안산시 상록구 각골로1길 3,37.29413648,126.8731206
분당신성점,경기도 성남시 분당구 수내로192번길 25,37.36747053,127.1262217
송탄장당점,경기도 평택시 송탄로 72,37.05176434,127.0562818
대성리점,경기도 가평군 청평면 경춘로 89,37.68400643,127.3782988
의정부신세계,경기도 의정부시 평화로483번길 30,37.73437068,127.0471517
뉴안양미도,경기도 안양시 만안구 안양로 29,37.37864018,126.9385432
서천에이스점,경기도 용인시 기흥구 서천서로12번길 6,37.24083805,127.0737662
용인지곡점,경기도 용인시 기흥구 지삼로 15,37.2549641,127.1254937
오산중원점,경기도 오산시 오산로 242,37.14842597,127.0686693
고잔보배점,경기도 안산시 단원구 보배2길 18,37.33062364,126.828873
고덕그랜드점,경기도 평택시 고덕면 고덕갈평5길 32,37.05655037,127.0473964
화성석우점,경기도 화성시 삼성전자로 12,37.21871879,127.0787352
문형중앙점,경기도 광주시 오포읍 오포로 596-1,37.35117578,127.2130634
소사삼익점,경기도 부천시 소안로 22,37.47671313,126.8020746
인창동구점,경기도 구리시 동구릉로103번길 61,37.61111724,127.1346828
화성북양,경기도 화성시 남양읍 주석로80번길 2,37.21716614,126.8404317
별내로뎀,경기도 남양주시 별내중앙로 34,37.64616219,127.1253697
안산그린점,경기도 안산시 단원구 민속공원로 76,37.31220593,126.8389396
향남하길,경기도 화성시 향남읍 상신하길로356번길 29-16,37.12029324,126.9169888
삼육대학교,경기도 남양주시 불암로 41-160,37.64403396,127.1094739
행신행복점,경기도 고양시 덕양구 충장로 134,37.62438753,126.834928
안산예대점,경기도 안산시 단원구 예술대학로 137,37.32934511,126.8381117
수원신동점,경기도 수원시 영통구 영통로241번길 12-6,37.2492228,127.0572177
거모행복점,경기도 시흥시 도일로135번길 16-1,37.34334933,126.7835999
성석중앙점,경기도 고양시 일산동구 고봉로658번길 96,37.71264616,126.7923659
자이사거리점,경기도 양주시 삼숭로38번길 4,37.79711146,127.1014284
금촌2동귀빈점,경기도 파주시 쇠재로 133,37.75325758,126.776954
양주역점,경기도 양주시 평화로 919,37.77364484,127.044775
의왕부곡시장점,경기도 의왕시 부곡시장2길 10,37.31978703,126.9512068
용정공단점,경기도 남양주시 진건읍 독정로231번길 12,37.67949537,127.1902562
평택가재점,경기도 평택시 방여울로 18,37.03894301,127.0864311
뉴관양대성점,경기도 안양시 동안구 일동로200번길 40,37.40587009,126.9659683
송탄중앙점,경기도 평택시 송탄2로47번길 29,37.07230034,127.0573431
평촌길목점,경기도 안양시 동안구 평촌대로 110,37.3823472,126.9612779
송내남부역점,경기도 부천시 송내대로 33,37.48648406,37.48648406
남양주신우점,경기도 남양주시 진접읍 금강로 1553-21,37.72928688,127.1916202
수원조원점,경기도 수원시 장안구 조원로111번길 47,37.30042856,127.0126222
지산중앙점,경기도 평택시 지산로20번길 47,37.07693922,127.0571058
포천마명점,경기도 포천시 내촌면 부마로282번길 3,37.76683264,127.1955589
시흥포동점,경기도 시흥시 신현로38번길 12,37.40664999,126.7846329
여주이안점,경기도 여주시 도예로 40,37.30724893,127.6417109
포승대우점,경기도 평택시 포승읍 평택항로156번길 137,36.97980668,126.8589484
한경대학교점,경기도 안성시 중앙로 327,37.01019491,127.2637644
정왕스틸랜드점,경기도 시흥시 오이도로 21,37.34512617,126.7007207
고강본점,경기도 부천시 역곡로482번길 45,37.52688551,126.8184352
탑동대능점,경기도 수원시 권선구 하탑로 52,37.26908707,126.9773916
광명세인트점,경기도 광명시 오리로854번길 12,37.47468136,126.8683464
한국산업기술대점,경기도 시흥시 산기대학로 237,37.33972424,37.33972424
수지풍덕천점,경기도 용인시 수지구 문인로31번길 21-16,37.33100561,127.1000359
의왕봇들,경기도 의왕시 봇들2길 6,37.3978639,126.982037
판교퍼스트점,경기도 성남시 분당구 운중로138번길 37,37.39106594,127.0759301
궐동프라임점,경기도 오산시 대호로62번길 9-25,37.15744994,127.0566247
파주성현로점,경기도 파주시 파주읍 성현로 41,37.85493383,126.8103206
김포리버시티점,경기도 김포시 고촌읍 상미로 38,37.62234912,126.7442576
풍선신미주,경기도 성남시 분당구 판교로 375,37.40426061,127.1151884
고잔주공점,경기도 안산시 단원구 광덕2로 74,37.31015932,126.8187896
고강행복점,경기도 부천시 고강로140번길 16,37.53066267,126.8195183
포승도곡원룸점,경기도 평택시 포승읍 여술4길 27,36.99034741,126.8438055
소하휴먼시아점,경기도 광명시 서원로 13,37.43159799,126.8849723
청덕빌리지점,경기도 용인시 기흥구 구성로279번길 46,37.2913678,127.1439073
병점1동점,경기도 화성시 경기대로1010번길 12,37.20648613,127.0373475
운정젠틀점,경기도 파주시 가람로51번길 13,37.73486788,37.73486788
고잔21세기점,경기도 안산시 단원구 보화로 49,37.33046678,126.8321478
금촌스쿨점,경기도 파주시 쇠재안길 25,37.7518828,126.7790532
안양과학대점,경기도 안양시 만안구 양화로28번길 49,37.39821191,126.9157693
전곡조흥점,경기도 연천군 전곡읍 전곡로87번길 41,38.02010819,127.0700914
고강파크점,경기도 부천시 성지로42번길 4,37.52264321,126.811409
가능로드점,경기도 의정부시 호국로 1069,37.74259565,127.0227764
신포천대로점,경기도 포천시 가산면 포천로 914,37.84931402,127.1971861
탑동새롬점,경기도 수원시 권선구 서둔로 253,37.27413484,126.9786313
소사구청점,경기도 부천시 경인옛로 61-1,37.47996937,126.7988682
원종타운점,경기도 부천시 상오정로184번길 40,37.52978956,126.799054
마석우리점,경기도 남양주시 화도읍 마석로61번길 18-1,37.65631471,127.3036609
호계으뜸점,경기도 안양시 동안구 갈산로 16,37.37359137,126.9625954
가평조종점,경기도 가평군 조종면 현창로 25,37.81700077,127.3485289
진접유보라점,경기도 남양주시 진접읍 해밀예당1로 145,37.71966318,127.1915207
안중백병원점,경기도 평택시 안중읍 서동대로 1931-21,37.00341332,126.9586361
이천도자예술점,경기도 이천시 신둔면 도자예술로5번길 110,37.2931923,127.385364
화성능동점,경기도 화성시 동탄지성로 150-11,37.2118064,127.0591255
포천본점,경기도 포천시 신북면 호국로 2135-14,37.9413127,127.2304426
시흥정왕점,경기도 시흥시 봉우재로11번길 1,37.34418099,126.7424946
동부동점,경기도 용인시 처인구 금령로 168,37.23426062,127.2147648
시흥논곡점,경기도 시흥시 수인로2421번길 4,37.39430152,126.8564894
광주밀목점,경기도 광주시 중앙로 330-32,37.4280961,127.2596918
궐동대호점,경기도 오산시 대호로71번길 28,37.15833537,127.0535289
과천빌리지점,경기도 과천시 뒷골로 22-21,37.45432818,127.0014813
가운주공점,경기도 남양주시 가운로2길 14,37.60320119,127.1576743
도곡효담점,경기도 남양주시 와부읍 덕소로 244,37.57906132,127.2232609
오산스타점,경기도 오산시 성호대로93번길 53,37.15372018,127.0715651
오산운천점,경기도 오산시 운천로165번길 60-1,37.15654697,127.0758312
용인타운점,경기도 용인시 처인구 백옥대로1402번길 18,37.25993365,127.2148478
부천엠파이어점,경기도 부천시 경인로137번가길 83,37.4845586,126.775457
대화마을점,경기도 고양시 일산서구 대화2로 130,37.67348501,126.735314
서평택IC점,경기도 평택시 포승읍 포승향남로 170,36.98885969,126.8642501
성남태양점,경기도 성남시 수정구 수정로170번길 10,37.44215695,127.1392202
용인문현점,경기도 용인시 처인구 모현읍 문현로 145,37.34395185,127.2257794
우만싱싱점,경기도 수원시 팔달구 경수대로656번길 63,37.28564493,127.0315472
부천세일점,경기도 부천시 심곡로10번길 34,37.48333664,126.7740523
중원도서관점,경기도 성남시 중원구 둔촌대로 183,37.42972147,127.1391254
생연쎈츄럴점,경기도 동두천시 중앙로 220,37.90107855,127.0531365
부천심곡행복,경기도 부천시 원미로65번길 110,37.49196105,126.7855361
오산스타점,경기도 오산시 오산로 298-1,37.15356348,127.0688202
송탄점촌로,경기도 평택시 점촌로19번길 34,37.064904,127.0564451
광교대학로점,경기도 수원시 영통구 대학3로4번길 15,37.30028135,127.0429662
광교드림점,경기도 용인시 수지구 광교중앙로 298,37.29655481,127.0694516
용인동부점,경기도 용인시 처인구 동부로 144,37.22390623,127.2228614
의정은빛점,경기도 의정부시 망월로45번길 38,37.70617875,127.047286
하남진도점,경기도 하남시 신평로55번길 8,37.53902006,127.2045757
수원아주점,경기도 수원시 영통구 동수원로537번길 35-2,37.27452442,127.046957
판교아쿠아점,경기도 성남시 분당구 대왕판교로 660,37.40025142,127.1068775
화성삼존점,경기도 화성시 송산면 화성로 645,37.21106672,37.21106672
동탄기흥로,경기도 화성시 동탄기흥로 147-9,37.17339328,127.0904002
역곡중앙점,경기도 부천시 부일로699번길 24,37.48560432,126.8072131
원미부천로점,경기도 부천시 부천로 331-6,37.51397966,126.7843989
광교혜령,경기도 수원시 영통구 센트럴파크로127번길 83,37.29405754,127.0522598
진안명가점,경기도 화성시 효행로1040번길 13,37.21275045,127.0419999
호암타운점,경기도 의정부시 호암로 19-1,37.70249634,127.0465166
참누리점,경기도 수원시 영통구 법조로 134,37.29146835,127.0723451
일산현대,경기도 고양시 일산서구 일중로55번길 50,37.68519618,126.7726532
송탄스카이점,경기도 평택시 목천로 93-18,37.08788169,127.0529434
농서로점,경기도 용인시 기흥구 농서로 101,37.22250255,127.0867684
포천양문공단점,경기도 포천시 영중면 양문공단로 76,38.00905037,127.2557669
LG인화원점,경기도 이천시 마장면 지산로 167-72,37.21163875,127.3526881
향남토성로점,경기도 화성시 향남읍 토성로 363,37.11664887,126.9618807
봉담그대가점,경기도 화성시 봉담읍 와우로73번길 15-7,37.21562134,126.9706776
포천뉴로드점,경기도 포천시 소흘읍 거친봉이1길 48-1,37.79187343,127.1334874
운정휴아림점,경기도 파주시 해올로 20,37.73561174,126.7296972
호평중앙점,경기도 남양주시 호평로46번안길 1,37.65508928,127.2450681
동백월드점,경기도 용인시 기흥구 동백죽전대로 283,37.263263,127.153989
금광현대점,경기도 성남시 중원구 광명로395번길 2,37.44744147,127.1700474
안성양성점,경기도 안성시 양성면 양성로 63,37.06380014,127.196566
안성유안점,경기도 안성시 대덕면 안성맞춤대로 1654,37.05785863,127.2569289
성남명성점,경기도 성남시 수정구 수정남로62번길 16,37.4396139,127.1352377
판교NS,경기도 성남시 분당구 대왕판교로645번길 36,37.40036823,127.1020759
원천아주점,경기도 수원시 영통구 월드컵로193번길 74,37.27589414,127.0447297
포천송우점,경기도 포천시 소흘읍 봉솔로 14-1,37.82511535,127.1401075
서동대로점,경기도 평택시 현덕면 서동대로 1256,36.98655813,126.8924677
곤지암제일점,경기도 광주시 곤지암읍 곤지암로 29,37.34918696,127.3434614
대화명성점,경기도 고양시 일산서구 대화로 124,37.66998939,126.7345006
용인으뜸점,경기도 용인시 처인구 중부대로1331번길 7,37.23624696,127.1925645
광교물풍선점,경기도 수원시 영통구 센트럴파크로127번길 125,37.29395674,127.0543025
정자백궁점,경기도 성남시 분당구 정자일로 158,37.36433909,127.1062986
장항이스턴점,경기도 고양시 일산동구 정발산로 38,37.65670201,126.7731111
만안안양로점,경기도 안양시 만안구 안양로 157,37.38810493,126.9299403
안양현내점,경기도 안양시 만안구 안양로395번길 19,37.4056309,126.9141601
안양나래점,경기도 안양시 만안구 장내로 40,37.39358529,126.9133514
광명테크노3점,경기도 광명시 하안로 60,37.44502322,126.8945147
여주강변점,경기도 여주시 강변유원지길 22-4,37.29144827,127.6586136
춘의산업단지점,경기도 부천시 원미로201번길 72,37.50206553,126.7903034
판교원마을점,경기도 성남시 분당구 안양판교로 1221,37.38216231,127.1015252
고잔일번지점,경기도 안산시 단원구 광덕대로 146,37.30942129,126.8306685
동탄데시앙점,경기도 화성시 동탄숲속로 68,37.20762985,37.20762985
화성수기점,경기도 화성시 봉담읍 최루백로 336,37.19796403,126.9711539
의정호동점,경기도 의정부시 호동로 72,37.72804074,127.0421166
평택서재점,경기도 평택시 서재4길 22,37.00775606,127.0936361
분당금강점,경기도 성남시 분당구 미금로22번길 9,37.33621507,127.1181427
용인일산점,경기도 용인시 처인구 모현읍 문현로 331,37.33752201,127.2445113
안산푸르지오,경기도 안산시 단원구 석수로 138,37.34890617,126.8054402
비산1점,경기도 안양시 동안구 평촌대로 386,37.40514463,126.9501085
금정타운점,경기도 군포시 당산로125번길 18,37.36221822,126.9440803
일산제니스1호점,경기도 고양시 일산서구 경의로 856,37.69391343,126.7610234
이천삼익점,경기도 이천시 부발읍 경충대로 2253,37.2601791,127.4760377
성남드림점,경기도 성남시 중원구 광명로32번길 5,37.43318026,127.1327806
팽성무지개점,경기도 평택시 팽성읍 팽성대교길 24,36.96412094,127.0417216
안산지곡로점,경기도 안산시 단원구 지곡로 108,37.33983409,126.7958221
하남충전소점,경기도 하남시 서하남로 16,37.51644325,127.1457658
경기대점,경기도 수원시 장안구 광교산로140번길 3,37.29996386,127.0305289
장호원점,경기도 이천시 장호원읍 샘재로 159,37.11725441,127.6297687
오포양벌점,경기도 광주시 오포읍 마루들길 247,37.3780538,127.2588741
수지고기리점,경기도 용인시 수지구 고기로 104,37.34649255,127.0926051
원곡중앙점,경기도 안성시 원곡면 만세로 1410,37.03728112,127.1290642
부천심곡점,경기도 부천시 부천로65번길 25,37.49077226,126.7829658
시화황금점,경기도 시흥시 공단2대로140번길 25,37.32837245,126.707012
한강유보라점,경기도 김포시 김포한강8로 173-28,37.63856148,126.6420582
광교웅진점,경기도 용인시 수지구 법조로 251,37.30123449,127.074436
뉴타운점,경기도 수원시 영통구 매탄로108번길 24,37.25989887,127.0446161
역점,경기도 성남시 중원구 산성대로382번길 2,37.44598593,127.157903
신길야구장점,경기도 안산시 단원구 신길중앙로6길 13-8,37.33867013,126.7607667
별내반디점,경기도 남양주시 별내3로 114,37.64940733,127.1255582
중동뜨란채점,경기도 부천시 도약로 105,37.51103614,126.7612591
석수다성점,경기도 안양시 만안구 안양로468번길 26,37.41208189,126.9121354
소사양우점,경기도 부천시 소사로126번길 38,37.47035097,126.7984455
부천신흥로점,경기도 부천시 신흥로 92-1,37.4919853,126.7782759
S까치울역점,경기도 부천시 길주로 626,37.50619007,126.8113871
동아대기숙사점,경기도 안성시 삼죽면 동아예대길 47,37.06233392,127.3532729
의정보람점,경기도 의정부시 태평로118번길 22,37.74291306,127.0528289
덕양용현로점,경기도 고양시 덕양구 용현로53번길 70,37.61842938,126.8355986
동탄캐슬점,경기도 화성시 동탄반석로 231,37.2088876,127.0740892
안산이호로점,경기도 안산시 상록구 이호로 51,37.28725011,126.8625322
평택통미로점,경기도 평택시 통미로22번길 24,36.99110537,127.0951144
수원세지로점,경기도 수원시 팔달구 세지로234번길 4,37.2718695,127.0241353
소사느티나무점,경기도 부천시 소삼로 1,37.47906562,126.7932974
광교참누리점,경기도 수원시 영통구 웰빙타운로 50,37.30641348,127.0469044
평택배미타운점,경기도 평택시 평택5로 23,36.98790031,127.1110138
광주새말점,경기도 광주시 오포읍 새말길 163,37.37275521,127.1616804
부천중앙점,경기도 부천시 부일로 459,37.48629375,126.7811841
부곡점,경기도 파주시 파주읍 윗가마울길 60,37.81770107,126.8297154
여주승리점,경기도 여주시 도예로 83-12,37.31053354,127.6432183
언남중앙점,경기도 용인시 기흥구 구성로 102,37.2934753,127.1204125
계원예대점,경기도 의왕시 계원대학로 31,37.37982737,126.9750656
뉴호계브라운,경기도 안양시 동안구 경수대로609번길 28,37.37645422,126.9541216
동두천조흥점,경기도 동두천시 상패로 56,37.90675975,127.0470481
포천군내점,경기도 포천시 군내면 청군로 3279,37.88732297,127.2179081
광주삼백점,경기도 광주시 오포읍 새말길 140,37.37083733,127.1618824
성남쉼터점,경기도 성남시 수정구 대왕판교로 974,37.42722309,127.1024558
하길부영점,경기도 화성시 향남읍 상신하길로328번길 21,37.11927888,126.912491
매탄삼천리점,경기도 수원시 영통구 동수원로286번길 13-2,37.25495418,127.0371144
부천성곡점,경기도 부천시 소사로699번길 35,37.51833988,126.8028461
중동스타점,경기도 부천시 도약로 146,37.50950252,126.7671095
진접부평리점,경기도 남양주시 진접읍 부마로 49-1,37.74851258,127.1992068
성남정석점,경기도 성남시 중원구 둔촌대로127번길 21,37.4309982,127.1325798
광주승리점,경기도 광주시 광남안로 28,37.39192424,127.2214352
성남사송점,경기도 성남시 수정구 사송로 63,37.41422848,127.1130491
전곡명정점,경기도 연천군 전곡읍 전은길 24,38.03219711,127.0720915
장호원노탑점,경기도 이천시 장호원읍 장여로85번길 60-20,37.1229356,127.6281655
탄현제니스점,경기도 고양시 일산서구 일현로 97-11,37.69506053,126.7621496
조암남로점,경기도 화성시 우정읍 조암북로68번길 12-7,37.0849686,126.8214047
일산럭키점,경기도 고양시 일산서구 강선로 188,37.67913419,126.7719596
행신센터점,경기도 고양시 덕양구 행신로359번길 16,37.62512607,126.8440584
운정산내중앙점,경기도 파주시 청암로 14,37.73040145,126.7386914
수원한국점,경기도 수원시 영통구 산남로 55,37.26805146,127.0488088
동탄치동천점,경기도 화성시 동탄치동천로2길 4-2,37.20321492,127.1244238
보라빌리지점,경기도 용인시 기흥구 용구대로1890번길 7-1,37.25716441,127.1052102
양촌타워점,경기도 김포시 양촌읍 양곡2로30번길 51-16,37.65463305,126.6301723
향남신명점,경기도 화성시 향남읍 행정중앙1로 15,37.12783903,126.915407
김포누산점,경기도 김포시 양촌읍 김포대로 1592,37.66303844,126.6606873
장항호수점,경기도 고양시 일산동구 노루목로 80,37.64649145,126.7755114
팔탄덕우점,경기도 화성시 팔탄면 온천로 37,37.12868448,126.860487
안중성원점,경기도 평택시 안중읍 현화중앙길 53,36.98301391,126.9205328
초월산이점,경기도 광주시 초월읍 경충대로 912,37.36399772,127.3127495
청덕테크노점,경기도 용인시 기흥구 구성로 357,37.29127201,127.1481152
고잔베스트,경기도 안산시 단원구 광덕동로 95,37.31296352,126.8325991
포승포레점,경기도 평택시 포승읍 여술1길 100,36.98985546,126.841409
산정호수하동점,경기도 포천시 영북면 산정호수로 371,38.06761042,127.3127953
의정산단점,경기도 의정부시 산단로76번길 115,37.74352337,127.0844554
광교대림점,경기도 수원시 영통구 센트럴타운로 76,37.2911029,127.0523758
통진대성점,경기도 김포시 통진읍 하성로 58,37.6809509,126.6324772
평촌삼성점,경기도 안양시 동안구 학의로 146,37.40074453,126.9558849
상동자이점,경기도 부천시 조마루로 48,37.50038749,126.7494358
수원매탄점,경기도 수원시 영통구 인계로 239,37.26506077,127.0433332
안산선암로점,경기도 안산시 상록구 선암로 5,37.28989238,126.8608797
향남마루점,경기도 화성시 향남읍 발안로 303,37.1342556,126.9414041
광교동진점,경기도 수원시 영통구 대학로 34,37.29926879,127.0436671
안중강변로점,경기도 평택시 안중읍 강변로 196,36.98002566,126.9500592
파주명품점,경기도 파주시 탄현면 여치길 16,37.76911553,126.6995798
의정반디점,경기도 의정부시 신촌로63번길 3,37.75071464,127.0415294
수지꽃메점,경기도 용인시 수지구 죽전로 121,37.32365186,127.1202866
오남푸르지오점,경기도 남양주시 오남읍 진건오남로759번길 70,37.69567867,127.1982673
오산은계점,경기도 오산시 은여울로43번길 14,37.15948276,127.070988
덕계신우점,경기도 양주시 평화로1416번길 58-15,37.81676653,127.0491375
영통한아름점,경기도 수원시 영통구 동탄원천로915번길 36,37.25687351,127.0437862
성남파크빌점,경기도 성남시 중원구 둔촌대로 154,37.42899446,127.1358118
양주자이점,경기도 양주시 삼숭로38번길 80,37.7960636,127.1058126
시흥거모본점,경기도 시흥시 군자로335번길 11,37.35814718,126.7725021
행신로점,경기도 고양시 덕양구 행신로311번길 1-7,37.62229368,126.8455749
정왕발레르텔점,경기도 시흥시 만해로 41,37.33165507,126.7457726
오포으뜸점,경기도 광주시 오포읍 오포안로 13,37.34896038,127.1931875
구래나비점,경기도 김포시 김포한강9로12번길 123,37.64074747,126.6269715
남양시티점,경기도 화성시 남양읍 화성로 1468,37.22251123,126.8424456
남양주동부,경기도 남양주시 와부읍 덕소로97번길 101,37.58938141,127.2223497
안산상록점,경기도 안산시 상록구 용신로 394,37.30136594,126.8658727
용인모현점,경기도 용인시 처인구 모현읍 외대로 22,37.33643374,127.2519253
시흥유호점,경기도 시흥시 비둘기공원5길 12,37.44323682,126.7903246
양주가야점,경기도 양주시 백석읍 양주산성로 545,37.78647159,126.9934642
송탄공단점,경기도 평택시 산단로 52,37.03693392,127.0760127
봉양사거리점,경기도 양주시 칠봉산로 231,37.85465281,127.0761737
송탄라이프점,경기도 평택시 지산로37번길 78,37.08246381,127.0594668
시흥서강점,경기도 시흥시 비둘기공원7길 22,37.44411856,126.7928418
가남행복점,경기도 여주시 가남읍 경충대로 1472-34,37.21826667,127.5362155
소하드림점,경기도 광명시 신촌로 9,37.44755241,126.8894144
광주유정점,경기도 광주시 도척면 도척로 690,37.29355894,127.326869
거모사랑점,경기도 시흥시 도일로112번길 6,37.34037532,126.7844266
N동화교육점,경기도 김포시 월곶면 곰바위로 37,37.71137934,126.5424023
송탄보건소점,경기도 평택시 서정로 296,37.06506215,127.0661811
시흥금오로점,경기도 시흥시 금오로465번길 4,37.44360465,126.830448
분당에클라트점,경기도 성남시 분당구 서현로 184,37.3883665,127.1237771
삼정타운점,경기도 부천시 석천로356번길 30,37.51833144,126.7678579
주엽본,경기도 고양시 일산서구 킨텍스로 340,37.6744799,126.755146
민락현대,경기도 의정부시 오목로 150,37.73979175,127.0959495
일산강선,경기도 고양시 일산서구 강선로 116,37.67335995,126.7677586
의정장암IC점,경기도 의정부시 동일로 141,37.70184397,127.0550188
우만아주로점,경기도 수원시 팔달구 아주로39번길 22,37.27848909,127.0424754
이천행궁점,경기도 이천시 영창로193번길 22,37.28216662,127.4444896
구리데시앙점,경기도 구리시 벌말로 185,37.59323078,127.1494637
가천대역점,경기도 성남시 수정구 성남대로 1330,37.4484569,127.1271341
가현로드점,경기도 김포시 통진읍 율마로 235,37.67219596,126.5981788
은계점,경기도 오산시 은여울로43번길 16,37.1609213,127.0717248
하남하사창동점,경기도 하남시 춘궁로 89,37.5106601,127.2027163
분당성원점,경기도 성남시 분당구 대왕판교로 187,37.36032582,127.1010857
광교센타점,경기도 수원시 영통구 법조로149번길 171-3,37.29284401,127.0696665
서재타운점,경기도 평택시 평남로 1025,37.00947958,127.0974922
서정스마트점,경기도 평택시 정암로 42,37.05658275,127.0582235
파주읍점,경기도 파주시 파주읍 우계로 38,37.83033831,126.8158275
송탄타운점,경기도 평택시 서정북로 81,37.07103926,127.0585395
편의점,경기도 남양주시 오남읍 진건오남로759번길 70,37.69631697,127.1980563
교문우성,경기도 구리시 체육관로 45,37.58850251,127.1373565
운정사라방점,경기도 파주시 가람로21번길 25-20,37.73505554,126.7510012
흥선점,경기도 의정부시 흥선로 14,37.74682218,127.0305049
송우솔모루점,경기도 포천시 소흘읍 솔모루로 55,37.82734639,127.1445799
광주태전점,경기도 광주시 태봉로 9,37.39208756,127.2312476
수원매산로점,경기도 수원시 팔달구 갓매산로 30,37.26742902,127.0059502
수원장안점,경기도 수원시 장안구 경수대로 1079,37.3091301,126.9940867
소하휴먼센터점,경기도 광명시 소하로 55,37.45005622,126.8854669
구갈점,경기도 용인시 기흥구 관곡로64번길 18,37.2811252,127.1124821
시흥대동점,경기도 시흥시 시청로 59,37.37988618,126.8002631
신곡한일점,경기도 의정부시 시민로 258,37.73571154,127.0638123
우정기아로점,경기도 화성시 우정읍 기아자동차로 535,37.06329528,126.7934385
안산제일점,경기도 안산시 단원구 원곡로 37,37.3306396,126.7928094
양주은현점,경기도 양주시 은현면 화합로 1092,37.85133909,127.0370579
오이도중앙로점,경기도 시흥시 오이도중앙로5번길 16,37.34711643,126.6924474
성남수진중앙점,경기도 성남시 수정구 수정남로20번길 16,37.43825595,127.1306879
여주상동점,경기도 여주시 여흥로 162,37.29515481,127.6413284
성남보건점,경기도 성남시 수정구 수정로 220,37.44475214,127.144197
남양주양지점,경기도 남양주시 오남읍 진건오남로884번길 48,37.7075154,127.1978449
구래탑점,경기도 김포시 김포한강10로133번길 126,37.64392947,126.6193779
동두천점,경기도 동두천시 강변로296번길 24,37.89714455,127.0468537
퇴촌정임점,경기도 광주시 퇴촌면 천진암로 527,37.46324793,127.3260855
팽성언덕마을점,경기도 평택시 팽성읍 송화3길 1,36.95387179,127.0502937
안중시장점,경기도 평택시 안중읍 안현로서5길 51,36.98793842,126.9269785
인계타운점,경기도 수원시 팔달구 효원로249번길 47,37.26468002,127.0297638
처인금학로점,경기도 용인시 처인구 금학로 297,37.23765452,127.1968096
파주적성점,경기도 파주시 적성면 청송로 1034,37.95488287,126.9199611
세교공단점,경기도 평택시 세교산단로 18,37.00875615,127.0807248
향남죽전로점,경기도 화성시 향남읍 행정죽전로1길 13,37.1245602,126.9204728
장현사랑점,경기도 남양주시 진접읍 봉현로 42,37.71719827,127.1790478
순천향대병원점,경기도 부천시 조마루로 170,37.49835831,126.7620906
덕이한소망,경기도 고양시 일산서구 하이파크로 143,37.70362293,126.7564278
이천한솔점,경기도 이천시 신둔면 원적로 132,37.31735375,127.4071116
누읍점,경기도 오산시 황새로 187,37.14324215,127.0615063
광명현진점,경기도 광명시 목감로 88,37.47586146,126.8478086
수지삼영점,경기도 용인시 수지구 성복2로78번길 51,37.31967068,127.0767372
남양주별내점,경기도 남양주시 별내5로5번길 8-9,37.65066827,127.1134177
가평현리점,경기도 가평군 조종면 청군로 1245,37.8159271,127.3482658
매탄삼천리,경기도 수원시 영통구 권선로794번길 12,37.25557935,127.0375348
양평대교점,경기도 양평군 강상면 양평대교길 86,37.48306909,127.4849785
월문산단점,경기도 화성시 팔탄면 버들로1362번길 53-38,37.12077623,126.8552268
모란성당점,경기도 성남시 중원구 둔촌대로 112,37.4289605,127.1311796
봉일천이레점,경기도 파주시 조리읍 공릉장터길 22,37.74320484,126.8061886
인티움점,경기도 성남시 수정구 성남대로 1244,37.44088681,127.1282052
남양주퇴계원점,경기도 남양주시 퇴계원읍 퇴계원로 26,37.64908908,127.1411098
화성발산점,경기도 화성시 정남면 발산2길 5,37.15300067,126.9817603
용이타운점,경기도 평택시 현신2길 24,36.99511137,127.1381622
역북우미린점,경기도 용인시 처인구 명지로40번길 13,37.23232447,127.1869039
영통역점,경기도 수원시 영통구 매영로345번길 7,37.25276406,127.0708922
파주로열로드점,경기도 파주시 조리읍 등원로 224,37.76479693,126.8227184
호평우미린점,경기도 남양주시 호평로 9,37.65597383,127.2410924
금정역점,경기도 군포시 군포로 743-1,37.37156967,126.942888
수원경희점,경기도 용인시 기흥구 덕영대로 1732,37.23980533,127.0811611
광주신시청점,경기도 광주시 행정타운로69번길 34,37.42599954,127.2501538
동탄헤리움점,경기도 화성시 동탄하나1길 61,37.21914444,127.0583809
성남황금점,경기도 성남시 중원구 박석로15번길 15,37.43407512,127.1644434
안성그대가점,경기도 안성시 공도읍 마정강변길 45,37.01309711,127.2092137
김포에코점,경기도 김포시 사우중로 23,37.61758704,126.7170168
상록수역점,경기도 안산시 상록구 석삼말로 13,37.30354347,126.8664943
장항신성점내휴게음식점,경기도 고양시 일산동구 정발산로42번길 24,37.6559788,126.7737464
팔탄공단점,경기도 화성시 팔탄면 시청로 756,37.17033819,126.8761214
오산서동점,경기도 오산시 서동로 177-1,37.15561725,127.0415954
안성에듀타운점,경기도 안성시 금산2길 9,37.0120333,127.2710732
향남갈천점,경기도 화성시 향남읍 만년로 70-3,37.1315415,126.9834096
갈산빌리지점,경기도 이천시 갈산로 114,37.2873375,127.4656993
정남면서봉로점,경기도 화성시 정남면 서봉로 855,37.15121564,126.9619262
안양부영점,경기도 안양시 동안구 관평로212번길 15,37.3961825,126.9596752
하남광암점,경기도 하남시 초광로 106,37.53013735,127.1733409
별내주공점,경기도 남양주시 별내5로 189,37.66310342,127.1304754
김포학운점,경기도 김포시 양촌읍 학운산단3로25번길 14-9,37.60549797,126.5931235
행신샘터점,경기도 고양시 덕양구 화신로 73,37.61945005,126.8385958
구리타운점,경기도 구리시 이문안로83번길 18,37.59293453,127.1409063
안성에듀타운점,경기도 안성시 금산2길 11,37.01215086,127.2711395
가평터미널점,경기도 가평군 가평읍 가화로 50,37.82438456,127.5157847
운정비발디점,경기도 파주시 가람로116번길 130,37.73325341,126.7646678
마정로드점,경기도 안성시 공도읍 서동대로 4441,37.00873723,127.1960447
용인멜로디점,경기도 용인시 처인구 포곡읍 포곡로61번길 6,37.2678952,127.2128597
화성석천점,경기도 화성시 우정읍 남양만로 761,37.05061976,126.7955054
평택지산점,경기도 평택시 지산로20번길 22,37.07837971,127.0569417
송탄송북시장점,경기도 평택시 탄현로 316-1,37.0805136,127.0555882
광명센트레빌점,경기도 광명시 오리로 801,37.46950706,126.8681079
청덕타운점,경기도 용인시 기흥구 구성2로5번길 25,37.29184914,127.1469245
파주현대점,경기도 파주시 미래로 535,37.72561679,126.7505018
파주TOP,경기도 파주시 월롱면 엘씨디로8번길 38,37.81195438,126.7758046
오산동부점,경기도 오산시 경기대로25번길 14,37.12928652,127.06869
역곡타운점,경기도 부천시 지봉로107번길 48,37.49029296,126.8102143
분당정자타운점,경기도 성남시 분당구 느티로87번길 15,37.36999375,127.1141346
옥산주공점,경기도 안성시 중앙로 214,37.01294798,127.2529614
별내푸르지오점,경기도 남양주시 송산로307번길 22,37.66689752,127.1293543
청북수자인점,경기도 평택시 청북읍 안청로4길 51,37.02383002,126.921012
평택용이금호점,경기도 평택시 현촌3길 21,36.99989592,127.1306817
용인청덕점,경기도 용인시 기흥구 구성로 395,37.29318131,127.1517367
광교에듀타운점,경기도 수원시 영통구 혜령로 10,37.28402537,127.0518781
오산세마점,경기도 오산시 세마역로19번길 50,37.1842386,127.0441058
선부광장점,경기도 안산시 단원구 선부광장1로 118,37.33277163,126.8120487
이천상승대점,경기도 이천시 장호원읍 경충대로597번길 243,37.1621997,127.5749978
오정본점,경기도 부천시 성오로141번길 54,37.523883,126.798583
정왕프라자점,경기도 시흥시 군자천로 321,37.34563651,126.7336559
고양주교점,경기도 고양시 덕양구 마상로113번길 68,37.66293983,126.8383492
동탄방교리점,경기도 화성시 동탄기흥로 31,37.16380569,127.0869121
위례LH점,경기도 성남시 수정구 위례순환로 17,37.47335817,127.1326783
오산스타점,경기도 오산시 오산로 298,37.15350924,127.0687983
다산자이,경기도 남양주시 다산중앙로 153,37.62672128,127.150521
포천한우리점,경기도 포천시 신북면 포천로 1992,37.92821674,127.1869105
운양타운점,경기도 김포시 김포한강11로 288-48,37.65459885,126.6865753
시화청솔점,경기도 시흥시 중심상가로 128,37.34747185,126.7308712
정발산공원점,경기도 고양시 일산동구 일산로463번길 51-1,37.67219463,126.7743864
탄현큰마을점,경기도 고양시 일산서구 일현로 140,37.70013252,126.7655238
장기더원점,경기도 김포시 김포한강3로 290-18,37.64259411,126.6614284
광교현대점,경기도 수원시 영통구 도청로18번길 26,37.28763342,37.28763342
장안수성점,경기도 수원시 장안구 영화로71번길 24,37.29260771,127.0051566
원곡신천로점,경기도 안산시 단원구 신천로 18,37.33632706,126.7947496
호계으뜸,경기도 안양시 동안구 갈산로 16,37.37359137,126.9625954
시흥타운점,경기도 시흥시 시흥대로1056번길 14,37.43075084,37.43075084
양평전수리점,경기도 양평군 강하면 강남로 378,37.5036156,127.4267019
평촌래미안점,경기도 안양시 동안구 흥안대로456번길 82,37.39317823,126.979932
교하행복점,경기도 파주시 청석로 266,37.72550815,126.7177323
안산늘봄점,경기도 안산시 단원구 고잔로 18,37.31923722,126.8282713
행신최고,경기도 고양시 덕양구 중앙로558번길 16-16,37.62363888,126.8366729
양평로드점,경기도 양평군 강상면 강남로 740,37.49344798,127.4604009
수원대양점,경기도 수원시 팔달구 매산로116번길 70,37.26832431,127.0149583
신동삼성점,경기도 수원시 영통구 신원로136번길 12,37.24875955,127.0556228
사우중앙점,경기도 김포시 봉화로 37,37.6192113,126.7139305
신갈타운,경기도 용인시 기흥구 신갈로84번길 29,37.27413326,127.1089559
양주LG패션점,경기도 양주시 평화로 1593,37.83138808,127.052267
안양호계점,경기도 안양시 동안구 경수대로 521-1,37.36925883,37.36925883
의왕호수점,경기도 의왕시 왕소나무길 20,37.30325496,126.9555874
곤지암마을점,경기도 광주시 곤지암읍 대석동길 73,37.3529324,127.3445237
시기산삼성,경기도 화성시 동탄지성로 327,37.22266568,127.0502241
마도산단점,경기도 화성시 마도면 청원로 277,37.17937063,126.783419
월피대로점,경기도 안산시 상록구 안산천동로 230,37.33408825,126.8486122
시낭한울점,경기도 안산시 상록구 시낭북로1길 1,37.33391564,126.8568299
분당중앙점,경기도 성남시 분당구 중앙공원로40번길 8,37.37970016,127.1301561
송산휴먼빌점,경기도 화성시 수노을1로 235,37.2803103,126.8236541
용인중앙도서관점,경기도 용인시 처인구 명지로 21,37.23405967,127.1889589
천천원룸점,경기도 수원시 장안구 일월로76번길 10-3,37.28967824,126.9775529
화성덕절리점,경기도 화성시 정남면 정남동로 35,37.13867893,127.0330298
봉담타운점,경기도 화성시 봉담읍 상리3길 135,37.22428709,37.22428709
시흥한라점,경기도 시흥시 서울대학로 172-20,37.36213423,126.7185455
구문천리점,경기도 화성시 향남읍 발안공단로 101,37.08627676,126.9081712
중원도서관점,경기도 성남시 중원구 둔촌대로 181,37.42982885,127.1390224
성남앙뜨점,경기도 성남시 중원구 광명로 55,37.43424313,127.1351865
송탄스위첸점,경기도 평택시 지산로 120,37.08116215,127.0680869
옥길우성점,경기도 부천시 부광로 220,37.46761088,126.8252358
호평메인점,경기도 남양주시 늘을2로 26,37.65508304,127.2440935
위례센트럴점,경기도 성남시 수정구 위례순환로 211,37.47142886,37.47142886
호매실타워,경기도 수원시 권선구 호매실로104번길 90,37.25957882,126.9626843
고촌현대점,경기도 김포시 고촌읍 수기로 67-39,37.59641191,126.7676245
김포고촌점,경기도 김포시 고촌읍 고송로 20,37.60469615,126.7688582
걸포자이에듀점,경기도 김포시 걸포2로 49,37.63459297,126.7025398
군포한림점,경기도 군포시 공단로 294,37.37037213,126.9450047
파주용미사랑점,경기도 파주시 광탄면 명봉산로 299,37.74733051,126.8597819
광주초월중점,경기도 광주시 초월읍 도곡길21번길 20,37.3676821,127.3033228
고양대로점,경기도 고양시 덕양구 고양대로 1215,37.66315496,126.8236909
이천소정점,경기도 이천시 신둔면 황무로 515,37.3040763,127.4062796
고림빌리점,경기도 용인시 처인구 임원로 26-1,37.25160311,127.2306594
김포축복점,경기도 김포시 양촌읍 양곡2로60번길 68-3,37.65798984,126.6306093
향동LH점,경기도 고양시 덕양구 향기5로 65,37.60785052,126.8954955
오산오스카점,경기도 오산시 가수로 31,37.14635957,127.0490179
마도명륜점,경기도 화성시 마도면 마도로 518,37.18842192,126.7603768
의정부역점,경기도 의정부시 평화로 553,37.74130599,127.0468359
성남은빛타운점,경기도 성남시 중원구 은행로 13,37.45499261,127.1636795
은현IC점,경기도 양주시 은현면 선하로 96,37.88145476,127.0364726
다원은여울점,경기도 김포시 김포한강8로 173-58,37.63724703,126.6366777
안산신길고점,경기도 안산시 단원구 신길로 50,37.33447028,126.7893966
일산스타점,경기도 고양시 일산동구 고양대로1021번길 33,37.67403484,126.8080005
광명한사랑점,경기도 광명시 광명로 877,37.47790461,126.8531363
의왕내손점,경기도 의왕시 오리나무로 13,37.37488841,126.9687197
비전푸르지오점,경기도 평택시 용죽2로 24,36.99431145,127.1212411
평택영진점,경기도 평택시 어인남로8번길 47,36.99304188,127.1009219
성결대점,경기도 안양시 만안구 성결대학로 41,37.38189698,126.9299834
후곡9단지점,경기도 고양시 일산서구 후곡로 10,37.67788739,126.7630131
단대푸르지오점,경기도 성남시 수정구 산성대로437번길 18,37.45144381,127.1575367
호계점,경기도 안양시 동안구 평촌대로 129,37.38354662,126.9593417
태전우림점,경기도 광주시 태봉로 72,37.38665838,127.2277684
금촌초교점,경기도 파주시 새꽃로 119,37.76070105,126.7684219
미금타운,경기도 성남시 분당구 미금일로74번길 29-6,37.34855263,127.1111472
운정8단지점,경기도 파주시 와석순환로 15,37.70949503,126.7579061
행신대표점,경기도 고양시 덕양구 화신로 105,37.62269212,126.8384321
봉담솔향기점,경기도 화성시 봉담읍 동화역말길 22,37.21389041,126.9643805
상록건건점,경기도 안산시 상록구 창말2길 25,37.30565308,126.902943
봉담토마토점,경기도 화성시 봉담읍 와우로 89,37.2141488,126.9754409
호평신명점,경기도 남양주시 늘을2로 90-46,37.66073641,37.66073641
분당미래점,경기도 성남시 분당구 분당로263번길 13,37.37169197,127.1378696
의정중앙초교점,경기도 의정부시 평화로 596,37.74525711,127.0462973
오산대림점,경기도 오산시 오산로132번길 28-19,37.13823014,127.0727224
지에스리테일 인계예술점,경기도 수원시 팔달구 효원로 303,37.26132675,127.035128
남양아이파크점,경기도 화성시 남양읍 역골동로 65,37.20586102,126.8316149
중동미리내점,경기도 부천시 소향로 227,37.5009786,126.7731532
S8수진역점,경기도 성남시 수정구 산성대로 203,37.43779567,127.1404454
동탄칸타빌점,경기도 화성시 동탄순환대로22길 14,37.1959201,127.1213316
포승공원점,경기도 평택시 포승읍 여술3길 63,36.9886267,126.8466286
중동리첸시아점,경기도 부천시 옥산로 7,37.4953739,126.7792158
양주조은점,경기도 양주시 고암길 252-36,37.83521135,127.0741668
금촌팜스프링점,경기도 파주시 송화로 11,37.77187393,126.7771241
미사퀸즈파크,경기도 하남시 미사강변동로84번길 20,37.56256849,127.1945004
칠곡점,경기도 안성시 원곡면 만세로 1182,37.04319919,127.1498609
양주금강점,경기도 양주시 회정로 114,37.83725456,127.0659159
동탄한빛길점,경기도 화성시 동탄시범한빛길 35,37.20977358,127.0675666
신세류점,경기도 수원시 권선구 세류로 51,37.26386591,127.0076431
파주금곡점,경기도 파주시 법원읍 술이홀로 1338,37.8866723,126.8778949
장곡그린점,경기도 시흥시 장곡로53번길 10,37.37764411,126.7819058
뉴시민회관점,경기도 이천시 애련정로 109,37.2802552,127.4500519
광교40단지점,경기도 수원시 영통구 광교마을로 156,37.29535993,127.0814445
의정이편한,경기도 의정부시 녹양로34번길 47,37.75435472,127.0349005
하남경찰서점,경기도 하남시 검단산로 32,37.51901669,127.2249358
일산프라디움,경기도 고양시 일산동구 연리지로 60,37.66094032,126.7562449
마도슬항점,경기도 화성시 마도면 화성로 716,37.20765617,126.7669229
수지엘지점,경기도 용인시 수지구 성복2로 92,37.31549262,127.0759648
목감호반점,경기도 시흥시 목감둘레로 90,37.37127805,126.8498391
평택신리점,경기도 평택시 진위면 경기대로 1727,37.09846585,127.0637913
상대원점,경기도 성남시 중원구 박석로25번길 44-4,37.43515137,127.1611884
오산대호점,경기도 오산시 대호로 34,37.15490035,127.0578272
성대학사점,경기도 수원시 장안구 서부로2126번길 33,37.29792404,37.29792404
평택서탄점,경기도 평택시 서탄면 서탄로 297,37.10916343,127.0325276
수지성복점,경기도 용인시 수지구 성복2로 230,37.31993474,127.0621908
응암휴게소점,경기도 이천시 부발읍 경충대로 1687,37.22984079,127.5212915
평택효성점,경기도 평택시 비전8길 61-1,37.00112092,127.1087365
덕계중앙점,경기도 양주시 평화로1435번길 9,37.81941598,127.0458551
용현베르우스점,경기도 의정부시 용민로 74,37.73708692,127.0863727
용인터미널점,경기도 용인시 처인구 백옥대로 1087-2,37.23266282,127.2089211
덕양세솔점,경기도 고양시 덕양구 삼송로 203,37.65393775,126.8964338
LGD파주R&D점,경기도 파주시 월롱면 엘지로 245,37.8158728,37.8158728
조암서로,경기도 화성시 우정읍 조암서로 40,37.08488893,126.8161197
파주선유점,경기도 파주시 문산읍 사임당로 130,37.86574511,126.8058167
편의점,경기도 양평군 용문면 용문역길 1-1,37.48408661,127.5933878
운정도시농부,경기도 파주시 하우2길 55,37.717565,126.7670607
의왕솔채점,경기도 의왕시 보식골로 17,37.35965074,126.9707231
소하미도점,경기도 광명시 영당안로 50,37.43668307,126.8776875
호계효성,경기도 안양시 동안구 시민대로110번길 43,37.38534362,126.9475616
교문대우,경기도 구리시 장자대로37번길 20,37.58853033,127.135001
광주교헌,경기도 광주시 오포읍 머루숯길 53-1,37.36400575,127.157883
호평아이파크,경기도 남양주시 늘을3로 7,37.65959448,127.2408516
포승신영점,경기도 평택시 포승읍 서동대로 394,36.93862561,126.8884245
평촌엘지,경기도 안양시 동안구 부림로 52,37.38836191,126.9690094
원종성오로점,경기도 부천시 소사로775번길 68,37.52545839,126.8011032
덕소월드,경기도 남양주시 와부읍 덕소로 35,37.58857869,127.2073323
동백평촌점,경기도 용인시 기흥구 평촌2로1번길 31,37.27947132,127.1536497
서해그랑블점,경기도 시흥시 정왕신길로49번길 39,37.36258378,126.7276365
송담대정보관점,경기도 용인시 처인구 동부로 61,37.22920995,127.2181754
동탄월드점,경기도 화성시 동탄중앙로 189,37.20203622,127.0668169
권선세지로점,경기도 수원시 권선구 세지로126번길 44,37.26210429,127.0222659
신갈행복점,경기도 용인시 기흥구 신구로12번길 11-1,37.27364957,127.1105402
남한산성점,경기도 광주시 남한산성면 남한산성로 769-7,37.47762232,127.1848642
통진신일,경기도 김포시 통진읍 김포대로 1991,37.68058551,126.6212154
여주동원점,경기도 여주시 세종로 173-69,37.28391644,127.6408517
향남터미널,경기도 화성시 향남읍 향남로 424,37.13289248,126.9221327
원곡타운,경기도 안산시 단원구 관산2길 6,37.32911114,126.7975617
하남부영점,경기도 하남시 대청로 119,37.5395949,127.2273707
오정꿈사랑,경기도 부천시 고강로72번길 67,37.52685012,126.8122133
상동신라점,경기도 부천시 상일로 72,37.49050621,126.749725
행신뷰점,경기도 고양시 덕양구 행신로143번길 18,37.62000042,126.8313716
시흥문화마을로점,경기도 시흥시 문화마을로16번길 60,37.44595518,126.7856586
양주장흥본점,경기도 양주시 장흥면 권율로 31,37.71914282,126.9434696
관산수향,경기도 고양시 덕양구 고골길 115,37.71363253,126.865357
포천대진대,경기도 포천시 호국로 1001,37.85430679,127.1662343
평택남산로,경기도 평택시 남산로 80,37.08593884,127.0488847
오산청호점,경기도 오산시 남부대로 486-19,37.13017896,127.0861008
숙지공원,경기도 수원시 팔달구 화양로 66-3,37.28397153,37.28397153
오산청학,경기도 오산시 청학로17번길 5-4,37.15122512,127.0613964
판교원마을점,경기도 성남시 분당구 판교원로 209,37.38799006,37.38799006
양주남경,경기도 양주시 평화로 2023,37.86835738,127.0602725
시흥금오로,경기도 시흥시 금오로465번길 4-1,37.44340377,126.8301799
하남동부,경기도 하남시 역말로 52-1,37.53642848,127.2024194
항공대강의동점,경기도 고양시 덕양구 항공대학로 76,37.59893032,126.8641682
광명해링턴점,경기도 광명시 일직로 22,37.4222553,126.8841505
평내중흥점,경기도 남양주시 평내로 136,37.64634583,127.2403405
서천타운,경기도 용인시 기흥구 서천동로91번길 4-1,37.23362274,127.0717808
화성반정로,경기도 화성시 반정로 144,37.23355794,127.0388066
두원공대파주,경기도 파주시 파주읍 주라위길 159,37.8170125,126.8006736
신동아점,경기도 오산시 초평로 35,37.14502038,127.042731
평택노와리점,경기도 평택시 팽성읍 노와4길 58-13,36.95225283,127.0792934
덕이로데오점,경기도 고양시 일산서구 하이파크3로 18-4,37.69321814,126.7540391
광명푸르지오점,경기도 광명시 양달로 7,37.4135174,126.8805863
고양본점,경기도 고양시 덕양구 혜음로 27,37.70302963,126.901728
역곡중앙점,경기도 부천시 부일로699번길 24,37.48560432,126.8072131
성저공원점,경기도 고양시 일산서구 일산로635번길 8-26,37.68202314,126.7570266
양평서종점,경기도 양평군 서종면 북한강로648번길 1,37.59583707,127.3512772
용인양지점,경기도 용인시 처인구 양지면 죽양대로2016번길 56,37.21980374,127.3159641
군포시청점,경기도 군포시 번영로561번길 19,37.36175579,126.93772
서천희망점,경기도 용인시 기흥구 서천로128번길 12,37.2373061,127.0715103
광명한빛,경기도 광명시 새터로 116,37.47744937,126.858231
파주센터,경기도 파주시 탄현면 한록산길 14,37.7945544,126.6942404
중동은하수,경기도 부천시 소향로 206,37.50069666,126.7711673
안산SK,경기도 안산시 상록구 감골2로 58,37.29111665,126.8514328
수지문정점,경기도 용인시 수지구 풍덕천로148번길 4,37.32387917,127.0978191
장현길훈점,경기도 남양주시 진접읍 봉현로 51-1,37.71762465,127.1781698
명지대공학관,경기도 용인시 처인구 명지로 116,37.22180392,127.1901719
화성클래식점,경기도 화성시 봉담읍 효행로 240,37.22678024,126.9700301
평택명품,경기도 평택시 경기대로 637-1,37.00781723,127.0770169
평택동문가점,경기도 평택시 신촌3로 12,37.02754215,127.105146
오산정우점,경기도 오산시 청학로 230,37.16926103,127.0619954
장항우리,경기도 고양시 일산동구 장항로 337,37.64505423,126.76298
진접역점,경기도 남양주시 진접읍 해밀예당1로190번길 28-1,37.71972596,127.2020577
광주도척점,경기도 광주시 도척면 마도로 289,37.29646156,127.3318286
S부천운동장역점,경기도 부천시 길주로 502,37.50547202,126.7974191
이천홈타운점,경기도 이천시 구만리로 42,37.26765002,127.440729
한화리조트산정호수점,경기도 포천시 영북면 산정호수로 402,38.06530513,127.3145491
남양주신우점,경기도 남양주시 진접읍 금강로 1553-26,37.7300854,127.1911237
기흥교동점,경기도 용인시 기흥구 마북로 95,37.29974673,127.1191777
기흥구성점,경기도 용인시 기흥구 구성로63번길 10-1,37.29548168,127.1175807
신흥행복,경기도 성남시 수정구 산성대로 204-2,37.43757215,127.1406853
상록우성,경기도 안산시 상록구 본오로 145,37.29742103,126.8651199
화성마도점,경기도 화성시 남양읍 마도공단로 26,37.20144657,126.7983734
고덕우성점,경기도 평택시 고덕면 고덕중앙로 218,37.04788896,127.0449527
양촌구래점,경기도 김포시 양촌읍 대곶남로 699,37.64594926,126.6148986
동탄서해,경기도 화성시 동탄문화센터로 38,37.19731904,127.07084
대왕판교점,경기도 성남시 수정구 달래내로 40,37.40892718,127.0959982
통진행운,경기도 김포시 통진읍 가현로85번길 10,37.6723436,126.5848912
청평대교점,경기도 가평군 청평면 경춘로 660,37.72796789,127.409764
하남우진점,경기도 하남시 대성로169번길 6,37.52548532,127.1977955
월피공원점,경기도 안산시 상록구 예술광장로 23,37.32907764,126.8466915
동백중앙점,경기도 용인시 기흥구 동백중앙로 273,37.27700967,127.1534179
정남내리,경기도 화성시 정남면 가장로 353,37.1622205,127.0182509
괴안삼거리점,경기도 부천시 범안로 9-1,37.48067914,126.8057763
민락중흥점,경기도 의정부시 민락로 195,37.74283483,127.100349
고양현천점,경기도 고양시 덕양구 대덕로 121,37.59276805,126.8679986
기흥세무서점,경기도 용인시 기흥구 흥덕2로117번길 15,37.27789782,127.0723312
남양주대림점,경기도 남양주시 오남읍 양지로240번길 37,37.70032398,127.1950307
구리골드점,경기도 구리시 동구릉로 411-5,37.63383046,37.63383046
운양하늘점,경기도 김포시 김포한강11로438번길 200-5,37.65262504,126.6921969
신한대기숙사점,경기도 의정부시 호암로 95,37.71018019,127.0462821
운정7단지,경기도 파주시 와석순환로 61,37.70879122,126.7535402
이천매곡점,경기도 이천시 호법면 이섭대천로 98,37.21525473,127.3940416
모가로드점,경기도 이천시 모가면 진상미로 1590,37.19482768,127.467467
태평고개점,경기도 성남시 수정구 성남대로 1275-1,37.44378575,127.1266459
안성푸르지오점,경기도 안성시 비봉로 37,37.01158751,127.2896972
고산로제비앙,경기도 의정부시 서광로 169,37.73181082,127.1104431
오토팰리스점,경기도 부천시 봉오대로556번길 21,37.53820085,126.8218775
용인통삼점,경기도 용인시 처인구 남사읍 경기동로 38,37.14704982,127.1331541
인계파밀리에점,경기도 수원시 팔달구 세지로 211,37.27043794,127.0231842
청평삼회리점,경기도 가평군 청평면 북한강로 2026,37.69714876,127.3931122
태전타운점,경기도 광주시 태성로 107,37.37969425,127.2293416
수지이편한점,경기도 용인시 수지구 포은대로313번길 7-10,37.31468134,127.0852032
태전중앙점,경기도 광주시 태전동로 54,37.38355112,127.2321478
평택동문점,경기도 평택시 신촌1로 9,37.02605128,127.1010388
우미린센트럴점,경기도 평택시 비전3로 76,37.00515655,127.1085433
고덕자이점,경기도 평택시 고덕면 고덕국제대로 152,37.05125502,127.0444384
사리현빌리지,경기도 고양시 일산동구 공릉천로33번길 27,37.6973752,126.8427901
통진사랑점,경기도 김포시 통진읍 월하로 567,37.71190153,126.618696
남사북리점,경기도 용인시 처인구 남사읍 경기동로 81,37.14573659,127.1371878
장안천천점,경기도 수원시 장안구 덕영대로511번길 27,37.29910682,126.9800195
기흥가나점,경기도 용인시 기흥구 농서로 236,37.22834516,127.0744486
여주천서리점,경기도 여주시 대신면 여양로 2004,37.40499267,127.5449847
정왕센터점,경기도 시흥시 평안상가5길 7-6,37.33664381,126.7471793
사동중앙점,경기도 안산시 상록구 영화3길 11,37.27901596,126.8505793
건영마두점,경기도 고양시 일산동구 경의로 375-119,37.66240399,126.7895422
운양하늘점,경기도 김포시 김포한강1로 309,37.65151329,126.6926924
동탄반석로점,경기도 화성시 동탄중심상가1길 40,37.2014759,127.0711946
송산육일리점,경기도 화성시 송산면 화성로 322,37.20596077,126.727601
안양월드점,경기도 안양시 만안구 박달로542번길 20,37.4015903,126.9127614
태전파크자이점,경기도 광주시 벼루개길42번길 36-1,37.38034976,127.2345404
다산부영점,경기도 남양주시 도농로 70,37.61132604,127.1573108
일동베스트점,경기도 안산시 상록구 성호로 102,37.31372367,126.8625396
가능빌리지점,경기도 의정부시 태평로214번길 19-18,37.75115431,127.0457451
중앙테크노점,경기도 시흥시 은행로 21,37.43444614,126.7933136
마석으뜸점,경기도 남양주시 화도읍 비룡로158번길 9,37.66613896,127.302617
시연천비룡점,경기도 연천군 백학면 청정로53번길 19,37.99054784,126.9194498
정왕문영점,경기도 시흥시 함송로 23,37.36350303,126.7310076
김포무지개점,경기도 김포시 중봉로58번길 20,37.62645856,126.6977873
상록부곡점,경기도 안산시 상록구 부곡로 156,37.33543742,126.8651462
상동석천로점,경기도 부천시 석천로25번길 56,37.49002427,126.7569926
성남연꽃점,경기도 성남시 중원구 여수울로 50,37.41838219,127.1349057
송탄독곡점,경기도 평택시 오좌동길 20-17,37.08614746,127.0649214
소사범안로점,경기도 부천시 범안로95번길 43,37.47384188,126.8113004
삼성로점,경기도 군포시 삼성로 6,37.3363707,126.9345003
분당장안타운점,경기도 성남시 분당구 장안로 67,37.37238519,127.1452343
심곡행운점,경기도 부천시 부천로121번길 24-3,37.49546699,126.7838735
오산두산점,경기도 오산시 경기대로 99-18,37.13387964,127.0695116
삼송후레쉬점,경기도 고양시 덕양구 동송로 23-28,37.64908068,126.8925281
고덕안재홍로점,경기도 평택시 고덕면 안재홍로 71,37.06353138,127.0226951
수원파장점,경기도 수원시 장안구 파장로76번길 11,37.30678362,126.9925951
광주경충점,경기도 광주시 초월읍 경충대로 1260,37.38723248,127.2876482
국민차차차점,경기도 부천시 송내대로 450,37.52327014,126.7619279
장기베니스점,경기도 김포시 김포한강2로23번길 42,37.64138333,126.6795111
의정극동점,경기도 의정부시 추동로 45,37.74497722,127.0585555
팽성청담점,경기도 평택시 팽성읍 송화택지로 132,36.96246014,127.0639769
부천은성로점,경기도 부천시 은성로 15,37.47531607,126.7922949
이천진가점,경기도 이천시 모가면 진상미로 1246,37.16727503,127.4805082
삼송로얄점,경기도 고양시 덕양구 덕수천1로 59,37.64885989,126.8834432
하남서해점,경기도 하남시 덕풍공원로 8,37.54265319,127.1981887
송탄신장로점,경기도 평택시 신장로 85,37.0829504,127.0492932
장항랜드점,경기도 고양시 일산동구 고봉로 20-21,37.66366156,126.7656974
수원프리점,경기도 수원시 팔달구 권선로741번길 27,37.25908886,127.0325299
복정도서관점,경기도 성남시 수정구 복정로118번길 10,37.4633844,127.1279215
판교GB점,경기도 성남시 분당구 판교로256번길 19,37.40126836,127.1031382
당정센터점,경기도 군포시 고산로211번길 32,37.34349017,126.9507418
수지만현마을점,경기도 용인시 수지구 상현로 142,37.31074265,127.0850817
오산대호점,경기도 오산시 대호로 34-1,37.15498261,127.0579726
남양로점,경기도 화성시 남양읍 남양로 387,37.17563747,126.8142659
권선세류로점,경기도 수원시 권선구 세류로 39,37.26343859,127.0061154
화성효행로점,경기도 화성시 효행로 1075-10,37.21648662,127.0438117
포천영북점,경기도 포천시 영북면 호국로 3504,38.04958442,127.2699066
평택군문점,경기도 평택시 원평로28번길 28-5,36.98783172,127.0865484
장기사랑점,경기도 김포시 김포한강2로 12,37.64367688,126.6775442
행신가라뫼점,경기도 고양시 덕양구 중앙로 478,37.61942682,126.8426514
분당지엔느점,경기도 성남시 분당구 정자일로 227,37.37070438,127.1055909
포천양문공단점,경기도 포천시 영중면 양문공단로 78,38.00884582,127.2561903
분당양지점,경기도 성남시 분당구 내정로165번길 35,37.37577161,127.1143941
정왕IC주유소점,경기도 시흥시 서해안로 590,37.37135837,126.738417
수원팰리스점,경기도 수원시 장안구 송정로90번길 16,37.29484279,127.0073491
월롱역점,경기도 파주시 월롱면 다락고개길 121,37.79548073,126.7911663
일산충의점,경기도 고양시 일산서구 일청로 98,37.69189967,126.7752526
향남서부,경기도 화성시 향남읍 발안만세길 159,37.13751673,126.8987799
목현로드점,경기도 광주시 이배재로 323,37.4347144,127.2238511
안산주공점,경기도 안산시 상록구 화랑로 527,37.32183348,126.8476597
남양주인정점,경기도 남양주시 와부읍 수레로9번안길 1,37.58935595,127.2144237
학운산단점,경기도 김포시 양촌읍 황금3로 66,37.61010425,126.616164
감북서하남로,경기도 하남시 서하남로47번길 48,37.5176471,127.1515214
심곡제일점,경기도 부천시 신흥로45번길 56,37.48839107,126.7740149
권선브라운도트,경기도 수원시 권선구 권광로123번길 12,37.25926688,127.0300587
동탄골드점,경기도 화성시 동탄지성로 11,37.20450692,127.0727684
인덕원IT밸리점,경기도 의왕시 이미로 40,37.40074564,126.9913048
야당롯데캐슬점,경기도 파주시 와석순환로 16,37.71202461,126.7576937
시박달사거리점,경기도 안양시 만안구 양화로 112,37.4027599,126.9106098
일산주은점,경기도 고양시 일산서구 산현로92번길 20,37.69085916,126.7713694
안산패션타운점,경기도 안산시 상록구 삼리1길 48,37.30429184,126.8460323
이천대광점,경기도 이천시 애련정로135번길 2,37.28260629,127.4498769
안중안일점,경기도 평택시 안중읍 안중로18번길 61-20,36.9833262,36.9833262
이천중리타운점,경기도 이천시 이섭대천로1177번길 20,37.27573956,127.4459577
수원망포점,경기도 화성시 영통로61번길 10,37.2336059,127.0582349
신곡으뜸점,경기도 의정부시 발곡로 5,37.73138354,127.055517
분당정든점,경기도 성남시 분당구 불정로 195,37.36254296,127.1215375
팔달대우점,경기도 수원시 팔달구 팔달로 128-1,37.27988846,127.0045685
양평문호리점,경기도 양평군 서종면 무내미길 48-1,37.60359252,127.352433
기흥도서관점,경기도 용인시 기흥구 기흥로116번길 7,37.28714469,127.1113062
와부행복점,경기도 남양주시 와부읍 수레로 60-7,37.58942319,127.2177634
삼송행복점,경기도 고양시 덕양구 원흥1로 25,37.65093578,126.8658697
안양노블레스점,경기도 안양시 만안구 안양로 207,37.39186885,126.9266796
삼송스위트점,경기도 고양시 덕양구 신원1로 93,37.65985089,126.8842419
여월성곡점,경기도 부천시 성곡로 28,37.51699538,126.8008766
남양뉴타운점,경기도 화성시 남양읍 역골동로 38,37.20332891,126.8316089
동두천소요점,경기도 동두천시 봉동로 34,37.94670275,127.057364
매탄원룸점,경기도 수원시 영통구 인계로 292,37.26300857,127.0492104
미사12단지점,경기도 하남시 미사강변동로 177,37.57107197,127.1888731
문산대표점,경기도 파주시 문산읍 당동1로 50,37.86379554,126.7739246
소하구름점,경기도 광명시 소하로 10,37.45479785,126.8856904
중앙점내,경기도 안산시 단원구 민속공원로 98,37.31394661,126.8391046
분당아름점,경기도 성남시 분당구 이매로 11,37.39551344,127.1215368
중동본점,경기도 부천시 심중로114번길 35,37.49305817,126.7722537
인창본점,경기도 구리시 동구릉로 149,37.61203059,127.1375945
서재원룸점,경기도 평택시 평남로 1046-13,37.01103708,127.0949343
부곡대로점,경기도 안산시 상록구 부곡로 59,37.32776723,126.8602404
목감한울점,경기도 시흥시 목감우회로 45,37.38205582,126.8611243
춘의지식센터점,경기도 부천시 부천로 170,37.4993865,126.7865015
태평빌리지점,경기도 여주시 가남읍 태평2길 67,37.20681422,127.5433944
풍무푸르지오점,경기도 김포시 유현로 200,37.60959119,126.7325007
부천도서관점,경기도 부천시 삼작로291번길 13,37.52069799,126.7937358
부천참사랑점,경기도 부천시 부천로245번길 16,37.50589857,126.7853895
분당신원점,경기도 성남시 분당구 돌마로90번길 4,37.34971032,127.1117205
성남푸르지오점,경기도 성남시 수정구 산성대로437번길 7,37.4507955,127.1576004
신갈캐슬점,경기도 용인시 기흥구 신갈로58번길 12,37.27206544,127.1071875
용인풍덕점,경기도 용인시 수지구 풍덕천로190번길 22,37.32465901,127.1020185
동탄유보라점,경기도 화성시 동탄순환대로26길 55,37.20862494,127.116385
포천한주점,경기도 포천시 소흘읍 호국로479번길 8,37.81553576,127.1349373
정왕사랑점,경기도 시흥시 정왕천로369번길 52,37.34448531,126.7448482
화도경춘점,경기도 남양주시 화도읍 먹갓로 3,37.65440159,127.2747678
오산고현점,경기도 오산시 남부대로 430-10,37.13427859,127.0813807
서재중앙점,경기도 평택시 서재7길 5,37.00747449,127.0957069
구성효성점,경기도 용인시 기흥구 구성로53번길 12,37.2960628,127.115758
점촌본점,경기도 평택시 점촌로 18,37.06324226,37.06324226
포천송우로점,경기도 포천시 소흘읍 송우로 166,37.83502966,127.1331647
파주디스플레이점,경기도 파주시 월롱면 엘씨디로 316,37.81605227,126.7533175
영광점,경기도 의정부시 경의로86번길 7,37.73257878,127.0450646
시흥신일점,경기도 시흥시 신천로19번길 26-1,37.43137097,126.7904139
안산화정천점,경기도 안산시 단원구 화정천동로 444,37.34388584,126.8187581
여주부영점,경기도 여주시 세종로 388,37.26383528,127.6394588
신곡본점,경기도 의정부시 회룡로 221,37.72686372,127.0581836
이천단월점,경기도 이천시 진상미로 1855,37.21360447,127.4510994
목감한신점,경기도 시흥시 목감중앙로 19,37.37673156,126.8528383
오산복개천점,경기도 오산시 오산로190번길 5,37.14403198,127.0691059
고양점,경기도 고양시 덕양구 원당로33번길 14,37.65686248,126.8315081
광주교헌점,경기도 광주시 오포읍 머루숯길 53,37.36388942,37.36388942
성남한전점,경기도 성남시 수정구 제일로 187,37.44294112,127.1306337
안양서우점,경기도 안양시 동안구 동편로 80,37.4103181,126.9728317
율전제일점,경기도 수원시 장안구 덕영대로439번길 13-4,37.3015442,126.9711658
동탄위브점,경기도 화성시 동탄공원로 21-40,37.20360864,127.0537524
보라제일점,경기도 용인시 기흥구 한보라2로14번길 7-21,37.25341583,127.1123902
의정중앙초교점,경기 의정부시 평화로 596 (의정부동 227-21),37.74316871,127.0443158
운양미래로점,경기도 김포시 모담공원로 17,37.65195267,126.6811711
비산1점,경기도 안양시 동안구 평촌대로 390,37.40535185,126.9501056
의왕주공점,경기도 의왕시 포일세거리로 96,37.40302879,126.9864399
복정미소점,경기도 성남시 수정구 복정로20번길 20-12,37.45470758,127.1304297
포곡골든점,경기도 용인시 처인구 포곡읍 전대로78번길 19-2,37.28690083,127.2171503
군포열린점,경기도 군포시 당동로22번길 21,37.3520722,37.3520722
양주원당점,경기도 양주시 남면 삼육사로 423-8,37.91075827,127.0001204
역북골드점,경기도 용인시 처인구 명지로40번길 35-29,37.22954792,127.1841164
이천창전중앙점,경기도 이천시 향교로 95-13,37.2849242,127.4483827
선부제일점,경기도 안산시 단원구 석수로4길 13,37.34176052,126.8063095
용인고림점,경기도 용인시 처인구 한터로 126,37.24976331,127.2248955
오산푸르지오점,경기도 오산시 남부대로 411-12,37.13583341,127.0820147
화성남양점,경기도 화성시 남양읍 남양시장로24번길 3-3,37.20815821,126.8125293
이천초지점,경기도 이천시 대월면 대평로 192,37.22362927,127.4967091
수원당수점,경기도 수원시 권선구 당진로 17,37.29074723,126.9402981
안산반월역점,경기도 안산시 상록구 건건로 119-9,37.31128589,126.9040343
장호원초교점,경기도 이천시 장호원읍 장터로15번길 21,37.11586435,127.6261634
영통매현점,경기도 수원시 영통구 매탄로 55-1,37.25622693,127.0407169
대곶능동점,경기도 김포시 대곶면 대곶남로 431,37.63032324,126.5941057
포천송우로점,경기도 포천시 소흘읍 송우로 168,37.83494581,127.1327907
덕소역점,경기도 남양주시 와부읍 덕소로 116,37.58398732,127.2119666
운정한울점,경기도 파주시 한울로 84,37.70998055,126.739979
수원권선점,경기도 수원시 권선구 권광로56번길 32,37.25243723,127.030135
송탄대옥점,경기도 평택시 탄현로 381,37.08569351,127.058797
영통벽산점,경기도 수원시 영통구 봉영로1744번길 11,37.26662753,127.0830451
군포휴먼시아점,경기도 군포시 송부로291번길 29,37.32421565,126.944601
신읍아이파크점,경기도 포천시 군내면 호국로 1536-10,37.89070727,127.2026148
사능주공점,경기도 남양주시 진건읍 사릉로 387,37.65508286,127.1806389
팽성두리점,경기도 평택시 팽성읍 안정로 211,36.96961888,127.0633053
오산자이점,경기도 오산시 동부대로 332-10,37.13149707,127.0794335
향남백운,경기도 화성시 향남읍 행정죽전로3길 25,37.12525756,126.9258196
하남장군점,경기도 하남시 초일로 8-2,37.5418699,127.176029
용이본점,경기도 평택시 현신로 14,36.99468702,127.1355718
골든프라자점,경기도 시흥시 배곧전원로 12-9,37.37882495,126.7263573
성남은행타운점,경기도 성남시 중원구 순환로461번길 8,37.46256471,127.1705133
빌리지점,경기도 성남시 중원구 광명로110번길 8,37.43549413,127.141161
영통아이파크점,경기도 수원시 영통구 반달로35번길 30,37.25182425,127.0774643
파주유승점,경기도 파주시 탄현면 하늘소로 16,37.77381989,126.6988731
상동자이점,경기도 부천시 조마루로 48,37.50078268,126.7493161
호평로얄점,경기도 남양주시 호평로 93,37.65662948,127.2492119
양평창대리점,경기도 양평군 양평읍 양근로 500,37.47412275,127.5173298
의정그린빌점,경기도 의정부시 부용로 49,37.74987499,127.063736
수지만현마을점,경기도 용인시 수지구 상현로 144,37.30984813,127.0847654
평촌신원점,경기도 안양시 동안구 전파로 88,37.38938071,126.9425476
의정장암역점,경기도 의정부시 동일로 124,37.70009488,127.0548822
향남상신,경기도 화성시 향남읍 상신하길로135번길 5-1,37.1057377,126.8990827
문형삼거리점,경기도 광주시 오포읍 오포로 543,37.34695574,127.2112677
구장사거리점,경기도 화성시 팔탄면 푸른들판로 712-7,37.17192718,126.8927181
김포걸포동점,경기도 김포시 걸포1로 39,37.63644831,126.7065749
수원식품점,경기도 수원시 영통구 영통로241번길 12-6,37.2492228,127.0572177
풍무길훈점,경기도 김포시 장릉로 37,37.61237838,126.7210932
발안원룸점,경기도 화성시 향남읍 발안서로42번길 2,37.13167668,126.9045143
지영로점,경기도 고양시 일산동구 지영로 58,37.70667331,126.8236385
포천미리내점,경기도 포천시 소흘읍 소흘로 114,37.81185423,127.142828
보정누리점,경기도 용인시 기흥구 죽전로 20,37.32002732,127.110355
의정호국점,경기도 의정부시 태평로108번길 19,37.74217412,127.0528157
구리담터점,경기도 구리시 담터길 29-5,37.64047674,127.1157144
여주현대점,경기도 여주시 세종로 61,37.2917168,127.6368106
별내불암산점,경기도 남양주시 불암산로 58,37.64927121,127.1073829
용인버드실점,경기도 용인시 처인구 한터로 18,37.25425088,127.2139712
안양9동점,경기도 안양시 만안구 병목안로 174,37.38857122,126.9089857
하안타운점,경기도 광명시 안재로 18,37.45977213,126.8714987
부천세종병원점,경기도 부천시 호현로489번길 20,37.48082929,126.7921836
의정희망점,경기도 의정부시 가능로 152,37.74691864,127.0478646
평택동창리점,경기도 평택시 팽성읍 팽성대교길 111-2,36.97195004,127.040388
수원일월점,경기도 수원시 권선구 일월천로15번길 5-2,37.28376022,126.9725921
신한대점,경기도 의정부시 망월로13번길 4,37.70802788,127.0464231
곤지암리조트점,경기도 광주시 도척면 도척윗로 278,37.33749929,127.2963564
병점희망점,경기도 화성시 떡전골로 109,37.20801911,127.0330583
화성발산점,경기도 화성시 정남면 발산1길 3,37.1526023,126.9815404
양평그린점,경기도 양평군 양평읍 중앙로 18,37.49665705,127.4911393
내각후레쉬점,경기도 남양주시 진접읍 내각1로73번안길 2,37.70539233,127.1645938
구래삼성점,경기도 김포시 김포한강4로420번길 80,37.65072602,126.6335643
안양동원점,경기도 안양시 만안구 양화로 147,37.40568555,126.9083536
광명나래점,경기도 광명시 금하로527번길 9-1,37.45188089,126.8897799
식사도서관점,경기도 고양시 일산동구 위시티2로 43-27,37.6762267,126.814495
소사괴안점,경기도 부천시 안곡로205번길 53,37.48530858,126.8163314
르노삼성연구소점,경기도 용인시 기흥구 탑실로 61,37.24050247,127.1135109
시용인신갈점,경기도 용인시 기흥구 신구로53번길 3,37.27673081,127.1092749
