Branch,Location,Latitude,Longitude
부산강서명지점,부산광역시 강서구 명지새동네길1번길 2,35.1086938,128.9310185
서면점,부산광역시 부산진구 서면로 33,35.15369024,129.0575608
송도점,부산광역시 서구 송도해변로 133,35.07773329,129.0213488
부산대제일점,부산광역시 금정구 부산대학로38번길 14,35.23189112,129.0874563
부산용호2호점,부산광역시 남구 용호로178번길 3,35.11634738,129.1107553
남천3호점,부산광역시 수영구 광남로48번길 20,35.14622759,129.1128183
부산반송그린점,부산광역시 해운대구 신반송로 102,35.23027926,129.1629162
부산용호제일점,부산광역시 남구 용호로 124,35.12135705,129.1119643
해운대비치점,부산광역시 해운대구 구남로 42-1,35.1603386,129.1613381
부산자갈치점B,부산광역시 중구 자갈치로37번길 6-1,35.09751321,129.0284502
부산정관조은타워점,부산광역시 기장군 정관읍 정관로 3,35.35790001,129.1414944
부산연산웰니스점,부산광역시 연제구 고분로13번길 73,35.18849871,129.0864386
송도해변점,부산광역시 서구 충무대로34번길 47,35.07669593,129.0171472
중앙센터점,부산광역시 중구 충장대로9번길 55,35.11020808,129.0386577
부산대연미소점,부산광역시 남구 수영로250번길 32,35.13419123,129.0953178
부산좌동중앙점,부산광역시 해운대구 세실로69번길 11,35.17123719,129.1761919
부산강서화전점,부산광역시 강서구 화전산단4로6번길 6,35.11085166,128.8786189
해운대해변점,부산광역시 해운대구 해운대로570번길 53,35.16016322,129.1598867
부산온천중앙점,부산광역시 동래구 차밭골로21번길 41,35.21465773,35.21465773
우암열린점,부산광역시 남구 우암로154번길 58,35.12573072,129.0818741
부산광남로점,부산광역시 수영구 수영로510번길 58,35.15048491,129.1144785
경남정보대점,부산광역시 사상구 가야대로366번길 56,35.14857428,129.012784
부산대저공단점,부산광역시 강서구 공항로 1373,35.21994812,128.9908116
부산범천골드점,부산광역시 부산진구 자유평화로37번길 51,35.14359457,129.0627196
금사예원점,부산광역시 금정구 개좌로 141-9,35.22510623,129.1159044
부산금강식물원점,부산광역시 동래구 금강로131번길 1,35.22043511,129.0803504
온천2호점,부산광역시 동래구 충렬대로107번길 19,35.20770416,129.0726258
부산구서롯데점,부산광역시 금정구 금강로 503,35.25271228,129.0865256
녹산한마음병원점,부산광역시 강서구 녹산산단321로 24-4,35.09077933,128.8530587
부산사상원룸점,부산광역시 사상구 사상로233번길 19,35.16564059,128.9817771
수영구청점,부산광역시 수영구 남천동로108번길 5,35.1457772,129.1118025
부산남포역사점,부산광역시 중구 구덕로 12-1,35.09799629,129.0341815
부산당감삼익점,부산광역시 부산진구 당감로 18-1,35.16338921,129.0398603
부산서면대로점,부산광역시 부산진구 가야대로 763-1,35.15792972,129.055157
부산광안골드점,부산광역시 수영구 수영로 648,35.1633714,129.1148409
부산부용점,부산광역시 서구 구덕로232번길 3,35.10535915,129.0205415
부산경성삼정점,부산광역시 남구 수영로 319,35.13790106,129.1007223
부산반여보람점,부산광역시 해운대구 선수촌로 202-13,35.20791269,129.1270689
부산주례중앙점,부산광역시 사상구 가야대로344번길 67,35.14786255,129.0105802
남천2호점,부산광역시 수영구 수미로 50,35.17331914,129.1162062
부산해운대엘시티점,부산광역시 해운대구 해운대로 794,35.16881666,129.1757619
부산범천태명점,부산광역시 부산진구 황령대로7번길 30,35.14915933,129.0603007
센텀갤러리움점,부산광역시 해운대구 센텀1로 9,35.1678639,129.1309837
부산가야원룸점,부산광역시 부산진구 가야대로548번가길 4,35.14929911,129.0326353
부산대연중앙점,부산광역시 남구 수영로220번길 21,35.13398914,129.0907395
부평제일점,부산광역시 중구 부평2길 3,35.09961372,129.026294
부산정관캐슬점,부산광역시 기장군 정관읍 정관3로 52,35.32867348,129.1702521
동주점,부산광역시 사하구 사리로 48,35.10403428,128.9988729
부산전포원룸점,부산광역시 부산진구 전포대로255번길 29,35.15921581,129.0637349
부산서면롯데점,부산광역시 부산진구 부전로65번길 3,35.15579815,129.0546137
부산감만석포점,부산광역시 남구 양지골로 340,35.12181564,129.0862436
부산새동래점,부산광역시 동래구 충렬대로218번길 22,35.20077169,129.0828464
부산대연역점,부산광역시 남구 유엔평화로 4,35.13467493,129.0916594
SK내트럭부산점,부산광역시 남구 신선로 168,35.11036207,129.0818574
부산신호사랑점,부산광역시 강서구 신호산단1로140번길 5,35.08116393,128.8791777
부산안락명안점,부산광역시 동래구 명안로10번길 3,35.19755676,129.1044695
부산만덕동문점,부산광역시 북구 덕천로276번길 32-66,35.20892988,129.0332579
송정점,부산광역시 해운대구 송정중앙로 51,35.18152835,129.2057854
부산사직원룸점,부산광역시 동래구 아시아드대로161번길 28,35.19810065,129.0638573
부산굿모닝힐점,부산광역시 북구 덕천로276번길 32-4,35.20826622,129.0339194
부산우암이편한점,부산광역시 남구 유엔로 34,35.12689337,129.0808801
해운베르빌점,부산광역시 해운대구 해운대해변로 348,35.16280498,129.1682553
부산반여왕자점,부산광역시 해운대구 선수촌로21번길 21,35.19605987,129.1173078
수영2호점,부산광역시 수영구 수영로 702,35.16754898,129.1163469
수영원룸점,부산광역시 수영구 망미번영로52번길 87-3,35.16949707,129.1132889
부산용호일동점,부산광역시 남구 용호로110번길 43,35.12243156,129.1097957
부산기장마티에점,부산광역시 기장군 기장읍 동부산관광8로 11,35.18979331,129.2148671
구덕운동장점,부산광역시 서구 구덕로 341,35.11402742,129.0155595
부산가톨릭대학,부산광역시 금정구 오륜대로 57,35.24469618,129.0968348
부산양정이즈점,부산광역시 부산진구 양지로14번길 14,35.16886544,129.0693383
부산청룡경동점,부산광역시 금정구 청룡예전로 78,35.27959676,129.0879178
부산장전블루밍점,부산광역시 금정구 소정로 35,35.22847144,129.0797869
해운대장산점,부산광역시 해운대구 세실로69번길 19,35.17209754,129.1757762
부산기장고리원전점,부산광역시 기장군 장안읍 고무로 328,35.33020177,129.2817477
거제계룡점,부산광역시 서구 중앙공원로27번길 17,35.11587003,129.0247535
반여보람점,부산광역시 해운대구 재반로270번길 33,35.20127187,129.1335771
부산토성점,부산광역시 서구 구덕로 134,35.09727123,129.0218885
부산범일점,부산광역시 동구 범상로 7,35.14101105,129.0488703
부산해운대미포점,부산광역시 해운대구 달맞이길62번길 23,35.15928628,129.170466
부산정관해오름점,부산광역시 기장군 정관읍 구연4로 8,35.32090964,129.1798511
부산모라벽산점,부산광역시 사상구 백양대로 954,35.19129847,128.9923303
부산다대점,부산광역시 사하구 다송로72번길 80,35.06005535,128.9799852
부산문현대동점,부산광역시 남구 전포대로 64,35.14250973,129.0671828
부산충렬사점,부산광역시 동래구 반송로 202,35.19889284,129.0973058
부산구포단양점,부산광역시 북구 모분재로 50,35.20301338,129.0058269
부산개금주공2단지점,부산광역시 부산진구 백양관문로 25-29,35.16083681,129.0294772
괴정3호점,부산광역시 사하구 사리로 48,35.10403428,128.9988729
괴정4호점,부산광역시 사하구 장평로 438,35.09715963,128.9863845
장림동원점,부산광역시 사하구 하신중앙로 2,35.07732976,128.9638207
부산연산중앙점,부산광역시 연제구 월드컵대로165번길 41,35.18545277,129.0772741
부산가락타운점,부산광역시 사하구 하신번영로 201,35.09887128,128.9584147
부산구서중앙점,부산광역시 금정구 금정로 207,35.24296231,129.0892082
부산외대캠퍼스1호점,부산광역시 동구 고관로 173,35.13258825,129.0513846
부산국제여객터미널1호점,부산광역시 동구 충장대로 206,35.11995513,129.049829
부산해운사랑점,부산광역시 해운대구 우동1로 5-1,35.16245654,129.1557154
부산사상새벽로점,부산광역시 사상구 새벽로 168,35.15615232,128.9835728
침례병원점,부산광역시 금정구 금단로 200,35.26727775,129.0936111
부산해운대백병원점,부산광역시 해운대구 해운대로 875,35.17327898,129.1821932
대연CGV점,부산광역시 남구 수영로 305,35.13735511,129.0992995
부산해운대점,부산광역시 해운대구 구남로 47,35.1602146,129.1620498
서면4호점,부산광역시 부산진구 서면로 44-1,35.15474044,129.0580682
학장점,부산광역시 사상구 학감대로 109-14,35.14053096,128.9880157
부산중동어울림점,부산광역시 해운대구 좌동순환로 480,35.16409411,129.1701068
부산재송동부점,부산광역시 해운대구 해운대로161번길 7,35.18348149,129.1226253
경성용연점,부산광역시 남구 수영로298번길 14,35.1361584,129.0990639
부산정관조은시티점,부산광역시 기장군 정관읍 정관로 574,35.32091593,129.1764309
부산광안예원점,부산광역시 수영구 장대골로7번길 20,35.15802402,129.1121338
부산안락봉생병원점,부산광역시 동래구 안연로109번길 24,35.1971952,129.096646
부산범일한양점,부산광역시 동구 조방로26번길 17,35.14085861,129.0642861
부산망미가람점,부산광역시 수영구 망미로22번길 42,35.1710477,129.1024203
부산동대신2호점,부산광역시 서구 구덕로296번길 22,35.11078158,129.018876
부산대창점,부산광역시 중구 중앙대로 129,35.10925917,129.0368358
부산모라베스트점,부산광역시 사상구 사상로525번길 28,35.19210612,128.9872562
부산광안오션점,부산광역시 수영구 광안해변로 175,35.15029415,129.1156173
개금금강점,부산광역시 부산진구 가야대로454번길 42,35.15120403,129.0216514
춘해병원점,부산광역시 부산진구 중앙대로 605,35.14696748,129.0584066
부산미남제일점,부산광역시 동래구 아시아드대로220번길 30,35.20290176,129.0683237
부산낙민중앙점,부산광역시 동래구 안남로31번길 6,35.19450636,129.0959511
국제빌딩점,부산광역시 연제구 중앙대로 1217,35.19602599,129.0793024
연산파크시티점,부산광역시 연제구 안연로23번길 77,35.19033028,129.0962463
부산남산팔송점,부산광역시 금정구 팔송로7번길 19,35.27136823,129.0918085
사하당리중앙점,부산광역시 사하구 제석로 82,35.10735448,128.9763718
해운대센텀점,부산광역시 해운대구 센텀동로 51,35.17357701,129.1301956
학장2호점,부산광역시 사상구 대동로 84,35.13622998,128.9770566
부산좌동삼성점,부산광역시 해운대구 세실로 174,35.17908587,129.1773589
남산시장점,부산광역시 금정구 팔송로 36,35.27222582,129.0886656
부산일보점,부산광역시 동구 중앙대로 365,35.128552,129.0480302
부산정관타운점,부산광역시 기장군 정관읍 구연1로 10,35.32081421,129.18316
부산서대신원룸점,부산광역시 서구 대영로27번길 61,35.11221566,129.013398
부산남산대박점,부산광역시 금정구 범어천로31번길 16,35.26821273,129.0898868
연산목화점,부산광역시 연제구 중앙대로 1118,35.18746914,129.0816268
부산부경대까페점,부산광역시 남구 용소로 60,35.13201171,129.101082
부산을숙도공원점,부산광역시 사하구 낙동남로1233번길 1,35.10826906,128.9474457
부산문현중앙점,부산광역시 남구 문현로23번길 49,35.14376971,129.0725106
부산주례원룸점,부산광역시 사상구 가야대로378번길 15,35.15042961,129.0140471
부산중구동진점,부산광역시 중구 보수대로124번길 66,35.10425765,129.023961
부산남천역점,부산광역시 수영구 수영로408번길 19,35.14206774,129.1093708
부산안락행복점,부산광역시 동래구 충렬대로447번길 12,35.1966112,129.1073337
부산기장대로점,부산광역시 기장군 기장읍 기장대로 470,35.23719897,129.2190783
중구스카이점,부산광역시 중구 보수대로44번길 14,35.10158095,35.10158095
안락점,부산광역시 동래구 삼어로 2,35.19879874,129.1125575
새법원점,부산광역시 연제구 법원로32번길 10,35.19134449,129.0746068
부산카톨릭베리타스점,부산광역시 금정구 오륜대로 74,35.24494746,129.0999366
부산구포가람점,부산광역시 북구 낙동북로663번길 61,35.20407666,128.9993386
부산고신대원룸점,부산광역시 서구 성산길 31,35.08020209,129.0139559
부산지사원룸점,부산광역시 강서구 과학산단로334번가길 26,35.14989783,128.8344141
범일한양점,부산광역시 동구 조방로16번길 17,35.13999405,129.0641981
전포석산점,부산광역시 부산진구 전포대로122번길 13,35.14797727,129.0676273
부산구명원룸점,부산광역시 북구 낙동북로681번길 46,35.20219891,129.0007762
범천동일점,부산광역시 남구 문현금융로 30,35.14551389,129.0658722
부산수영더폼점,부산광역시 수영구 무학로9번길 141,35.16751101,129.1175319
부산대저중앙점,부산광역시 강서구 대저중앙로 344,35.2208574,128.9843199
기장원룸점,부산광역시 기장군 기장읍 차성동로 166,35.2526293,129.2173863
부산아이리스점,부산광역시 부산진구 가야대로468번길 11,35.15254944,129.0235121
부산서구유스점,부산광역시 서구 원양로 35,35.05958521,129.0098311
부산롯데점,부산광역시 부산진구 가야대로 772,35.15680985,35.15680985
부산강서범방점,부산광역시 강서구 가락대로961번길 94,35.15963694,128.8859265
망미산호점,부산광역시 수영구 연수로263번길 13,35.17384116,129.0995379
부산만세거리점,부산광역시 동래구 명륜로112번길 41,35.20339179,129.0851873
부산대연사랑점,부산광역시 남구 유엔로201번길 57,35.13286836,129.0980651
부산UN평화점,부산광역시 남구 용소로64번길 85,35.1316382,129.0965454
서부산유통단지점,부산광역시 강서구 유통단지1로49번길 6,35.1671505,128.9552743
부산전포사랑점,부산광역시 부산진구 서전로47번길 47,35.15994696,129.0646445
부산동래동원점,부산광역시 동래구 여고북로 125,35.20140075,129.071917
부산부민병원점,부산광역시 해운대구 해운대로 584,35.16147406,129.1557124
부산성우오스타점,부산광역시 금정구 온천장로 137,35.22283621,129.0850068
부산장림하신점,부산광역시 사하구 을숙도대로 570,35.08517435,128.9680582
부산서면앙쥬빌점,부산광역시 부산진구 전포대로 282,35.16180317,129.0657444
부산범천풍림점,부산광역시 부산진구 중앙번영로20번길 7,35.14455054,129.0616346
기장일광해수욕장점,부산광역시 기장군 일광면 기장해안로 1295,35.25937223,129.2333337
부산신암점,부산광역시 부산진구 신암로 145,35.15314105,129.0491905
부산남산럭키점,부산광역시 금정구 학산로13번길 35,35.265017,129.0894264
부산하단원룸점,부산광역시 사하구 동매로23번길 9,35.10421524,128.9608684
부산신항휴게소점,부산광역시 강서구 신항남로 330,35.08187158,128.8338634
부산하단미래점,부산광역시 사하구 낙동남로 1388,35.10588893,128.9635097
부산명지포스코점,부산광역시 강서구 명지국제7로 37,35.09756523,128.9055122
부산감천문화마을점,부산광역시 사하구 옥천로 16,35.08896954,129.0056859
부산폴리텍대학점,부산광역시 북구 만덕대로155번길 29,35.21465347,129.0216
부산기장별빛점,부산광역시 기장군 기장읍 차성남로89번길 7,35.24168398,129.2176622
부산기장대청점,부산광역시 기장군 기장읍 차성서로 22,35.23548404,129.2112305
부산기장캐스빌점,부산광역시 기장군 기장읍 대청로21번길 3,35.23813145,129.2123905
고려학원점,부산광역시 부산진구 전포대로199번길 19,35.15426436,129.0640546
부산구포화목점,부산광역시 북구 시랑로62번길 17,35.19977172,129.0043374
부산정관에버빌점,부산광역시 기장군 정관읍 정관2로 39-14,35.33439511,129.1667267
부산영도동삼로점,부산광역시 영도구 동삼로 66,35.079347,129.0704497
해운대마리안느호텔점,부산광역시 해운대구 해운대해변로 310,35.16151426,129.1646915
장전스타점,부산광역시 금정구 금강로347번길 1,35.2388874,129.0862752
부산연제연산점,부산광역시 연제구 월드컵대로145번길 74,35.18352984,129.0786212
송정그린웨이점,부산광역시 해운대구 해운대로 1140-17,35.18663439,129.2035442
부산강서구랑점,부산광역시 강서구 미음산단로8번길 6,35.12776535,128.8554959
부산양정원룸점,부산광역시 부산진구 중앙대로979번길 45,35.17780073,129.0721121
부산아델하임점,부산광역시 사하구 사하로 182,35.09796915,128.994324
부산기장어반리움,부산광역시 기장군 기장읍 차성남로 69,35.24133304,129.2158111
부산거제경남점,부산광역시 연제구 월드컵대로187번길 41,35.18605958,129.0749215
부산기장조은점,부산광역시 기장군 기장읍 차성남로 5,35.2415748,129.2087721
부산해운대해피점,부산광역시 해운대구 해운대로 602,35.16222536,129.1572707
부산대저평강점,부산광역시 강서구 평강로 316,35.21288783,128.9471879
부산기장소망점,부산광역시 기장군 기장읍 차성로390번길 15,35.25249969,129.2159339
부산화명벽산점,부산광역시 북구 양달로9번길 21,35.24246005,129.0142356
부산해운대한일점,부산광역시 해운대구 대천로 56,35.17260056,129.1713045
부산용당점,부산광역시 남구 유엔평화로 150,35.12305965,129.0972423
동부산대점,부산광역시 해운대구 운봉길 57,35.23223286,129.1480584
부산덕포동점,부산광역시 사상구 사상로293번길 20,35.171364,128.9818349
해운대그랜드점,부산광역시 해운대구 해운대해변로221번길 16-1,35.15989843,129.1564695
강변뜨란채점,부산광역시 동래구 안남로 79,35.19555592,129.1024658
부산롯데캐슬점,부산광역시 부산진구 전포대로275번길 20,35.16205337,129.0649683
부산화명삼한점,부산광역시 북구 화명대로 119,35.23517475,129.0187811
부경대학교용당점,부산광역시 남구 신선로 365,35.11601786,129.0894577
부산송도바다점,부산광역시 서구 암남공원로 39,35.07253902,129.0162404
부산삼한골든뷰점,부산광역시 금정구 중앙대로 1967,35.26011739,129.0909982
부산구포삼정점,부산광역시 북구 백양대로1016번길 22,35.19604653,128.995902
부산장림지큐빌점,부산광역시 사하구 두송로26번길 60,35.07671114,128.980272
부산차이나타운점,부산광역시 동구 초량중로 24,35.11417841,129.0371175
부산범일동산점,부산광역시 동구 중앙대로 501,35.1379456,129.0562159
부산남산행복점,부산광역시 금정구 금단로 176,35.26457761,129.0941682
부산연제원룸점,부산광역시 연제구 월드컵대로153번길 92,35.18323032,129.0768276
온천프리존점,부산광역시 동래구 온천장로 14,35.21346805,129.0792696
문현강진점,부산광역시 남구 전포대로 90,35.14478156,129.0671466
부산하단점,부산광역시 사하구 낙동대로519번길 7,35.11018487,128.9651179
부산지점,부산광역시 수영구 광안해변로344번길 9-3,35.15538144,129.1307999
부산가야점,부산광역시 부산진구 엄광로 186,35.14792854,129.0348019
주공점,부산광역시 해운대구 좌동순환로 118,35.17572516,129.1707016
안락롯데점,부산광역시 동래구 충렬대로 368,35.19737905,129.0982408
서면5호점,부산광역시 부산진구 부전로66번길 34,35.155754,129.0565777
부산구서협성점,부산광역시 금정구 안뜰로 10,35.2547491,129.0925636
부산대청점,부산광역시 중구 대청로 90-1,35.10277478,129.0298216
서면6호점,부산광역시 부산진구 서전로 10,35.15757402,129.060794
해운오렌지점,부산광역시 해운대구 마린시티3로 23,35.15666281,129.1469518
부산연산한양점,부산광역시 연제구 온천천남로92번길 30,35.18981138,129.1007851
온병원점,부산광역시 부산진구 가야대로 719,35.15736194,129.0499582
부산연산원룸점,부산광역시 연제구 중앙대로1066번길 32,35.18228316,129.0809542
부산진시장점,부산광역시 동구 진시장로20번길 46,35.13531979,129.0575645
부산범천이샘점,부산광역시 부산진구 황령대로 12,35.14761926,129.0611806
서면CGV점,부산광역시 부산진구 동천로 4,35.14945138,129.0640029
부산부곡한신점,부산광역시 금정구 중앙대로1685번길 23,35.23473087,129.0904165
부산양정프라자점,부산광역시 부산진구 동평로 350,35.17452584,129.0632317
부산학장공단점,부산광역시 사상구 학감대로 161,35.14548818,128.9880756
부산화전원룸점,부산광역시 강서구 화전산단5로118번길 41,35.10923462,128.8828248
수영3호점,부산광역시 수영구 수영로725번길 72,35.16850704,129.1150866
장전소망점,부산광역시 금정구 장전온천천로 127,35.23627211,129.0884266
부산온천블루점,부산광역시 동래구 여고북로23번길 46,35.20292202,129.0680713
부산중앙대로점,부산광역시 중구 중앙대로 147,35.11077759,129.0374144
부산연산연일점,부산광역시 연제구 고분로13번길 18,35.18646856,129.0846549
부산초읍선경점,부산광역시 부산진구 새싹로 221,35.17723385,129.0472714
부산양정엘리시아점,부산광역시 부산진구 중앙대로 964,35.17543555,129.0735301
부산장전낙원점,부산광역시 금정구 부산대학로64번안길 3,35.23575877,129.0853656
부산동아대원룸점,부산광역시 사하구 승학로17번길 73,35.10943338,128.9677966
부산기장원룸점,부산광역시 기장군 기장읍 차성동로 168-24,35.25259021,129.2185834
부산사상구청점,부산광역시 사상구 학감대로 241,35.15259537,128.9897749
부산광안바다점,부산광역시 수영구 민락수변로 9-1,35.15499218,129.1241983
부산기장캐스빌점,부산광역시 기장군 기장읍 대청로 19,35.23798693,129.2124213
부산대신대영로점,부산광역시 서구 대영로 42-1,35.10932618,129.0161484
부산정관용수리점,부산광역시 기장군 정관읍 가동길 20,35.32716148,129.1802169
부산역점,부산광역시 동구 대영로243번길 69,35.11518308,129.0387428
부산외대원룸점,부산광역시 금정구 두실로 55-2,35.26232472,129.0861044
부산신평센타점,부산광역시 사하구 신산북로 61,35.09114511,128.9710131
부산덕천로타리점,부산광역시 북구 백양대로 1176,35.20730931,129.005188
부산온천신화점,부산광역시 동래구 금강로62번길 40,35.21394808,129.0790124
부산화명시네마점,부산광역시 북구 화명대로 16,35.23478128,129.0098004
부산광안동방점,부산광역시 수영구 수영로606번길 82,35.15901506,129.1180633
부산수영세무서점,부산광역시 수영구 광남로 12,35.14403641,129.1099572
부산모라역점,부산광역시 사상구 모라로 67,35.18852674,128.9884646
부산기장연화리점,부산광역시 기장군 기장읍 연화1길 143-2,35.21725189,129.2262049
부산성지로점,부산광역시 부산진구 성지로137번길 92,35.17849438,129.0526341
부산코모도점,부산광역시 중구 대청로 121-1,35.10322644,129.0328875
부산용호힐탑점,부산광역시 남구 분포로 115,35.13221162,129.1127482
부산정관일번가점,부산광역시 기장군 정관읍 방곡5로 2-13,35.3226287,129.185639
부산롯데피렌체점,부산광역시 연제구 월드컵대로252번길 5,35.19126254,129.0696097
부산삼락공단점,부산광역시 사상구 낙동대로1330번길 46,35.17818653,128.9786233
부산삼호중앙점,부산광역시 해운대구 해운대로349번길 24,35.17494768,129.1397544
부산전자공고점,부산광역시 동래구 금강로59번길 38,35.21553052,129.0754087
부산덕천원룸점,부산광역시 북구 만덕대로40번길 45,35.20911437,129.0103282
부산삼락공단점,부산광역시 사상구 낙동대로 1330,35.17897107,128.9763491
부산동광점,부산광역시 중구 동광길99번길 6,35.10729111,129.0350777
부산연제로점,부산광역시 연제구 연제로8번길 54,35.17795456,35.17795456
부산사상공단점,부산광역시 사상구 새벽로 199,35.15901716,128.9837719
부산연산연미점,부산광역시 연제구 연미로13번길 20,35.17258153,129.0933075
부산연산터널점,부산광역시 연제구 고분로56번길 1,35.18549547,129.0886275
경남여고맘보점,부산광역시 동구 수정중로 30,35.13078718,129.0449318
부산서면문화로점,부산광역시 부산진구 서면문화로 20,35.15927546,129.0569196
부산재송원룸점,부산광역시 해운대구 해운대로123번길 21,35.18624436,129.1221253
부산연지자이점,부산광역시 부산진구 동평로183번길 67,35.17049019,129.0484583
부산연산연동점,부산광역시 연제구 연동로13번길 2,35.18774219,129.0933788
부산민락이편한점,부산광역시 수영구 민락수변로7번길 60,35.15557351,129.1266319
부산엄궁대박점,부산광역시 사상구 낙동대로 720,35.12564605,128.9682516
부산좌동프리머스점,부산광역시 해운대구 해운대로 802,35.16917722,129.1766891
부산서면센트럴점,부산광역시 부산진구 중앙대로666번길 50,35.1518633,129.0603248
하단길은점,부산광역시 사하구 낙동남로1405번길 9,35.10710034,128.9653338
부산범일삼정점,부산광역시 동구 범일로90번길 17,35.13829548,129.0615644
부산수영한울점,부산광역시 수영구 광일로56번길 5,35.16306672,129.1077679
부산괴정스마트점,부산광역시 사하구 낙동대로 137,35.10299059,129.0008235
부산덕포공단점,부산광역시 사상구 삼덕로 28,35.17402004,128.9799896
영산대정문점,부산광역시 해운대구 반송순환로 141,35.22339868,129.152877
서면일번가점,부산광역시 부산진구 신천대로62번길 77,35.15424282,129.0582813
부산시민공원로점,부산광역시 부산진구 시민공원로19번길 24,35.16436777,129.0518045
부산연산점,부산광역시 연제구 월드컵대로 109,35.18400038,129.0824592
부산동래점,부산광역시 동래구 명륜로129번길 49,35.20520894,129.0795447
해운대제니스점,부산광역시 해운대구 마린시티2로 33,35.1572236,129.1448413
수영광안점,부산광역시 수영구 무학로21번길 72,35.16482086,129.1169902
부산토성점,부산광역시 서구 구덕로 192-1,35.10181169,129.0200586
부산연산명성점,부산광역시 연제구 중앙대로990번길 24,35.17676497,129.0760836
부산서대신점,부산광역시 서구 대영로45번길 50,35.11168475,129.0154427
부산재송제일점,부산광역시 해운대구 재반로 123,35.18953919,129.1264637
부산부곡중앙점,부산광역시 금정구 오륜대로 20,35.24147894,129.0947698
온천장점,부산광역시 동래구 금강공원로 43,35.21866381,129.0798547
우동롯데점,부산광역시 해운대구 해운대로483번길 8-1,35.16320081,129.1466374
부산대연점,부산광역시 남구 못골로 95-1,35.13579928,129.0929253
부산장림스마트점,부산광역시 사하구 장림번영로104번길 10,35.08015874,128.9763986
부산안락역점,부산광역시 동래구 안연로110번길 32,35.19649207,129.0996344
부산파크푸르지오점,부산광역시 남구 석포로86번길 86,35.1264647,129.0904965
부산개금대상점,부산광역시 부산진구 가야대로498번길 14,35.1524821,129.0261453
부산대연카페점,부산광역시 남구 진남로 36,35.13824748,129.091323
부산문현현대점,부산광역시 남구 진남로 202-1,35.14409924,129.0770252
사직야구장본점,부산광역시 동래구 종합운동장로 35-4,35.19442154,129.0599112
부산전포화신점,부산광역시 부산진구 진남로 356,35.15679692,129.0712547
부산낙동남로점,부산광역시 사하구 낙동남로1367번길 23,35.10759313,128.9611713
부산기장온천점,부산광역시 기장군 기장읍 차성동로142번길 14,35.25032703,129.2186595
부산하단남영점,부산광역시 사하구 낙동대로575번길 10,35.11420728,128.9614465
부산영도남항점,부산광역시 영도구 절영로50번길 8,35.09029197,129.0380871
부산미음BNK점,부산광역시 강서구 미음산단로127번길 22,35.13720234,128.8581624
부산동백두산,부산광역시 해운대구 해운대로 540,35.1597458,35.1597458
부산아르미나점,부산광역시 동구 홍곡남로 52,35.12583975,129.0353343
서동2호점,부산광역시 금정구 서동로176번길 18,35.21385652,129.1051515
부산기장학리점,부산광역시 기장군 일광면 학리등대로 86-1,35.25786489,129.2467285
부산송정해변점,부산광역시 해운대구 송정중앙로 33,35.18246291,129.2042622
부산반송블루점,부산광역시 해운대구 반송로828번길 2,35.22731363,129.1468686
부산서면파크점,부산광역시 부산진구 서면문화로 59,35.16235035,129.0547202
롯데동래점,부산광역시 동래구 동래로 17,35.2130561,129.0779572
부산구포하이츠점,부산광역시 북구 모분재로23번길 76,35.20636633,129.0101844
강동점,부산광역시 사하구 다대로 143,35.08966497,128.9779704
부산토성원룸점,부산광역시 서구 까치고개로245번길 17-19,35.10035948,129.0223109
부산연산시티점,부산광역시 연제구 거제천로182번길 55,35.18739831,35.18739831
장고개점,부산광역시 남구 장고개로 105,35.13465749,129.0693516
부산밀리오레점,부산광역시 부산진구 서전로 25,35.15798176,35.15798176
부산대신스타점,부산광역시 서구 구덕로322번길 9,35.11276274,129.016959
부산남천시장점,부산광역시 수영구 황령대로489번길 27,35.13942572,129.10849
부산광안원룸점,부산광역시 수영구 무학로10번길 35,35.1602451,129.1146775
하단점,부산광역시 강서구 명지오션시티11로 84,35.08400168,35.08400168
파레드시즈점,부산광역시 해운대구 해운대해변로298번길 24,35.16021589,129.1666048
부산대제2도서관점,부산광역시 금정구 산성로 872,35.23642502,129.0733224
부산대연동원점,부산광역시 남구 못골로41번길 20,35.13680655,35.13680655
부산부전점,부산광역시 부산진구 동천로 129,35.16026645,129.0621351
시티프라자점,부산광역시 남구 수영로 26,35.13623359,129.0705244
춘해병원점,부산광역시 부산진구 중앙대로 605,35.14696748,129.0584066
부산성모병원점,부산광역시 남구 용호로232번길 25-14,35.11052945,129.1092174
수영연수로점,부산광역시 수영구 망미번영로24번길 11,35.16942607,129.1092373
부산정관해모로점,부산광역시 기장군 정관읍 정관로 548,35.32245602,129.1728459
부산하이뷰파크점,부산광역시 부산진구 중앙대로 829,35.16586833,129.0647326
부산달맞이고개점,부산광역시 해운대구 달맞이길117번나길 155,35.16341095,129.1847506
임랑해변점,부산광역시 기장군 장안읍 임랑해안길 31,35.3175248,129.2632925
부산백병원점,부산광역시 부산진구 복지로 75,35.1464716,129.0205936
부산동삼그린점,부산광역시 영도구 상리로 33,35.08470522,129.0679646
부산해운대구청점,부산광역시 해운대구 중동1로 41,35.16204785,129.1635686
부산정관중앙점,부산광역시 기장군 정관읍 정관로 613,35.3201172,129.1806974
광안금련산점,부산광역시 수영구 남천바다로9번길 16,35.15049657,129.1122289
서면중앙점,부산광역시 부산진구 신천대로50번길 61,35.15358985,129.0597655
부산정관조은타워점,부산광역시 기장군 정관읍 정관로 578,35.32075876,129.1768356
부산명지그린점,부산광역시 강서구 명지오션시티8로34번길 30,35.08554645,128.9095137
학장2호점,부산광역시 사상구 대동로 84,35.13708792,128.9768583
부산동래SK뷰점,부산광역시 동래구 차밭골로20번길 3,35.21655894,129.0793655
금정산온천점,부산광역시 금정구 구서중앙로15번길 20,35.25388815,129.0890796
에일린점,부산광역시 영도구 태종로 640,35.07637466,129.0732507
부산명륜KT점,부산광역시 동래구 명륜로 120-1,35.20464904,129.0826892
부산서동점,부산광역시 금정구 서부로 6,35.21497639,129.1049141
부산동래한진점,부산광역시 동래구 충렬대로200번길 25,35.20183953,129.0803567
부산대동대학교점,부산광역시 금정구 부곡로142번길 49,35.22832586,129.0949886
부산교대후문점,부산광역시 연제구 여고로 84-1,35.19647091,129.0728515
부산개금주공점,부산광역시 부산진구 백양관문로 10,35.16141537,129.0324591
연산3호점,부산광역시 연제구 과정로225번길 9,35.18719212,129.1023528
부산영도점,부산광역시 영도구 남항로 31,35.08911208,129.0400791
부산장전원룸점,부산광역시 금정구 금강로347번길 66,35.23907484,35.23907484
괴정하늘정원점,부산광역시 사하구 낙동대로 198,35.10105599,128.9949318
부산중구용두산점,부산광역시 중구 백산길 12,35.10180862,129.0342516
부산큰솔2병원점,부산광역시 사상구 학장로 189,35.14366513,128.9872415
부산가덕도점,부산광역시 강서구 가덕해안로 748,35.03052767,128.8123989
부산사직플래티넘점,부산광역시 동래구 아시아드대로134번길 14,35.19586934,129.0674849
부산정관스카이점,부산광역시 기장군 정관읍 정관중앙로 55,35.32206504,129.1787571
부산장림사거리점,부산광역시 사하구 장림번영로 71,35.08088839,128.9730956
부산대연롯데점,부산광역시 남구 수영로 135,35.13517306,129.0803312
부산가야보광점,부산광역시 부산진구 냉정로 269,35.15125703,129.0292358
부산용호로점,부산광역시 남구 용호로 207,35.11376459,129.1112797
부산좌천가구점,부산광역시 동구 중앙대로 441-1,35.13363501,129.0533293
부산부곡동현점,부산광역시 금정구 동현로39번길 31,35.22424147,129.0931212
부산장림더원점,부산광역시 사하구 다대로227번길 37,35.08091178,128.9791489
부산광안SK점,부산광역시 수영구 수영로 553-11,35.15521497,129.1117772
부산모라화인점,부산광역시 사상구 백양대로934번길 56,35.19046874,128.9934842
부산구포카페점,부산광역시 북구 시랑로94번길 10,35.19698595,129.0065652
부산명지솔마레점,부산광역시 강서구 명지오션시티12로 10,35.08175736,128.8966197
부산대연센터점,부산광역시 남구 못골번영로50번길 20,35.13951043,129.0902096
부산광안수영로점,부산광역시 수영구 수영로594번길 90,35.15805819,129.1182148
부산구포대진점,부산광역시 북구 백양대로1124번길 70,35.20128281,129.0036422
부산범천이편한점,부산광역시 부산진구 만리산로 110,35.1497276,129.049904
부산롯데월드사택점,부산광역시 기장군 기장읍 동암해안길 30,35.19506256,129.2241913
부산신주례점,부산광역시 사상구 백양대로320번길 13,35.15461213,129.0161953
부산용호동일점,부산광역시 남구 동명로164번길 94,35.11483279,129.1137296
부산동구청점,부산광역시 동구 고관로 116-1,35.12893235,129.0467843
부산사하낙동점,부산광역시 사하구 낙동대로 430,35.10452669,128.9715557
부산영선로터리점,부산광역시 영도구 절영로 118-2,35.08528214,129.0420592
부산다대대우점,부산광역시 사하구 다대낙조1길 12,35.04980541,128.9677394
부산당감블루점,부산광역시 부산진구 가야대로691번길 4,35.1570783,129.0473203
에코마트,부산광역시 부산진구 중앙대로 653,35.15099251,129.0588867
부산남산새싹점,부산광역시 금정구 금강로740번길 10,35.27333438,129.0896806
부산중구국일점,부산광역시 중구 충장대로13번길 14,35.10661469,35.10661469
부산좌동현대점,부산광역시 해운대구 양운로37번길 11,35.16554891,35.16554891
부산문현대도점,부산광역시 남구 수영로39번가길 83,35.13850317,129.0758322
부산주례역점,부산광역시 사상구 가야대로 283,35.1509495,129.0035725
부산학장미진점,부산광역시 사상구 대동로 182,35.14369691,128.9844435
부산개금원룸점,부산광역시 부산진구 복지로8번길 5,35.15221761,129.0201056
부산윗반송점,부산광역시 해운대구 윗반송로51번길 186,35.23350083,35.23350083
부산구평대로점,부산광역시 사하구 감천항로 195,35.07558052,35.07558052
부산중구스마트점,부산광역시 중구 흑교로71번길 14,35.1050896,35.1050896
부산사상스마일점,부산광역시 사상구 학감대로 238-36,35.15165683,35.15165683
괴산화양계곡점,충청북도 괴산군 청천면 화양로 742,36.67996794,127.8042266
청주복대1호점,충청북도 청주시 흥덕구 증안로 46,36.63648172,127.428428
음성생극점,충청북도 음성군 생극면 음성로 1649-4,37.03399211,127.6057815
증평주공점,충청북도 증평군 증평읍 문화로 97,36.78919818,127.5926188
청원미원터미널점,충청북도 청주시 상당구 미원면 단재로 2395,36.63113224,127.6541017
청주개신중앙점,충청북도 청주시 서원구 경신로 31-1,36.62061934,127.4453599
청주용암주공점,충청북도 청주시 상당구 원봉로 62,36.6147851,127.5082179
음성대소부윤점,충청북도 음성군 대소면 대동로 525-1,36.95044006,127.5232028
광혜원바들말점,충청북도 진천군 광혜원면 바들말4길 14,36.99192604,127.4475624
청주봉명빌리지점,충청북도 청주시 흥덕구 1순환로570번길 46,36.64272687,127.45927
충주신니점,충청북도 충주시 신니면 신덕로 775,36.99640574,127.7361548
진천광혜원원룸점,충청북도 진천군 광혜원면 화랑3길 11,36.99301377,36.99301377
청주용암강변점,충청북도 청주시 상당구 무심동로 86,36.61449214,127.4984715
수곡동점,충청북도 청주시 서원구 수영로8번길 3,36.61468626,127.4869109
충주교통대카페점,충청북도 충주시 대소원면 요도천변길 216,36.96615496,127.8743497
청주산남제일점,충청북도 청주시 서원구 두꺼비로60번길 4-2,36.60970428,127.4647657
음성대소두진점,충청북도 음성군 대소면 대금로 552-12,36.96557072,127.4991541
옥천공단로드점,충청북도 옥천군 옥천읍 지용로 42,36.31281269,127.5805341
음성생극터미널점,충청북도 음성군 생극면 음성로 1679-1,37.03649414,127.6048243
남천대로점,충청북도 제천시 의병대로 112,37.13520447,128.212973
청주가경푸르지오점,충청북도 청주시 흥덕구 2순환로1375번길 20,36.61424727,127.4413922
제천입석점,충청북도 제천시 송학면 입석중앙로4길 35-1,37.20228631,128.2998824
충주연수센터점,충청북도 충주시 연원10길 12,36.98407943,127.9290483
청주산남베스트점,충청북도 청주시 서원구 두꺼비로 36,36.60892851,127.4666155
음성유통단지점,충청북도 음성군 대소면 대물1길 6-10,36.97384402,127.4722565
청주가경가로수점,충청북도 청주시 흥덕구 풍년로 200,36.62969739,127.4306808
충북혁신밸리점,충청북도 음성군 맹동면 학예로 55,36.91344361,127.5429382
괴산차부점,충청북도 괴산군 괴산읍 읍내로 131,36.79802644,127.783868
충주건대병원점,충청북도 충주시 대흥길 25,36.97965471,127.9290636
충주교현남산점,충청북도 충주시 지곡12길 3,36.96521881,127.930492
청주현대후문점,충청북도 청주시 흥덕구 덕암로 53,36.65321093,127.4599349
청주모충삼호점,충청북도 청주시 서원구 쌍샘로 74,36.62676854,127.4758734
청주내수무지개점,충청북도 청주시 청원구 내수읍 내수로 612,36.7184783,127.5283455
충북혁신밸리점,충청북도 음성군 맹동면 학예로 55,36.91402992,127.5430806
제천신월부영점,충청북도 제천시 대학로12길 3,37.16928113,128.1946126
청주용암점,충청북도 청주시 상당구 중흥로 146,36.616273,127.5106232
충북보은센터점,충청북도 보은군 보은읍 보은로 122,36.48495889,127.7179888
남청주IC점,충청북도 청주시 서원구 남이면 청남로 1071,36.5478922,127.4302872
충주첨단밸리점,충청북도 충주시 대소원면 첨단산업8로 4-24,36.99891746,127.8409943
진천산수산업점,충청북도 진천군 덕산읍 산수산단2로 93,36.90287027,127.4850216
오창양청원룸점,충청북도 청주시 청원구 오창읍 양청택지2길 44,36.71904926,127.420854
충북대사거리점,충청북도 청주시 흥덕구 월명로5번길 46,36.63510789,127.4505676
청주가경점,충청북도 청주시 흥덕구 2순환로1219번길 15,36.62772167,127.4302481
충주칠금점,충청북도 충주시 칠금중앙3길 10-1,36.98080245,127.920009
충주첨단산단점,충청북도 충주시 대소원면 기업도시2로 22,37.00239967,127.83065
보은보청대로점,충청북도 보은군 보은읍 보청대로 1900,36.48880403,127.7166579
청주금천사랑점,충청북도 청주시 상당구 중고개로215번길 16,36.62258688,127.5119361
청주운천금강점,충청북도 청주시 흥덕구 사운로 223,36.6481446,127.4757286
상당사거리점,충청북도 청주시 상당구 상당로 89-1,36.63630224,127.4901558
청주내덕소망점,충청북도 청주시 청원구 충청대로42번길 42-2,36.6596628,127.4925522
옥천양수점,충청북도 옥천군 옥천읍 양수로 46,36.29968017,127.5601622
옥천도립대정문점,충청북도 옥천군 옥천읍 금장로 65,36.30030602,127.5711815
청주금천중앙점,충청북도 청주시 상당구 쇠내로 127,36.62255581,127.5065809
청주우암센터점,충청북도 청주시 청원구 대성로266번길 2,36.6491324,127.4915476
충주청보점,충청북도 충주시 사천개1길 2,36.95579545,127.935621
청주용정원룸점,충청북도 청주시 상당구 중고개로212번길 18,36.62347946,127.5142337
청주가경중앙점,충청북도 청주시 흥덕구 풍년로 40,36.61751105,127.43977
진천교성점,충청북도 청주시 흥덕구 1순환로501번길 15,36.64946646,127.4689644
광혜원바들말점,충청북도 진천군 광혜원면 바들말길 22,36.99288842,127.4471623
청주하복대점,충청북도 청주시 흥덕구 짐대로72번길 51,36.63142976,36.63142976
진천덕산로드점,충청북도 진천군 덕산읍 덕금로 654,36.90292777,127.4984641
제천청전현대점,충청북도 제천시 용두천로 235,37.14744035,128.2188161
충북대중문점,충청북도 청주시 서원구 내수동로108번길 7,36.63339069,127.4593464
충북진천점,충청북도 진천군 진천읍 중앙서로 39,36.85624887,127.4422604
청주분평점,충청북도 청주시 서원구 분평로 49,36.60877527,127.4913431
청원오송생명점,충청북도 청주시 흥덕구 오송읍 오송생명3로 149,36.62485604,127.325037
진천광혜원로드점,충청북도 진천군 광혜원면 장기길 71,36.98807553,127.443153
청주율량다나점,충청북도 청주시 청원구 충청대로 179,36.67222126,127.4957701
청주서원대원룸점,충청북도 청주시 서원구 구룡산로337번길 100,36.6223353,127.4842999
충북혁신타워점,충청북도 음성군 맹동면 산학로 35,36.90830433,127.5446073
충북오송미래도점,충청북도 청주시 흥덕구 오송읍 오송생명3로 87,36.6307114,127.3261935
음성대소기흥점,충청북도 음성군 대소면 대금로379번길 12,36.97397143,127.4827796
충북혁신빌리지점,충청북도 음성군 맹동면 원중로 1526-28,36.91529952,127.5335335
청주산남센터점,충청북도 청주시 서원구 산남로70번길 3,36.61132291,127.4659842
청주금천센터점,충청북도 청주시 상당구 영운천로145번길 35,36.62338766,127.511618
충주법원공원점,충청북도 충주시 대가미13길 11,36.98131128,127.9264673
청주산남원룸점,충청북도 청주시 서원구 두꺼비로28번길 37-1,36.6106704,127.4671848
진천산수산업점,충청북도 진천군 덕산읍 산수산단2로 95,36.90304163,127.4850541
청주율량센터점,충청북도 청주시 청원구 율봉로 260,36.66667684,127.4974283
충주코아루점,충청북도 충주시 대소원면 첨단산업4로 24,36.98749173,127.8287846
진천덕산옥동점,충청북도 진천군 덕산읍 초금로 482,36.887647,127.5100074
충주교현남산점,충청북도 충주시 지현천변1길 33-8,36.96770718,127.9324552
청주휴먼시아점,충청북도 청주시 서원구 신성화로 8,36.61572741,127.4594474
청주비하점,충청북도 청주시 흥덕구 청향로 15,36.6376808,127.421061
충주호암LH점,충청북도 충주시 호암수청2로 56,36.955394,127.9270761
청주율량주공점,충청북도 청주시 청원구 율량로 17,36.67372273,127.4886001
옥산오산점,충청북도 청주시 흥덕구 옥산면 오송가락로 763,36.66057285,36.66057285
음성대소한진점,충청북도 음성군 대소면 대성로77번길 15,36.97612988,36.97612988
청주용암강변점,충청북도 청주시 상당구 무심동로 86,36.61344267,127.4975057
음성감곡도곡점,충청북도 음성군 감곡면 장감로132번길 3,37.11885555,127.6375817
증평교통대후문점,충청북도 증평군 증평읍 대학로 54,36.76732348,127.6218134
음성대소중앙점,충청북도 음성군 대소면 오산로 27,36.96622769,127.4842133
진천신척대로점,충청북도 진천군 이월면 신척산단로 273,36.91635384,127.479297
청주복대대승점,충청북도 청주시 흥덕구 죽천로 127,36.63806399,127.4370828
진천산수단지점,충청북도 진천군 덕산읍 산수산단1로 16,36.89460668,127.4850547
충북보건대점,충청북도 청주시 청원구 내수읍 덕암길 13-2,36.69990804,127.5478316
음성금왕호산점,충청북도 음성군 금왕읍 일생로 146,37.04821351,127.5432894
청주오송센터점,충청북도 청주시 흥덕구 오송읍 연제만수길 49,36.62451937,127.329255
청주방서중흥점,충청북도 청주시 상당구 단재로 312,36.60144271,127.5006573
음성교차로점,충청북도 음성군 원남면 충청대로 1147,36.91235898,127.6864366
단양미소점,충청북도 단양군 단양읍 별곡3로 39-16,36.98883389,128.3635358
진천한삼로점,충청북도 진천군 덕산읍 한삼로 250,36.93184304,127.4998351
청주죽림점,충청북도 청주시 서원구 성화로 109-1,36.61504978,127.4453439
청주율량칸타빌점,충청북도 청주시 청원구 율량로 135,36.6719178,127.5007505
청주대기숙사점,충청북도 청주시 청원구 안덕벌로19번길 116,36.6597487,127.5000796
청주우암세원점,충청북도 청주시 청원구 사북로143번길 28,36.64637223,127.4867679
음성포란재점,충청북도 음성군 음성읍 반기문로 45-15,36.91997802,127.6879991
진천이월그린점,충청북도 진천군 이월면 진광로 781,36.92999202,127.4290729
하이젠시티점,충청북도 청주시 흥덕구 직지대로 636,36.64275479,127.4634524
청주봉명타운점,충청북도 청주시 흥덕구 월명로252번길 87,36.65722704,127.4592134
청전스타점,충청북도 제천시 청전대로15길 70,37.15900325,128.2131749
제천복합타운점,충청북도 제천시 복합타운길 135,37.16223008,128.1859698
청주대캠퍼스타워점,충청북도 청주시 청원구 상당로 249,36.65080498,127.4885839
청주용암골점,충청북도 청주시 상당구 용암로 104,36.61634453,127.5039486
청주수곡수정점,충청북도 청주시 서원구 수영로36번길 5,36.61522386,127.4903841
옥천가화점,충청북도 옥천군 옥천읍 가화길 21,36.30294473,127.5631613
청주남일효촌점,충청북도 청주시 상당구 남일면 효촌송암1길 24,36.5883527,127.5104754
음성감곡주천점,충청북도 음성군 감곡면 음성로 2408,37.09330657,127.6312351
청주오창부영점,충청북도 청주시 청원구 오창읍 2산단4로 20,36.73495342,127.4469795
음성생극터미널점,충청북도 음성군 생극면 음성로 1679-1,37.03649414,127.6048243
청주오창센터점,충청북도 청주시 청원구 오창읍 주성1길 16,36.7326665,127.4513288
청주오창대성점,충청북도 청주시 청원구 오창읍 2산단로 160,36.73430132,127.4521233
진천덕산점,충청북도 진천군 덕산읍 덕금로 646,36.90219595,127.4980201
청주용암중앙점,충청북도 청주시 상당구 월평로184번길 22,36.60995528,127.5040342
청주수암골점,충청북도 청주시 상당구 수암로 31,36.6450267,127.4945606
오창산업원룸점,충청북도 청주시 청원구 오창읍 2산단로 187,36.73703625,127.4550263
진천이월공단점,충청북도 진천군 이월면 진광로 390,36.89808744,127.4416531
음성삼성IC점,충청북도 음성군 삼성면 금일로 1279-1,37.04245065,127.4746936
충주모다아울렛점,충청북도 충주시 중원대로 3683,36.96148266,127.8981535
청주용암점,충청북도 청주시 상당구 중흥로 146,36.61653149,127.5099284
충북혁신대로점,충청북도 음성군 맹동면 대하로 273,36.91176376,127.5443286
음성대소로드점,충청북도 음성군 대소면 대금로 803,36.97743371,127.5241576
증평중앙점,충청북도 증평군 증평읍 중앙로8길 3,36.78452064,127.5821231
진천덕산주공점,충청북도 진천군 덕산읍 용몽1길 24,36.91109491,127.5098687
청주교대점,충청북도 청주시 서원구 청남로2074번길 5,36.61721927,127.4870506
진척신척산업점,충청북도 진천군 덕산면 신척산단5로 40-2,36.91983609,127.4884542
청주오송중앙점,충청북도 청주시 흥덕구 오송읍 오송생명로 210,36.63023974,127.3320567
음성대소중부점,충청북도 음성군 대소면 대금로196번길 8,36.97950401,127.464366
충주동량점,충청북도 충주시 동량면 조동1길 59,37.02696431,127.9665258
청주수동점,충청북도 청주시 상당구 교동로 26,36.63696364,127.4930925
충주교통대대로점,충청북도 충주시 대소원면 중원대로 3918-1,36.96288965,127.8714802
청주북이대율점,충청북도 청주시 청원구 북이면 신대석성로 231,36.74581928,127.5212353
청주복대원룸점,충청북도 청주시 흥덕구 장구봉로137번길 4,36.6247445,127.4487293
제천장락스타점,충청북도 제천시 장락로 167,37.15682436,128.2267354
청주용암현대점,충청북도 청주시 상당구 용암로 23,36.61080244,127.5083885
음성리노산단점,충청북도 음성군 맹동면 맹동산단지원로 238,36.94274357,127.5580095
제천동현점,충청북도 제천시 의병대로26길 5,37.13399879,128.2169202
청주하이닉스점,충청북도 청주시 흥덕구 엘지로 19,36.65989073,127.4350783
충주만정점,충청북도 충주시 대소원면 산정독정길 222,36.96162705,127.8705952
제천서울병원점,충청북도 제천시 의병대로7길 13,37.13904768,128.2054085
광혜원바들말점,충청북도 진천군 광혜원면 월성안길 116-7,36.96994446,127.4489904
오창구룡삼식이점,충청북도 청주시 청원구 오창읍 구룡3길 1,36.71064352,127.4121529
음성대소융보점,충청북도 음성군 대소면 대풍산단로 12-8,36.97767104,127.4675688
증평역점,충청북도 증평군 증평읍 장뜰로 36,36.78194895,127.5811848
충북대평생교육원점,충청북도 청주시 서원구 충대로 1,36.63017977,127.454818
증평창동점,충청북도 증평군 증평읍 창신로 44,36.78146893,127.5779608
음성대소한양점,충청북도 음성군 대소면 대금로 528,36.96583953,127.4966592
쌍봉로드점,충청북도 음성군 금왕읍 금일로 266,37.00165773,127.5569834
진천읍내중앙점,충청북도 진천군 진천읍 중앙동8길 6,36.85824288,127.4447019
청주강서베리굿점,충청북도 청주시 흥덕구 강서로 111,36.62508231,127.4286128
충주연수힐스테이트점,충청북도 충주시 연수동산로 29,36.98532998,127.941797
청주뉴북문로점,충청북도 청주시 상당구 상당로121번길 34,36.63916767,127.4879563
청원오송로드점,충청북도 청주시 흥덕구 오송읍 가로수로 121,36.60823855,127.3188326
서청주자이점,충청북도 청주시 흥덕구 2순환로 1106,36.63560353,127.4201373
충주앙성점,충청북도 충주시 앙성면 가곡로 1065,37.10713067,127.7572612
테크노센터점,충청북도 청주시 흥덕구 송화로130번길 1,36.66477383,127.4482314
진천광혜원중앙점,충청북도 진천군 광혜원면 바들말4길 15,36.99178249,127.4476983
진천덕산점,충청북도 진천군 덕산읍 덕금로 792,36.91194397,127.5059915
광혜원주공점,충청북도 진천군 광혜원면 화랑길 30,36.99501858,127.4402038
충주호암점,충청북도 충주시 호암중앙2로 32,36.95534731,127.9402927
청주우미린점,충청북도 청주시 흥덕구 송화로214번길 29,36.66782544,127.4572822
청주탑동점,충청북도 청주시 상당구 탑동로 4,36.6278084,127.4954669
청주금천효성점,충청북도 청주시 상당구 수영로 204,36.62250737,127.5035961
진천읍내우림점,충청북도 진천군 진천읍 대촌1길 16,36.86233547,127.4469041
서원대점,충청북도 청주시 서원구 서원남로58번길 4,36.62247734,127.4817275
청주효림메디컬점,충청북도 청주시 서원구 복대로 23,36.61926736,127.4453249
충주산척로드점,충청북도 충주시 산척면 충원대로 1680,37.07259358,127.9326884
청주복대사거리점,충청북도 청주시 흥덕구 복대로190번길 3,36.63356741,36.63356741
제천명동점,충청북도 제천시 용두천로 378,37.15837427,128.2171362
청주오창대성점,충청북도 청주시 청원구 오창읍 2산단2로 32,36.73664945,127.4493074
청주우양센트럴점,충청북도 청주시 흥덕구 가로수로1164번길 41-44,36.6258688,127.4291213
청주복대대원점,충청북도 청주시 흥덕구 죽천로146번길 6,36.63768576,127.4371415
충주탄금대로점,충청북도 충주시 탄금대로 224,36.98438888,36.98438888
청주성화중앙점,충청북도 청주시 서원구 신성화로46번길 6-8,36.61874196,127.4584537
충주건국대카페점,충청북도 충주시 충열1길 20-9,36.94878964,127.9035373
청주가경센터점,충청북도 청주시 흥덕구 풍년로 182,36.62832345,127.4317084
진천이월터미널점,충청북도 진천군 이월면 진광로 793,36.93100857,127.4287062
진천덕산중앙점,충청북도 진천군 덕산읍 초금로 733,36.90979667,127.507554
청주복대2호점,충청북도 청주시 흥덕구 진재로 45-1,36.63532322,127.4292752
제천명동점,충청북도 제천시 숭문로 26-1,37.13581251,128.2054448
청주락희호텔점,충청북도 청주시 흥덕구 대농로 47-2,36.64424679,127.4277332
청주롯데아울렛점,충청북도 청주시 흥덕구 2순환로 1004,36.64517265,127.4216424
제천명동메디컬점,충청북도 제천시 동명로 67,37.13506123,128.2073561
음성대소사랑점,충청북도 음성군 대소면 대금로 137,36.98472426,36.98472426
청주용암남부점,충청북도 청주시 상당구 월평로184번길 75,36.60824788,127.5030503
뉴오창원룸점,충청북도 청주시 청원구 오창읍 양청택지1길 46-27,36.71807526,127.4225628
증평초중행복점,충청북도 증평군 증평읍 초중6길 87,36.78016283,127.575604
제천바이오밸리점,충청북도 제천시 바이오밸리1로 56,37.14697322,128.1682474
청주금천현대점,충청북도 청주시 상당구 수영로259번길 29,36.62784264,127.5036178
제천숭의점,충청북도 제천시 숭의로1길 26,37.13424651,128.2094587
단양코아루점,충청북도 단양군 단양읍 상진2로 31,36.97831254,128.3591838
청주봉명초콜릿점,충청북도 청주시 흥덕구 1순환로 552,36.64385015,127.4625389
분평계룡점,충청북도 청주시 서원구 매봉로 26,36.6123849,127.47786
청주운천점,충청북도 청주시 흥덕구 사운로 277,36.65203983,127.4721008
영동부용점,충청북도 영동군 영동읍 영산교로 8,36.1782915,127.7714085
단양다누리점,충청북도 단양군 단양읍 별곡7길 4,36.98512785,128.3701008
충북혁신센터점,충청북도 음성군 맹동면 장성로 41,36.90790704,127.5397281
음성감곡동부점,충청북도 음성군 감곡면 가곡로 25-7,37.11776348,127.6459703
음성금왕내송점,충청북도 음성군 금왕읍 금일로 106,36.99470567,127.5705727
충주봉방중앙점,충청북도 충주시 삼원로 79-1,36.97376508,127.9211508
진천화랑공원점,충청북도 진천군 진천읍 문화로 90,36.85041027,127.4386472
청주율량미래점,충청북도 청주시 청원구 율량로 12,36.6729549,127.4881801
진천장관점,충청북도 진천군 진천읍 장관2길 101,36.86915245,127.4343714
제천영천점,충청북도 제천시 내토로 422,37.13046161,128.2043498
청원오창양청고점,충청북도 청주시 청원구 오창읍 양청4길 21,36.7245173,127.4354002
제천영천행복점,충청북도 제천시 청풍호로 42,37.12729286,128.2024393
청원오창점,충청북도 청주시 청원구 오창읍 두릉유리로 1135,36.74166721,127.4547696
충주산척송강점,충청북도 충주시 산척면 북부로 3016,37.07792837,127.9509713
산남로점,충청북도 청주시 서원구 산남로 48,36.61147103,127.4688785
진천이월대로점,충청북도 진천군 이월면 진광로 302,36.8909292,127.4448691
공항로점,충청북도 청주시 청원구 공항로 228,36.67706381,127.4838677
충주센트럴푸르지오점,충청북도 충주시 연수로 6-8,36.99072098,127.9289522
제천본점,충청북도 제천시 내제로 237,37.14738959,128.212039
음성본성원룸점,충청북도 음성군 맹동면 원중로 1552-12,36.91729471,127.5344529
제천의림지점,충청북도 제천시 의림지로 24,37.17546605,128.2086715
음성하이텍산단점,충청북도 음성군 삼성면 하이텍산단로 2,37.00298338,127.4633137
진천산수로드점,충청북도 진천군 덕산읍 산수산단로 106,36.89604058,127.4873788
충북영동대점,충청북도 영동군 영동읍 대학로 310,36.19617804,127.7993333
청주현도공단점,충청북도 청주시 서원구 현도면 죽전1길 71,36.49718552,127.4201551
단양IC점,충청북도 단양군 대강면 단양로 148,36.92122195,128.356716
충주센트럴푸르지오점,충청북도 충주시 연수서편2길 11,36.99049602,127.9295141
제천아침도시점,충청북도 제천시 용두대로5길 33-4,37.13277503,128.1951494
재천화산대로점,충청북도 제천시 숭의로 19,37.13238391,128.2078891
진천드림점,충청북도 진천군 진천읍 농다리로 1419,36.84669826,127.4562786
청주사직푸르지오점,충청북도 청주시 서원구 예체로67번길 12-1,36.63242889,127.4679072
충북대평생교육원점,충청북도 청주시 서원구 구룡산로 351,36.61921308,127.4833704
충주연수원룸점,충청북도 충주시 금곡서1길 16,36.98808704,127.9407614
충북대병원2호점,충청북도 청주시 서원구 1순환로 776,36.62428141,127.4617692
보은속리산점,충청북도 보은군 속리산면 법주사로 243,36.53036366,127.8207521
청주남일쌍수점,충청북도 청주시 상당구 남일면 단재로 604,36.57728642,127.5106459
음성대소터미널점,충청북도 음성군 대소면 산내로 308,36.96960917,127.4826294
진천신정점,충청북도 진천군 진천읍 문화로 655,36.84953886,127.4508088
청주봉명자이점,충청북도 청주시 흥덕구 1순환로584번길 59,36.64139492,127.4576913
청주수곡백로점,충청북도 청주시 서원구 수곡로 36,36.6152674,127.4754929
충주연수국원점,충청북도 충주시 국원초3길 33,36.98175311,36.98175311
진천백곡로드점,충청북도 진천군 백곡면 백곡로 927,36.88189652,127.3787257
청주복대성당점,충청북도 청주시 흥덕구 내수동로 26,36.63281781,127.4503491
흥덕신라점,충청북도 청주시 흥덕구 가로수로1308번길 42,36.63099923,127.4372348
청주율량대로점,충청북도 청주시 청원구 공항로 129-2,36.66870388,127.4846172
광혜원바들말점,충청북도 진천군 광혜원면 바들말1길 48,36.99622985,127.4448349
진천광혜원공단점,충청북도 진천군 광혜원면 진광로 1050-3,36.9513318,127.4328885
음성중앙점,충청북도 음성군 음성읍 중앙로 176,36.93941595,36.93941595
증평로드점,충청북도 증평군 증평읍 중부로 2267,36.78744261,127.5651103
청주봉명점,충청북도 청주시 흥덕구 월명로 158,36.64877787,127.4541949
음성시티프라디움점,충청북도 음성군 금왕읍 대금로 1557-14,36.99230068,127.6046149
충주교현중앙점,충청북도 충주시 여수월1길 28,36.97743616,127.9426566
음성대소태생점,충청북도 음성군 대소면 오태로137번길 1,36.96629817,127.4900976
청주봉명중앙점,충청북도 청주시 흥덕구 월명로178번길 36,36.65019276,127.4561645
음성대소문화점,충청북도 음성군 대소면 대화2길 1,36.96490533,127.4931278
청주가경중앙점,충청북도 청주시 흥덕구 풍년로 40,36.61728806,127.4402635
청주옥산IC점,충청북도 청주시 흥덕구 옥산면 옥산시내1길 14,36.66287026,127.3731412
한국교원대후문점,충청북도 청주시 흥덕구 강내면 다락탑연길 242,36.61413977,127.3608252
청주가경점,충청북도 청주시 흥덕구 경산로 19,36.62384829,36.62384829
진천IC점,충청북도 진천군 진천읍 덕금로 166,36.87001157,127.4661969
증평주공점,충청북도 증평군 증평읍 역전로1길 10,36.77949896,127.5841109
제천화산점,충청북도 제천시 내토로47길 20,37.12831327,128.2165439
청주강서호반점,충청북도 청주시 흥덕구 서현중로 53,36.62326054,127.4283355
금왕진재로드점,충청북도 음성군 금왕읍 진재길 4,36.97862774,127.5507594
충주첨단본점,충청북도 충주시 대소원면 첨단산업4로 45,36.98725464,127.8268642
온달관광지점,충청북도 단양군 영춘면 온달로 23-15,37.06190287,128.4925218
진천신척산단점,충청북도 진천군 이월면 이덕로 325,36.93017837,127.4652389
음성삼보점,충청북도 음성군 음성읍 시장로 41,36.93145849,127.694755
음성금왕내송점,충청북도 음성군 금왕읍 금일로 108,36.99522735,127.5703001
음성읍내중앙점,충청북도 음성군 음성읍 시장로 97,36.93621003,127.6921765
북진천IC점,충청북도 진천군 이월면 진광로 854,36.93572873,127.4320612
제천의림점,충청북도 제천시 독순로11길 21,37.1411842,128.2100856
청주용암플러스점,충청북도 청주시 상당구 용암북로92번길 1,36.61927405,127.5084353
증평만남의광장점,충청북도 진천군 초평면 중부로 1729,36.76956859,127.5108606
청주율량하늘점,충청북도 청주시 청원구 주성로 220,36.67143288,127.4905171
진천점,충청북도 진천군 진천읍 상산로 90,36.85457203,127.4440444
음성대소시장점,충청북도 음성군 대소면 오산로 62-2,36.96874292,127.4865211
충주중앙탑점,충청북도 충주시 중앙탑면 탄금대로 947,37.02311365,127.8478446
충주노은점,충청북도 충주시 노은면 연하중앙길 42,37.04723033,127.7568674
진천덕산센터점,충청북도 진천군 덕산읍 용몽1길 17-10,36.91162063,127.510606
뉴단양매포점,충청북도 단양군 매포읍 단양로 1921,37.03330508,37.03330508
진천광혜원복지점,충청북도 진천군 광혜원면 구암길 46,36.99041822,127.4316773
청주복대점,충청북도 청주시 흥덕구 증안로 24,36.63633509,127.4260472
청주율량럭키점,충청북도 청주시 청원구 충청대로139번길 37,36.6692332,127.4924558
청주사창중앙점,충청북도 청주시 서원구 1순환로 649,36.63570152,127.460169
음성오선산업점,충청북도 음성군 금왕읍 오선산단로 22-4,36.97405911,127.5678247
청주영운두산점,충청북도 청주시 상당구 수영로137번길 100,36.62133175,127.4983265
음성감곡리치빌점,충청북도 음성군 감곡면 음성로 2634,37.11054691,127.6434947
단양팔경휴게소점,충청북도 단양군 매포읍 단양로 2329,37.06047022,128.3012124
음성생극산단점,충청북도 음성군 생극면 생극산단길 29,37.04233662,37.04233662
제천터미널점,충청북도 제천시 칠성로10길 12,37.1429128,128.2109797
증평송산로드점,충청북도 증평군 증평읍 중부로 2425,36.79411159,127.5802109
음성감곡왕장점,충청북도 음성군 감곡면 대학길 22,37.12400932,127.6402918
충주충원대로점,충청북도 충주시 충원대로 164,36.9435694,127.9005687
충주부영점,충청북도 충주시 봉계13길 24,36.97957503,127.9173369
청주장암로드점,충청북도 청주시 서원구 가장로 326,36.58735656,36.58735656
옥천역점,충청북도 옥천군 옥천읍 옥천로 1634,36.29735009,36.29735009
청주봉명도깨비점,충청북도 청주시 흥덕구 봉명로 204,36.63967643,127.4642901
청주봉덕초점,충청북도 청주시 흥덕구 덕암로 92,36.65176311,127.4626181
청주서희스타점,충청북도 청주시 청원구 충청대로 76,36.66331554,127.4932218
청주공구단지점,충청북도 청주시 청원구 2순환로 364,36.6733043,127.4793842
오창지식센터점,충청북도 청주시 청원구 오창읍 양청송대길 5,36.71354555,127.4383236
청주비하골드점,충청북도 청주시 흥덕구 비하로63번길 23,36.63252851,127.4234589
제천나이스점,충청북도 제천시 청전대로 43,37.14616914,128.2039981
음성맹동점,충청북도 음성군 맹동면 덕금로409번길 24,36.92928992,127.5655519
음성맹동두성점,충청북도 음성군 맹동면 두레로 220,36.91799843,127.5582646
영동IC점,충청북도 영동군 용산면 용산로 450,36.27053862,127.8254548
제천부영점,충청북도 제천시 대학로12길 8,37.16899247,128.1947921
옥천삼양점,충청북도 옥천군 옥천읍 삼양로 8,36.30805451,127.5630549
충주돈산점,충청북도 충주시 앙성면 산전장수1길 3,37.09636996,127.7897622
영동용산점,충청북도 영동군 용산면 용산로 380,36.2643584,127.8272047
충청대혁신점,충청북도 청주시 흥덕구 강내면 탑연월곡길 62-15,36.62181661,127.365614
청주용정비발디점,충청북도 청주시 상당구 용정로 40,36.62974848,127.5178283
영동군청점,충청북도 영동군 영동읍 기골로 11,36.1753463,127.7821557
음성오선로드점,충청북도 음성군 금왕읍 초금로695번길 3,36.97427999,127.5617022
음성감곡북부점,충청북도 음성군 감곡면 북부로 34,37.11351038,127.6400827
충주시청점,충청북도 충주시 시청로 4,36.98777244,127.9261353
진천메가허브점,충청북도 진천군 초평면 은암산단로 246,36.79242075,36.79242075
증평송산원룸점,충청북도 증평군 증평읍 송산로 130,36.79331369,36.79331369
청주봉명그린점,충청북도 청주시 흥덕구 직지대로668번길 14,36.6421575,36.6421575
청주사창행복점,충청북도 청주시 서원구 1순환로622번길 16,36.63790761,127.4577717
충북혁신도시점,충청북도 음성군 맹동면 대하2가길 25,36.90686944,127.5440771
보령주공점,충청남도 보령시 작은오랏3길 54,36.3453977,126.6044476
천안성정파크점,충청남도 천안시 서북구 양지9길 9,36.81215182,36.81215182
천안두정파크점,충청남도 천안시 서북구 두정중2길 24,36.83574869,127.1401888
아산둔포빌리지점,충청남도 아산시 둔포면 윤보선로 652-72,36.92147384,127.032188
아산온천파크점,충청남도 아산시 음봉면 아산온천로157번길 92,36.85447536,126.9838051
아산밀두점,충청남도 아산시 인주면 아산만로 1703,36.87017116,126.8850653
아산탕정로드점,충청남도 아산시 탕정면 이순신대로 393,36.79709479,127.0475377
아산북수타운점,충청남도 아산시 배방읍 배방로 219-23,36.77228441,127.0701474
공주동학사점,충청남도 공주시 반포면 동학사1로 126-1,36.36266455,127.2526393
당진빌리지점,충청남도 당진시 무수동4길 24-3,36.89248162,126.6384727
서산성연고운점,충청남도 서산시 성연면 성연3로 11,36.81918054,126.4518029
안면도점,충청남도 태안군 안면읍 안면대로 1823,36.59857002,126.3245949
아산음봉더샵점,충청남도 아산시 음봉면 음봉로 515-42,36.84412164,127.068572
천안푸르지오점,충청남도 천안시 동남구 통정9로 51,36.77187156,127.1311683
보령발전소점,충청남도 보령시 오천면 토정로 1208,36.39593798,126.5019629
천안목천점,충청남도 천안시 동남구 목천읍 충절로 896,36.77333194,127.2100925
당진신평로드점,충청남도 당진시 신평면 서해로 7459,36.87995013,36.87995013
아산삼환나우빌점,충청남도 아산시 번영로 15-1,36.78554855,36.78554855
아산시청점,충청남도 아산시 시민로440번길 16,36.7878322,127.003699
예산간양로드점,충청남도 예산군 예산읍 간양신대길 6,36.7371753,126.8579705
유구터미널점,충청남도 공주시 유구읍 유구마곡사로 9,36.55037109,126.9520581
천안신부랜드마크점,충청남도 천안시 동남구 만남로 14,36.81836137,127.1534638
천안공구상가점,충청남도 천안시 동남구 신촌로 24,36.78742106,127.1219399
천안성남점,충청남도 천안시 동남구 성남면 신사대화로 148,36.74227783,127.2364003
서천정원점,충청남도 서천군 서천읍 사곡로75번길 7,36.084556,126.6909343
태안빌리지점,충청남도 태안군 태안읍 군청3길 23,36.74945346,126.2987455
용화고점,충청남도 아산시 용화고길 11-3,36.77360621,127.004096
당진채운휴먼빌점,충청남도 당진시 백암로 219-46,36.8907303,126.6225622
천안스카이점,충청남도 천안시 서북구 검은들1길 26,36.81188471,127.1106212
공주신영휴게소점,충청남도 공주시 유구읍 금계산로 422,36.58422062,126.9718264
계룡고점,충청남도 계룡시 서금암로 77,36.26896286,127.257128
논산공단로드점,충청남도 논산시 성동면 논산평야로 394,36.21472619,127.0644881
태안신진도점,충청남도 태안군 근흥면 신진부두길 132,36.68289612,126.1355192
천안4공단쉼터점,충청남도 천안시 서북구 직산읍 4산단7로 90,36.86831229,127.1235611
예산발연로드점,충청남도 예산군 예산읍 발연로 1,36.69882411,126.8294195
아산한올점,충청남도 아산시 번영로169번길 18,36.78690326,127.0100861
논산터미널중앙점,충청남도 논산시 중앙로422번길 21,36.20283014,127.0890828
서산오스카점,충청남도 서산시 지곡면 무장길 453-3,36.84455701,126.445708
천안원성엔리치점,충청남도 천안시 동남구 원성천1길 149,36.80847098,127.1617202
천안테딘워터파크점,충청남도 천안시 동남구 성남면 종합휴양지로 164,36.75868631,127.224937
천안법원점,충청남도 천안시 동남구 청수5로 3,36.7830968,127.154468
천안쌍용스타점,충청남도 천안시 서북구 차돌들길 7,36.79750253,127.1289404
천안입장한성점,충청남도 천안시 서북구 입장면 도림길 10,36.91537777,36.91537777
논산IC점,충청남도 논산시 연무읍 동안로 1150,36.12530224,127.1288392
예산충서로점,충청남도 예산군 예산읍 충서로 1206,36.71543534,126.8324695
아산석곡스타점,충청남도 아산시 둔포면 석곡길 42,36.91706652,127.0544762
논산취암중앙점,충청남도 논산시 중앙로384번길 21-2,36.19992102,127.0917073
동학사점,충청남도 공주시 반포면 동학사1로 272,36.35876071,127.2381358
만리포사랑점,충청남도 태안군 소원면 서해로 20-3,36.78384562,126.1431803
태안신두리,충청남도 태안군 원북면 신두해변길 147,36.83705422,126.1846607
송악고대점,충청남도 당진시 송악읍 대섬길 70-32,36.97862749,126.7320704
보령메디컬점,충청남도 보령시 중앙로 10,36.34580666,126.5993494
천안불당파크빌점,충청남도 천안시 서북구 불당2길 20,36.80330814,127.1073472
아산영인신영점,충청남도 아산시 영인면 영인로 94,36.85688255,126.9527889
이인휴게소천안방면,충청남도 공주시 이인면 논산천안고속도로 32,36.35265646,127.0697147
예산고덕점,충청남도 예산군 고덕면 예덕로 948,36.77491358,126.7197064
당진중앙점,충청남도 당진시 당진중앙2로 70,36.89276443,126.6293691
천안용곡우림점,충청남도 천안시 동남구 용곡5길 37-6,36.79380498,127.1397054
홍성광천주공점,충청남도 홍성군 광천읍 광천로428번길 46-14,36.50969279,126.6271569
보령원산도점,충청남도 보령시 오천면 원산도3길 101,36.37025167,126.4274068
천안봉주로점,충청남도 천안시 서북구 성거읍 봉주로 311-1,36.87920364,127.1811729
천안성정타운센터점,충청남도 천안시 서북구 봉정로 89,36.81037471,127.1405735
천안안서점,충청남도 천안시 동남구 문암6길 2,36.84450184,127.1867008
천안성환율금점,충청남도 천안시 서북구 성환읍 율금1길 291,36.90406424,127.1106521
천안부영점,충청남도 천안시 동남구 목천읍 삼성5길 46,36.76028542,127.1772195
천안청당광풍로점,충청남도 천안시 동남구 광풍로 1767,36.77680478,127.1428753
탄천휴게소순천방면,충청남도 공주시 탄천면 논산천안고속도로 27,36.31915127,127.0700462
공주대학생회관점,충청남도 공주시 공주대학로 56,36.4668449,127.1386681
보령명천행복점,충청남도 보령시 주공로 56,36.34173181,126.6046133
보령시네마점,충청남도 보령시 대흥로 52,36.35002343,126.5931467
아산배방코아루점,충청남도 아산시 배방읍 희망로46번길 8,36.78811454,36.78811454
천안백석빌리지점,충청남도 천안시 서북구 한들1로 152-10,36.8355403,127.1203252
서천선명점,충청남도 서천군 서천읍 군사길 18,36.07646518,126.6969301
순천향대천안병원점,충청남도 천안시 동남구 순천향6길 31,36.80280448,127.1367808
천안두정그린점,충청남도 천안시 서북구 늘푸른3길 37,36.82670654,127.1310308
목천점,충청남도 천안시 동남구 목천읍 충절로 837,36.77052895,127.2046324
천안두정넥스트점,충청남도 천안시 서북구 부성3길 19,36.83435725,127.1359555
공주터미널점,충청남도 공주시 신관로 74,36.46850172,127.1347333
태안타운점,충청남도 태안군 태안읍 후곡로 121,36.747366,126.3040095
아산배방모산점,충청남도 아산시 배방읍 모산로 154,36.77496849,127.0596522
공주동학사주차장점,충청남도 공주시 반포면 동학사1로 263,36.35898204,127.2389248
동학사점,충청남도 공주시 반포면 동학사1로 126-1,36.36266455,127.2526393
성정센트럴점,충청남도 천안시 서북구 성정공원4길 20,36.82687622,127.1432363
아산퍼스트빌리지점,충청남도 아산시 둔포면 해위안길 127,36.89680202,127.0290551
천안봉명타운점,충청남도 천안시 동남구 봉명1길 18,36.80252764,127.1334108
아산탕정호산점,충청남도 아산시 탕정면 탕정면로 233,36.80952388,127.0763656
천안불당금정점,충청남도 천안시 서북구 불당24로 51,36.82228034,127.1077098
천안쌍용빌리지점,충청남도 천안시 서북구 쌍용13길 30,36.80030739,127.1206723
천안두정베스트점,충청남도 천안시 서북구 두정고8길 4,36.83772012,127.1312201
천안봉명파크점,충청남도 천안시 동남구 순천향4길 28,36.80140018,127.1345105
천안성남약수로점,충청남도 천안시 동남구 성남면 약수로 212,36.73598292,127.2162751
예산관작로드점,충청남도 예산군 예산읍 충서로 1145,36.7099056,126.830975
천안봉명점,충청남도 천안시 동남구 봉정로 70,36.80831031,127.1404733
천안두정스타점,충청남도 천안시 서북구 원두정3길 27,36.83264472,127.1371519
태안광장점,충청남도 태안군 태안읍 중앙로 1,36.75752992,126.2907617
천안성정로점,충청남도 천안시 서북구 서부14길 29,36.82173204,127.1396956
서산음암중앙점,충청남도 서산시 음암면 도당가금말길 33-1,36.78812593,126.5072798
천안목천IC점,충청남도 천안시 동남구 목천읍 충절로 1136,36.76941879,127.2331965
당진터미널점,충청남도 당진시 밤절로 136,36.90148867,126.6452131
천안삼성디스플레이점,충청남도 천안시 서북구 3공단6로 86-9,36.84269547,127.1082239
청양휴게소1호점,충청남도 청양군 목면 서천공주고속도로 49,36.39912021,126.9905014
천안성정행복점,충청남도 천안시 서북구 양지17길 7,36.81121906,127.1401943
아산신창로드점,충청남도 아산시 신창면 서부남로 733,36.78886416,126.9345676
천안우성점,충청남도 천안시 서북구 두정고6길 31,36.83588754,127.1332476
공주교대사랑점,충청남도 공주시 제민천2길 22,36.44387594,127.1205507
동학사사랑점,충청남도 공주시 반포면 임금봉길 29,36.36517398,127.2518352
보령서오점,충청남도 보령시 보령북로 226,36.36036381,126.5865986
천안청수한화점,충청남도 천안시 동남구 청수14로 13,36.78584088,127.1475251
센스빌중앙점,충청남도 서산시 동서1로 101,36.76655172,126.4597946
천안힐스테이트,충청남도 천안시 동남구 북일로 70,36.82701178,127.1558907
금산칸타빌점,충청남도 금산군 금산읍 북사직7길 15,36.10966293,127.4790636
대천신광장점,충청남도 보령시 대해로 881,36.30582388,126.5181182
서산한서대타운점,충청남도 서산시 해미면 대곡2길 47,36.69133723,126.5802394
공주중동점,충청남도 공주시 웅진로 146,36.45331364,127.1244937
천안역전점,충청남도 천안시 동남구 대흥로 229,36.80865873,127.1475636
천안성거삼일점,충청남도 천안시 서북구 성거읍 성거길 103,36.87505472,127.200499
예산덕산수암점,충청남도 예산군 삽교읍 수암산로 251,36.6829731,126.6746882
예산응봉점,충청남도 예산군 응봉면 예당로 1601,36.66087289,126.7631061
아산선문대동문점,충청남도 아산시 탕정면 매곡로71번길 32,36.79693232,127.0818841
부여롯데아울렛점,충청남도 부여군 규암면 왕흥로155번길 66-5,36.29831948,126.8909326
대천바다중앙점,충청남도 보령시 대해로 897-1,36.30514184,126.5168952
아산에스어반점,충청남도 아산시 탕정면 삼성로 295,36.81947972,127.0726368
공주문화거리점,충청남도 공주시 우체국길 22,36.45440624,127.1235555
청양대학점,충청남도 청양군 청양읍 학사길 55,36.43642703,126.8020102
천안불당점,충청남도 천안시 서북구 검은들3길 9,36.81103509,127.1102836
성환이화시장점,충청남도 천안시 서북구 성환읍 성환15길 4,36.9194775,127.130619
충남강경점,충청남도 논산시 강경읍 계백로 156,36.15773089,127.0172213
아산테크노밸리2호점,충청남도 아산시 둔포면 아산밸리중앙로 110,36.92325723,127.0601352
천안백석학생복지동점,충청남도 천안시 동남구 백석대학로 1-9,36.84074901,127.1821773
아산둔포송용점,충청남도 아산시 둔포면 윤보선로 458,36.91049317,127.020611
신성대기숙사점,충청남도 당진시 정미면 대학로 1,36.85369988,126.5937701
천안특수공단점,충청남도 천안시 서북구 백석공단1로 20,36.82498434,127.1113888
서산명지점,충청남도 서산시 대산읍 명지2로 193,36.96545321,126.4121483
천안두정오성점,충청남도 천안시 서북구 오성2길 3,36.83069523,127.1293265
대천머드모텔점,충청남도 보령시 고잠1길 26,36.31125364,126.5155881
당진읍내점,충청남도 당진시 무수동7길 205-23,36.89618173,126.6381713
한국기술교육대점,충청남도 천안시 동남구 병천면 충절로 1594,36.76746036,127.2833303
천안성환대로점,충청남도 천안시 서북구 성환읍 신방로 366,36.92383863,127.1183354
보령구시점,충청남도 보령시 구시4길 40,36.3458597,126.59389
당진석문점,충청남도 당진시 석문면 해명4로1길 10,36.97983436,126.5898235
홍성스포렉스점,충청남도 홍성군 홍성읍 의사로52번길 17,36.60222249,126.6731986
금산IC점,충청남도 금산군 제원면 인삼로 430,36.1033636,127.5270402
공주신관대로점,충청남도 공주시 매산동길 28,36.47049033,127.1367978
천안2산단점,충청남도 천안시 서북구 2공단1로 59-2,36.84908008,127.1172659
당진송산점,충청남도 당진시 송산면 머구나무길 39,36.95928548,126.7008385
천안풍세읍내점,충청남도 천안시 동남구 풍세면 풍년길 43-1,36.72199382,127.119215
홍성대학로점,충청남도 홍성군 홍성읍 대학길 41,36.57829049,126.6589489
수석산업점,충청남도 서산시 수석산업로 21,36.78014994,126.5028864
천안성환두진점,충청남도 천안시 서북구 성환읍 율금1길 221-30,36.90565323,127.1014659
계룡동아점,충청남도 계룡시 엄사면 엄사중앙로 65-10,36.28754373,127.2394521
아산신창남성점,충청남도 아산시 신창면 서부북로 745,36.79671789,126.9452046
당진가곡선호점,충청남도 당진시 송산면 송산로 1077,36.97653277,126.6844846
서산잠홍점,충청남도 서산시 서해로 3712,36.78760204,126.4815559
순천향점,충청남도 아산시 신창면 순천향로 287,36.76374414,126.9594777
천안두정희망점,충청남도 천안시 서북구 오성1길 24,36.83263361,127.1282171
당진안섬포구점,충청남도 당진시 송악읍 안섬포구길 9,36.98217854,126.7423002
보령구시사거리점,충청남도 보령시 남대천로 94,36.34579659,126.5908277
아산음봉스타점,충청남도 아산시 음봉면 음봉로681번길 24-1,36.83734131,127.0855159
천안두정대림점,충청남도 천안시 서북구 두정중1길 6-9,36.8348183,127.1398854
예산점,충청남도 예산군 예산읍 천변로 173,36.67721629,126.8490346
태안발전본부점,충청남도 태안군 원북면 발전로 457,36.90144106,126.2371246
천안성정해피점,충청남도 천안시 서북구 성정13길 13,36.81669104,127.1367257
아산온양점,충청남도 아산시 중앙로 35,36.77809153,127.0027273
공주터미널점,충청남도 공주시 신관로 77,36.46782715,127.1349193
논산IC대로점,충청남도 논산시 연무읍 동안로 1016,36.13069814,127.1161698
강서KC대학교점,충청남도 당진시 석문면 산단7로 201,37.00311283,126.5840457
천안원성목화점,충청남도 천안시 동남구 원성천2길 44,36.80339998,127.1557129
아산둔포점,충청남도 아산시 둔포면 둔포로 13,36.92722189,127.0364704
보령대천동점,충청남도 보령시 구시11길 26,36.34845827,126.5903341
아산둔포로점,충청남도 아산시 둔포면 둔포로 92-12,36.92455382,127.0441924
천안직산포도점,충청남도 천안시 서북구 직산읍 성진로 324-3,36.90654269,127.1691993
서산성연고운점,충청남도 서산시 성연면 성연3로 111,36.82833804,126.4471459
공주오거리점,충청남도 공주시 오거리길 14-1,36.448653,127.1218577
태안청포대점,충청남도 태안군 남면 청포대길 60,36.63927756,126.3026253
공주신관행복점,충청남도 공주시 관골2길 36,36.47654957,127.1347331
논산건양대원룸점,충청남도 논산시 은진면 교와1길 26,36.17642896,127.11141
무창포해변점,충청남도 보령시 웅천읍 열린바다로 294,36.24500256,126.5371236
예산명지병원점,충청남도 예산군 예산읍 신례원로 22,36.71392446,126.8337012
천안성환터미널점,충청남도 천안시 서북구 성환읍 성환11길 40,36.91630754,127.1321364
천안성성공단점,충청남도 천안시 서북구 2공단1로 12,36.8461149,127.1208656
천안직산동보점,충청남도 천안시 서북구 직산읍 상덕로 32,36.87002045,127.119358
공주신관현대점,충청남도 공주시 공주대학로 17-35,36.46707625,127.1357645
서산삼성카페점,충청남도 서산시 남부순환로 767,36.74671191,126.4475159
상명대계당관점,충청남도 천안시 동남구 상명대길 31,36.83129662,127.1809887
석남스타점,충청남도 서산시 덕지천로 30,36.77292194,126.4548843
천안두정드림점,충청남도 천안시 서북구 두정상가5길 2,36.83009586,127.1435816
태안근흥점,충청남도 태안군 근흥면 근흥로 998,36.70108776,126.2022211
아산테크노2단지점,충청남도 아산시 둔포면 아산밸리로406번길 16,36.90473983,127.0614171
공주여고점,충청남도 공주시 공주여고길 13,36.4410333,127.1200362
당진석포로드점,충청남도 당진시 송악읍 송악로 516,36.93276998,126.7295416
천안영성중앙점,충청남도 천안시 동남구 영성로 60,36.8036328,127.1504433
천안성성공단점,충청남도 천안시 서북구 2공단1로 12,36.84614169,127.1208317
아산블루크리스탈점,충청남도 아산시 탕정면 탕정면로8번길 33-7,36.7974492,127.0592318
서산센터점,충청남도 서산시 율지8로 7,36.78214335,36.78214335
당진삽교터미널점,충청남도 당진시 신평면 삽교천길 103,36.88839747,126.8248374
장항중앙점,충청남도 서천군 장항읍 성주로 24,36.01222464,126.701893
논산훈련소정문점,충청남도 논산시 연무읍 득안대로 487-8,36.1141497,127.0978722
아산배방타운점,충청남도 아산시 배방읍 배방로 58-34,36.77169289,127.0511565
서산해미점,충청남도 서산시 해미면 남문5로 13,36.71230423,126.5442392
정산터미널점,충청남도 청양군 정산면 칠갑산로 1912,36.41191151,126.9500967
당진정미휴게소점,충청남도 당진시 정미면 서해로 4909,36.83740373,126.5820506
당진한진타운점,충청남도 당진시 송악읍 부곡공단로 412-25,36.96687755,126.7715476
천안이화병원점,충청남도 천안시 서북구 충무로 167,36.79441431,127.1256362
아산갈산이레점,충청남도 아산시 탕정면 탕정면로 124,36.80224895,127.0691017
아산영인신봉점,충청남도 아산시 영인면 토정로430번길 6,36.89354154,126.9724608
당진우두공원점,충청남도 당진시 북문로1길 29,36.90027343,126.6303905
아산도고로드점,충청남도 아산시 도고면 도고산로 713,36.74915644,126.8870091
홍성대교점,충청남도 홍성군 홍성읍 의사로57번길 24-4,36.60316771,126.6690693
천안신방유안점,충청남도 천안시 동남구 통정9로 10,36.77424183,127.1275009
서산부석점,충청남도 서산시 부석면 취평2길 65,36.7172234,126.3948982
천안두정대림점,충청남도 천안시 서북구 두정중1길 6-10,36.83456575,127.1398545
천안동일하이빌점,충청남도 천안시 서북구 충무로 5-16,36.78574779,127.1138251
서산동문1호점,충청남도 서산시 율지6로 61,36.77818087,126.4650509
아산퍼스트점,충청남도 아산시 둔포면 충무로 1398,36.89760935,127.0352383
천안성거영신점,충청남도 천안시 서북구 성거읍 성거길 151-1,36.8786639,127.2038602
서산해미로드점,충청남도 서산시 해미면 중앙로 1101,36.7144154,126.5348982
태안모항항점,충청남도 태안군 소원면 모항항길 94,36.77804598,126.1353225
천안봉명행복점,충청남도 천안시 동남구 개목8길 9,36.81617674,127.1316878
당진순성점,충청남도 당진시 순성면 순성로 456,36.84234164,126.7093784
천안두정무지개점,충청남도 천안시 서북구 오성2길 36,36.83350991,127.1297431
부여롯데아울렛점,충청남도 부여군 규암면 백제문로 387,36.30717217,126.9019642
공주신관한빛점,충청남도 공주시 번영1로 48-8,36.47161595,127.1341854
천안차암효성점,충청남도 천안시 서북구 스마일시티2로 1,36.84458935,127.1072152
당진화력발전소점,충청남도 당진시 석문면 대호만로 2279,37.04861007,126.5120186
당진북부산업로점,충청남도 당진시 송악읍 대섬길 238,36.97542987,126.7491836
충남서천점,충청남도 서천군 서천읍 서천로 164,36.08251774,126.687504
풍세공단점,충청남도 천안시 동남구 풍세면 용무길 20,36.72630091,127.1142847
홍성읍내SK점,충청남도 홍성군 홍성읍 아문길 64,36.5997364,126.6652277
천안성정가인점,충청남도 천안시 서북구 서부12길 9,36.82098413,127.1372155
아산온천빌리지점,충청남도 아산시 시민로439번길 21,36.78721332,36.78721332
서산대산한성점,충청남도 서산시 대산읍 정자동5로 33,36.94019894,126.426581
천안쌍용제일점,충청남도 천안시 서북구 월봉7길 36,36.79017005,127.1159142
논산연산로드점,충청남도 논산시 연산면 계백로 2579,36.23758432,127.2277431
혜전대정문점,충청남도 홍성군 홍성읍 대학길 21,36.57903343,126.6569025
당진현대아파트점,충청남도 당진시 서해로 6258-8,36.90083212,126.6813646
천안성환신가점,충청남도 천안시 서북구 성환읍 가동길 1,36.95177962,127.1142296
계룡클래스점,충청남도 계룡시 서금암로 10,36.27275799,127.2514825
내포제나우스점,충청남도 홍성군 홍북읍 충남대로 24,36.6557629,126.6734659
당진원당그린빌점,충청남도 당진시 밤절로 104,36.89973268,126.6421586
천안삼성디스플레이점,충청남도 천안시 서북구 3공단6로 80,36.84144744,127.1064333
당진IC점,충청남도 당진시 송악읍 반촌로 225,36.89903811,126.7033977
아산염작점,충청남도 아산시 둔포면 아산밸리동로 261-11,36.91581446,127.0682283
천안성정대현점,충청남도 천안시 서북구 봉정로 248-9,36.82397997,127.1452527
보령중앙로점,충청남도 보령시 중앙로 220,36.35607743,126.5823087
천안쌍용원룸점,충청남도 천안시 서북구 월봉6길 60-2,36.79086893,127.1177997
천안불당마블점,충청남도 천안시 서북구 불당22대로 86,36.81542578,127.108148
천안입장공단점,충청남도 천안시 서북구 입장면 외유리1길 1,36.92024458,127.2162567
건양대건양회관점,충청남도 논산시 대학로 121,36.18217579,127.1097664
홍성오관점,충청남도 홍성군 홍성읍 조양로103번길 36,36.60408133,126.6621351
아산배방점,충청남도 아산시 배방읍 북수로 106,36.7736187,127.0725285
천안성환수향점,충청남도 천안시 서북구 성환읍 연암로 201,36.94359185,127.1504973
천안신풍공단점,충청남도 천안시 동남구 수신면 5산단4로 161,36.73847013,127.2686519
아산인주대로점,충청남도 아산시 인주면 서해로 590,36.87848374,126.9048885
천안불당아리스타점,충청남도 천안시 서북구 불당23로 73-30,36.82004753,127.1103922
천안문성점B,충청남도 천안시 동남구 대흥로 239,36.81231211,127.146817
아산소동점,충청남도 아산시 음봉면 연암율금로 220-4,36.86610278,127.0494745
아산문화점,충청남도 아산시 문화로 123-8,36.79100603,126.9996131
아산둔포신남점,충청남도 아산시 둔포면 윤보선로336번길 6,36.90124534,127.0149058
천안백석빌리지점,충청남도 천안시 서북구 한들1로 152-39,36.83518797,127.1202059
당진합덕운산점,충청남도 당진시 합덕읍 미락1안길 20,36.80693107,126.7666217
공주신관중앙점,충청남도 공주시 번영2로 18-4,36.46918873,127.1325387
천안불당신도시점,충청남도 천안시 서북구 불당16길 13,36.80128121,127.106239
천안신부빌리지점,충청남도 천안시 동남구 중앙로 281-62,36.82430378,127.1514591
무창포만선점,충청남도 보령시 웅천읍 열린바다2길 18,36.24612808,126.5377813
보령명천스타점,충청남도 보령시 명천로 28,36.34071932,126.6113037
당진마섬포구점,충청남도 당진시 석문면 석문방조제로 1804,37.02257524,126.5734244
금마신곡점,충청남도 홍성군 금마면 충서로 1898,36.60867017,126.7014123
서산중앙점,충청남도 서산시 읍내1로 12,36.77806146,126.451667
천안청당엔리치점,충청남도 천안시 동남구 청수7로 43,36.78621855,127.1588032
연무문화센터점,충청남도 논산시 연무읍 안심로61번길 11-38,36.12564606,127.0961743
천안성정라이프점,충청남도 천안시 서북구 성정공원6길 25,36.82872174,127.1404805
아산장재점,충청남도 아산시 배방읍 장재로 22,36.78679417,127.1103398
청양점,충청남도 청양군 청양읍 중앙로11길 2,36.45245228,126.8031135
천안쌍용충무점,충청남도 천안시 서북구 다가말3길 2,36.79739178,127.1310483
홍성신대교점,충청남도 홍성군 홍성읍 의사로 53,36.60230632,126.6710177
당진왜목점,충청남도 당진시 석문면 왜목길 45-1,37.04622471,126.5266563
아산염치로드점,충청남도 아산시 염치읍 아산로 724,36.83889076,126.9666449
보령주포사거리점,충청남도 보령시 주포면 충서로 3481,36.41620722,126.5841043
논산양지점,충청남도 논산시 연무읍 동안로 1242-2,36.12455108,127.138379
아산선장로드점,충청남도 아산시 선장면 아산만로 697,36.8014939,126.8668213
공주대중문점,충청남도 공주시 흑수골길 37,36.47330803,127.1413639
아산선문대점,충청남도 아산시 탕정면 탕정면로 114-22,36.8002678,127.0692826
천안북면점,충청남도 천안시 동남구 북면 충절로 1281,36.77062109,127.2493261
아산용화성지점,충청남도 아산시 시민로 292,36.77569423,126.9962723
아산신항빌리지점,충청남도 아산시 둔포면 해위안길 67-2,36.89552052,127.0244263
천안성정센터점,충청남도 천안시 서북구 성정공원5로 26,36.82768508,127.140436
당진신성대원룸점,충청남도 당진시 정미면 대학로 28-4,36.85070892,126.5991733
운정IC점,충청남도 당진시 신평면 북부산업로 71-4,36.88763472,126.8106691
예산고덕중앙점,충청남도 예산군 고덕면 고덕중앙로 72,36.7458824,126.7042099
아산배방사랑점,충청남도 아산시 배방읍 배방로187번길 22,36.7723846,127.0668305
서천청소년수련관점,충청남도 서천군 장항읍 장항산단로34번길 52-6,36.02374492,126.66679
천안다가점,충청남도 천안시 동남구 다가말2길 54,36.797838,127.1378786
천안입장점,충청남도 천안시 서북구 입장면 입장로 149-1,36.91463285,127.2221162
천안백석타운점,충청남도 천안시 서북구 백석로 130,36.82235031,127.1256212
천안신부휴먼시아점,충청남도 천안시 동남구 방죽안1길 9,36.82125756,127.1539475
푸르지오점,충청남도 서산시 호수공원11로 12,36.77233719,126.4473465
논산건양대점,충청남도 논산시 은진면 와야길 10,36.18035537,127.1122105
부여중앙점,충청남도 부여군 부여읍 중앙로 8,36.28052733,36.28052733
대산한성점,충청남도 서산시 대산읍 정자동5로 33,36.94019894,126.426581
천안상명대점,충청남도 천안시 동남구 상명대길 34,36.83247382,127.1765928
서산고북점,충청남도 서산시 고북면 고북1로 306,36.66818916,126.5328331
천안백석공단점,충청남도 천안시 서북구 백석공단1로 101,36.83130497,127.105845
보령동대센터점,충청남도 보령시 작은오랏3길 46,36.34569711,126.6046205
건양대정문점,충청남도 논산시 은진면 대학로 122,36.18043799,127.111198
천안신부중앙점,충청남도 천안시 동남구 먹거리8길 31,36.81740108,36.81740108
서산석림축복점,충청남도 서산시 한마음4로 23,36.77454149,126.4567784
병천중앙점,충청남도 천안시 동남구 병천면 아우내순대길 40,36.76104958,127.2994064
천안신방타운점,충청남도 천안시 동남구 통정1로 43,36.77786098,127.1294764
아산송학로드점,충청남도 아산시 송악면 외암로 501,36.69547929,126.988565
천안쌍용선경점,충청남도 천안시 서북구 충무로 140-6,36.79258382,127.1230351
서산힐스테이트점,충청남도 서산시 성연면 성연3로 76,36.82597539,126.4497717
계룡금암점,충청남도 계룡시 서금암3길 16-13,36.27250175,127.2566382
서산삼길포점,충청남도 서산시 대산읍 삼길포4길 8-13,37.00204253,126.4521469
계룡로드점,충청남도 논산시 연산면 계백로 2736,36.25166007,127.2288509
천안입장거봉점,충청남도 천안시 서북구 입장면 입장로 128,36.91247901,127.2221044
천안성정5단지점,충청남도 천안시 서북구 성정12길 17,36.81461553,127.1400666
예산간양로드점,충청남도 예산군 예산읍 충서로 1606,36.73714537,126.8576687
천안성정빌리지점,충청남도 천안시 서북구 성정중5길 13,36.82784487,127.1351319
부여점,충청남도 부여군 부여읍 사비로100번길 4,36.28145051,126.9107508
공주교동점,충청남도 공주시 용당길 34,36.45890456,127.1212735
천안신방엔리치점,충청남도 천안시 동남구 통정6로 32,36.77437736,127.1374357
청양주차장공주방면,충청남도 청양군 목면 서천공주고속도로 50,36.39910308,126.9927424
아산신남로드점,충청남도 아산시 둔포면 아산호로 900-1,36.9187028,127.0011574
예산신례원점,충청남도 예산군 예산읍 신례원로 199-6,36.7270065,126.844508
서산호수타운점,충청남도 서산시 호수공원7로 37,36.77158797,126.451394
천안두정원룡점,충청남도 천안시 서북구 두정고2길 72,36.83850709,127.1328593
아산테크노밸리1호점,충청남도 아산시 둔포면 아산밸리로 298,36.91437412,127.0626907
아산신창창조점,충청남도 아산시 신창면 순천향로 47-25,36.7738565,126.9351898
천안영성제일점,충청남도 천안시 동남구 큰시장길 42,36.80187281,127.1513256
천안성정SK점,충청남도 천안시 서북구 도원2길 38,36.82202901,127.1346706
서산센트리아빌점,충청남도 서산시 한마음16로 26,36.77318377,126.4583962
천안목천세광점,충청남도 천안시 동남구 목천읍 충절로 687,36.77021048,127.1894912
당진고점,충청남도 당진시 백암로 219-16,36.89090178,126.6241409
천안불당씨티점,충청남도 천안시 서북구 불당6길 9,36.80300084,127.110836
서산한서대점,충청남도 서산시 해미면 대곡2길 63,36.69142743,126.5817595
천안풍세점,충청남도 천안시 동남구 풍세면 통미2길 69,36.75821017,127.1275257
보령대청점,충청남도 보령시 대청로 132,36.35326007,126.6094321
서산예천로드점,충청남도 서산시 양열로 267,36.76171156,126.4472248
아산아이파크점,충청남도 아산시 남부로 321-8,36.77276398,127.0165969
보령휴게소점,충청남도 보령시 미산면 만수로 969,36.29687265,126.6599305
서천한산점,충청남도 서천군 한산면 한산모시길 37-2,36.08505253,126.8030672
천안두정누리점,충청남도 천안시 서북구 두정로 98,36.83374784,127.1277785
천안성남점,충청남도 천안시 동남구 성남면 신사대화로 154,36.74206415,127.2368056
천안신방민준점,충청남도 천안시 동남구 통정9로 28,36.77314391,127.128936
천안한성점,충청남도 천안시 서북구 두정역길 23,36.83531055,36.83531055
논산강경타운점,충청남도 논산시 강경읍 여강로 1318,36.15278322,127.011771
천안연곡점,충청남도 천안시 서북구 입장면 연곡길 622,36.95513832,36.95513832
당진신평행운점,충청남도 당진시 신평면 북부산업로 258,36.90380465,126.8083423
천안입장신덕점,충청남도 천안시 서북구 입장면 입장로 29,36.90411344,127.218924
천안해피트리점,충청남도 천안시 동남구 다가말2길 70,36.79749753,36.79749753
천안두정제스점,충청남도 천안시 서북구 두정상가8길 62,36.83187224,127.1449855
아산염치송곡점,충청남도 아산시 염치읍 은행나무길215번길 29-2,36.80054549,127.0120957
대천광장타운점,충청남도 보령시 머드로 47,36.30967446,126.5154176
천안꿈에그린점,충청남도 천안시 서북구 성거읍 신월길 20,36.87281703,127.1494646
예산능금휴게소점,충청남도 예산군 응봉면 충서로 281,36.66480561,126.7721709
장항행복점,충청남도 서천군 장항읍 장서로 48,36.0120372,126.6987347
공주신관하나점,충청남도 공주시 신관로 28,36.47064834,127.1312504
당진휴먼빌점,충청남도 당진시 무수동옛길 99,36.89141609,126.6359225
천안대로,충청남도 천안시 서북구 성환읍 천안대로 2052,36.92163606,127.1349829
아산도고온천점,충청남도 아산시 도고면 기곡로62번길 21-11,36.76263902,126.8861871
천안광덕점,충청남도 천안시 동남구 광덕면 광풍로 999,36.7123969,127.1156532
천안봉명희망점,충청남도 천안시 동남구 개목7길 9,36.81508888,127.1320363
서산읍내캐슬점,충청남도 서산시 안견로 365-9,36.77745598,126.442561
서산부석점,충청남도 서산시 부석면 취평2길 1,36.71231202,126.3922023
장항타운점,충청남도 서천군 장항읍 장항로 145,36.01157062,126.6939503
천안신계점,충청남도 천안시 동남구 목천읍 충절로 769,36.76834525,127.1974973
서산석남마음점,충청남도 서산시 한마음8로 36,36.77331975,126.4598497
쌍용건국점,충청남도 천안시 서북구 쌍용13길 6-2,36.7997538,127.1189305
천안라이크텐,충청남도 천안시 서북구 천안천4길 20,36.80880079,127.143505
천안서북구청점,충청남도 천안시 서북구 성거읍 봉주로 72-1,36.87717985,127.1546883
당진송악드림점,충청남도 당진시 송악읍 부곡공단2길 15,36.94465254,126.7852193
천안이랜드점,충청남도 천안시 동남구 풍세면 풍세산단3로 111,36.7315683,127.0992777
보령봉황점,충청남도 보령시 봉황로 118,36.35974617,126.5961248
천안두정해링턴점,충청남도 천안시 서북구 봉정로 324,36.83117462,127.1482331
행복날개주유소점,충청남도 아산시 배방읍 온천대로 1829,36.77324793,127.0394314
아산산동사랑점,충청남도 아산시 음봉면 월산로 270,36.84930254,127.0976854
보령대해로점,충청남도 보령시 대해로 228,36.33748507,126.5761631
서산동문으뜸점,충청남도 서산시 시장6로 36,36.78274929,126.4580702
공주VIP점,충청남도 공주시 소학동길 179,36.45238055,127.1487454
아산모종타운점,충청남도 아산시 모종남로 81,36.78074968,127.0277315
서산동문프라임점,충청남도 서산시 안견로 91,36.79044039,126.4549583
서산간월도점,충청남도 서산시 부석면 간월도2길 74-21,36.6071308,126.4155131
당진합덕중앙점,충청남도 당진시 합덕읍 당진3거리길 1,36.80941189,126.7721069
예산예덕로점,충청남도 예산군 덕산면 예덕로 57,36.70843847,126.6721805
서산음암로점,충청남도 서산시 음암면 음암로 578,36.79066504,126.5237225
아산봉재희망점,충청남도 아산시 둔포면 충무로 1179,36.87830468,127.0294463
서산예천중흥점,충청남도 서산시 예천5로 32,36.76383208,36.76383208
당진송산로드점,충청남도 당진시 송산면 송산로 882,36.96484299,36.96484299
천안불당지웰점,충청남도 천안시 서북구 불당26로 77,36.81614825,36.81614825
서산핫플레이스점,충청남도 서산시 예천1로 3-57,36.76754413,36.76754413
계룡이편한점,충청남도 계룡시 두마면 사계로 51,36.27059773,36.27059773
천안성정제일점,충청남도 천안시 서북구 성정중7길 8,36.8285575,127.1339917
홍성갈산로드점,충청남도 홍성군 갈산면 천수만로 727,36.5990314,126.5186203
아산배방역점,충청남도 아산시 배방읍 모산로 67,36.77387473,127.050155
천안쌍용신성점,충청남도 천안시 동남구 순천향1길 16,36.80124515,36.80124515
부여세도중앙점,충청남도 부여군 세도면 세도중앙로 5,36.16942043,126.9483053
동학사학봉점,충청남도 공주시 반포면 계룡대로 1404,36.36065876,127.2518339
부여장암점,충청남도 부여군 장암면 충절로 1906,36.24175973,36.24175973
천안풍세산단점,충청남도 천안시 동남구 풍세면 풍세산단4로 12-1,36.72546024,36.72546024
금산추부다복점,충청남도 금산군 추부면 다복로 600-3,36.18380761,36.18380761
보령초전항점,충청남도 보령시 오천면 원산도5길 89-5,36.37966342,36.37966342
천안성정베스트점,충청남도 천안시 서북구 서부12길 29,36.82065715,36.82065715
대구월성효성점,대구광역시 달서구 학산로7길 71,35.8346129,128.5305939
대구K병원점,대구광역시 북구 칠곡중앙대로 355,35.92737431,128.5472813
대구범어성조점,대구광역시 수성구 국채보상로 846,35.86630197,128.6229335
대구카네기점,대구광역시 수성구 청수로 114,35.8398695,128.6205461
오리온스점,대구광역시 북구 대구체육관로 40,35.89245788,128.6035878
대구신매중앙점,대구광역시 수성구 신매로 7,35.83036329,128.7065707
달성구지점,대구광역시 달성군 구지면 창리로11길 54,35.65930906,128.4137291
대구동천역점,대구광역시 북구 팔거천서로 147,35.937632,128.5549771
대구스타디움점,대구광역시 수성구 유니버시아드로 140,35.83167359,128.6873346
대구신원설점,대구광역시 달서구 조암로5길 14,35.82383617,128.5278217
대구검사점,대구광역시 동구 동촌역사로 19,35.88874505,128.6534248
대구노변점,대구광역시 동구 송라로13길 10-5,35.87392039,128.6172567
대구칠곡화성점,대구광역시 북구 팔거천동로24길 40,35.93171994,128.5606764
대구경대원룸점,대구광역시 북구 경대로23길 100-4,35.89287897,128.6165066
대구종로2가점,대구광역시 중구 종로 37,35.8692189,128.5914964
대구신매프라임점,대구광역시 수성구 달구벌대로649길 14,35.83891859,128.7123804
경대행복점,대구광역시 동구 경대로 84,35.88806584,128.6165247
대구칠곡점,대구광역시 북구 태전로 57,35.92526549,128.5432553
대구반고개점,대구광역시 달서구 달구벌대로 1868,35.86099914,128.5690359
대구호산점,대구광역시 달서구 호산동로36북길 36,35.85163562,128.4866773
신암3호점,대구광역시 동구 아양로 30,35.8815712,128.6175265
대구송현원룸점,대구광역시 달서구 중흥로4길 117,35.82831793,128.551437
대구평리롯데캐슬점,대구광역시 서구 통학로 120-1,35.87104048,128.5631721
대구메디파크점,대구광역시 달서구 용산로 139,35.84989243,128.5301421
통일로점,대구광역시 북구 중앙대로 505,35.87817867,128.5950184
금호LH점,대구광역시 북구 내곡로 81,35.90183018,128.5127411
대구현대점,대구광역시 중구 달구벌대로415길 5,35.86664063,128.5897609
대구동인중앙점,대구광역시 중구 경상감영길 298,35.87063764,128.6034445
대구대봉점,대구광역시 중구 대봉로 192,35.85592383,128.6024915
대구논공센터점,대구광역시 달성군 논공읍 논공로9길 94,35.72897341,35.72897341
대구칠곡이편한점,대구광역시 북구 칠곡중앙대로 598,35.94950974,128.5533642
대구대현대로점,대구광역시 북구 대현로 43,35.88512425,128.6047616
대구화물터미널점,대구광역시 달서구 월곡로99길 29,35.83189785,128.5207581
대구성서이곡점,대구광역시 달서구 성서로 414,35.85444154,35.85444154
대구범어푸르지오점,대구광역시 수성구 상록로 15,35.86110075,128.6230478
대구범어드림점,대구광역시 수성구 범어로 76,35.85609501,128.6357411
대구감삼드림점,대구광역시 달서구 와룡로 169,35.84873799,128.5364004
대구진천귀빈점,대구광역시 달서구 월배로24길 78,35.81220065,128.5297144
대구지묘점,대구광역시 동구 파계로22길 33,35.94189614,128.6399078
대구산격대로점,대구광역시 북구 동북로 113,35.90227731,128.6063544
대구엑스코점,대구광역시 북구 엑스코로 10,35.90711922,128.613094
월배점,대구광역시 달서구 월배로 162,35.81648242,128.5316573
대구봉무대로점,대구광역시 동구 팔공로 263,35.92235101,128.6407919
대구본리유림점,대구광역시 달서구 와룡로 67,35.8388154,128.5361676
삼환나우빌점,대구광역시 동구 동부로 81,35.87578426,128.621114
대구현풍대로점,대구광역시 달성군 현풍읍 비슬로 570,35.69025342,128.4463393
대구용계대로점,대구광역시 동구 반야월로 45,35.87402745,128.6934588
대구서변월드점,대구광역시 북구 서변로 26,35.91881707,128.5972395
대구현풍점,대구광역시 달성군 현풍읍 현풍중앙로 21,35.69136964,128.4467322
대구성서체육공원점,대구광역시 달서구 선원로23길 33,35.86078867,128.5052242
대구앞산드림점,대구광역시 남구 큰골길 179,35.83515174,128.585377
달성유가골드점,대구광역시 달성군 유가읍 테크노중앙대로1길 36-1,35.67370515,128.4557913
문화센터점,대구광역시 동구 아양로24길 13,35.88414956,128.6278468
대구의료원정문점,대구광역시 서구 평리로 144,35.85847315,128.5402416
대구보훈병원점,대구광역시 달서구 월곡로 60,35.80289893,128.5517481
대구국우점,대구광역시 북구 구리로34길 53,35.94743416,128.576882
대구대천중앙점,대구광역시 달서구 조암남로 101,35.81939829,35.81939829
현풍IC점,대구광역시 달성군 구지면 테크노순환로 12,35.67281312,128.4485067
신천동로점,대구광역시 수성구 신천동로 146,35.83798043,128.6074698
계대원룸점,대구광역시 달서구 달구벌대로203길 58,35.85561444,128.4789625
대구지저중앙점,대구광역시 동구 공항로53길 19,35.89518507,128.6425446
대구복현점,대구광역시 북구 경진로 7,35.8957034,128.6141026
달성구지대로점,대구광역시 달성군 구지면 과학마을로 34,35.6555572,35.6555572
대구대명캠프조지점,대구광역시 남구 이천로19길 51-2,35.84971232,128.5955363
대구성서체육공원점,대구광역시 달서구 선원로23길 31,35.86068953,128.5052236
대구대명서부점,대구광역시 남구 대명복개로 21,35.83966019,128.5604154
범어센터점,대구광역시 수성구 청솔로 48,35.85073789,128.6208522
대천점,대구광역시 달서구 성서4차첨단로 109,35.82483037,128.5126106
대구장기센터점,대구광역시 달서구 용산로 49,35.84170719,128.5304086
서대구점,대구광역시 서구 국채보상로46길 14,35.86937148,128.5557632
중리롯데캐슬점,대구광역시 서구 국채보상로34길 12,35.86543373,128.5476856
진천리슈빌점,대구광역시 달서구 진천로 77,35.81647442,128.5211332
신천부띠끄점,대구광역시 동구 동부로22길 14,35.87550367,128.6265493
대구용산별빛점,대구광역시 달서구 선원로55길 25,35.85999058,128.5232227
대백아울렛점,대구광역시 동구 동대구로 454,35.87110639,128.6263264
동구입석동,대구광역시 동구 동촌역사로3길 34,35.89035636,128.6504807
각산대로점,대구광역시 동구 경안로 847,35.87791092,128.7136707
대구봉덕별빛점,대구광역시 남구 봉덕로1길 34,35.84692931,128.5914637
대구온누리점,대구광역시 북구 경진로 53,35.89290905,128.6176699
대구경대원룸점,대구광역시 북구 경대로23길 83-4,35.89291912,128.6157094
대구현풍대로점,대구광역시 달성군 현풍읍 비슬로 575,35.69017643,128.4452229
영남대병원본관점,대구광역시 남구 현충로 170,35.84768598,128.5841849
대구교대역점,대구광역시 남구 중앙대로 192,35.85032095,128.5909243
대구숙천점,대구광역시 동구 초례로 66,35.88166614,128.7526004
대구사월점,대구광역시 수성구 달구벌대로 3280,35.83672292,35.83672292
대구삼덕2가점,대구광역시 중구 공평로8길 44,35.86638912,128.6023049
대구대명빌리지점,대구광역시 남구 앞산순환로79길 29,35.8335019,128.5685628
대명별빛점,대구광역시 남구 큰골길 42,35.83714136,128.578407
대구지산타운점,대구광역시 수성구 동대구로8길 19,35.83391602,35.83391602
대구월배역점,대구광역시 달서구 월배로 162,35.81648242,128.5316573
대구엘크루점,대구광역시 동구 안심로7길 7,35.87272171,35.87272171
경대별빛점,대구광역시 북구 산격로8길 34,35.8935483,128.6089795
대구구암점,대구광역시 북구 구암로65길 52,35.94173508,35.94173508
유가센트럴풍경채점,대구광역시 달성군 유가읍 테크노대로 165,35.69133889,128.4643883
대구경대원룸점,대구광역시 북구 경대로23길 83-4,35.89288318,128.6156869
용산제일점,대구광역시 달서구 용산큰못길 29,35.86020721,128.5272766
옥포공단점,대구광역시 달성군 옥포읍 본리로 42,35.79085049,128.4589484
대구신남역점,대구광역시 중구 달성로 1,35.865209,128.5820657
대구범어중앙점,대구광역시 수성구 달구벌대로480길 22,35.8586539,128.6238701
대구삼덕스타점,대구광역시 중구 달구벌대로447길 43,35.86448679,128.6077827
대구산대점,대구광역시 수성구 달구벌대로528길 11,35.85535237,128.6498846
대구시청점,대구광역시 중구 경상감영길 233,35.87165444,128.6001854
대구보강병원점,대구광역시 달서구 월배로 102,35.81346407,128.5252522
대구동변그린점,대구광역시 북구 동변로 55,35.91679922,128.602432
대구침산무지개점,대구광역시 북구 침산로21길 10,35.8871222,128.5890378
대구입석점,대구광역시 동구 아양로 332,35.89369486,128.6447923
서호타운점,대구광역시 동구 경안로101길 6,35.86741458,128.7130008
대구상인별빛점,대구광역시 달서구 월곡로53길 87,35.81542272,128.5348483
대구내당드림점,대구광역시 서구 서대구로11길 9,35.86241548,128.5552828
대구만촌오성점,대구광역시 수성구 청호로96안길 51,35.85547092,128.6462873
대구하빈동곡점,대구광역시 달성군 하빈면 달구벌대로55길 104,35.87839645,35.87839645
대구진천하늘채점,대구광역시 달서구 상화로7길 43,35.80930173,128.520688
대구대곡래미안점,대구광역시 달서구 상화로 86,35.8066068,128.5227506
대구금호이편한점,대구광역시 북구 내곡로 49,35.9002779,128.5089756
연경아이파크점,대구광역시 동구 동화천로 369,35.94504229,128.6295695
세천삼정그린,대구광역시 달성군 다사읍 세천북로 20,35.87682125,128.4793227
입석중앙점,대구광역시 동구 동촌로 39-1,35.89017442,128.6474553
대구동성로타운점,대구광역시 중구 동성로2길 18-19,35.86668422,128.5973575
대구신천중앙점,대구광역시 동구 동부로30길 86,35.86930913,128.6287485
대구화원태왕점,대구광역시 달성군 화원읍 성화로 14,35.80086235,128.4913906
대구대신이편한점,대구광역시 중구 달구벌대로 1943,35.86359407,128.5767832
대구안지랑로점,대구광역시 남구 안지랑로 51,35.83608541,128.5711603
대구유니드점,대구광역시 남구 희망로 35,35.84784777,128.60253
대구본리원룸점,대구광역시 달서구 와룡로17길 23,35.8403329,128.5354361
대구영선타운점,대구광역시 남구 중앙대로50길 37-3,35.85296891,128.5931471
대구동천점,대구광역시 북구 동천로 97,35.94172443,128.5587631
논공금포점,대구광역시 달성군 논공읍 비슬로 1779-1,35.77398358,128.4202617
대구만촌삼정점,대구광역시 수성구 교학로 66,35.84941151,128.6517624
아양교점,대구광역시 동구 아양로 246-1,35.88692453,128.640008
편의점,대구광역시 중구 중앙대로66길 20,35.86171929,128.5934448
산격대우점,대구광역시 북구 동북로서37길 14,35.89967944,128.612095
대구상인센터점,대구광역시 달서구 상인서로10길 29,35.81595349,35.81595349
대구침산제일점,대구광역시 북구 침산로 236,35.89721438,128.5895667
진천스타점,대구광역시 달서구 월배로28길 28,35.81487451,128.5304182
대구안심유쉘점,대구광역시 동구 금강로21길 10,35.86601086,128.7335729
대구여상점,대구광역시 남구 삼각지4길 42,35.85138809,128.584666
대구효목빌리지점,대구광역시 동구 화랑로25길 40,35.87729142,128.6413259
대구침산쌍용예가점,대구광역시 북구 성북로9길 15,35.8928155,128.5878172
대구북구청역점,대구광역시 서구 원대로13길 2,35.88321436,128.5808351
대구대명프린스점,대구광역시 남구 중앙대로49길 80,35.85542858,128.585991
대구메트로팔레스,대구광역시 수성구 화랑로12길 8,35.87099252,128.6342876
동변타운점,대구광역시 북구 동변로23길 13-26,35.91978313,128.6023216
대구삼익스타점,대구광역시 서구 평리로42길 30,35.85878221,128.5476288
서한이스테이점,대구광역시 동구 혁신대로 504,35.87445795,128.7522332
칠곡중앙대로점,대구광역시 북구 칠곡중앙대로 211,35.91487836,35.91487836
대구세천풍경채점,대구광역시 달성군 다사읍 세천남로 36,35.87117664,35.87117664
대구중동효성점,대구광역시 수성구 수성로38길 13,35.8426014,128.6133498
대구평리점,대구광역시 서구 국채보상로42길 28,35.86780015,128.5544677
봉산문화점,대구광역시 중구 봉산문화길 76,35.8633683,128.5971665
대구성당래미안점,대구광역시 달서구 장기로 192,35.84373096,128.5394552
신천역점,대구광역시 동구 송라로 92,35.87526199,128.6175218
대구상인원룸점,대구광역시 달서구 월곡로51길 42,35.81607006,128.5372319
대구신천자이점,대구광역시 동구 신암로16길 25,35.87563962,128.6124194
대구오페라점,대구광역시 북구 침산로21길 41,35.88623608,128.5859299
대구화성드림점,대구광역시 수성구 달구벌대로 2692,35.85405355,128.6550333
대구상리점,대구광역시 서구 가르뱅이로 70,35.88333822,128.5306861
대구만촌송은점,대구광역시 수성구 무열로29길 19,35.87143022,128.6468598
달성옥포점,대구광역시 달성군 옥포읍 비슬로 2283,35.79045274,128.4709048
대구관음서한점,대구광역시 북구 관음중앙로 6,35.93440321,128.5456008
대구다사역점,대구광역시 달성군 다사읍 다사역로 39,35.86559485,128.4574522
대구송현드림점,대구광역시 달서구 송현로8길 29,35.82319955,128.5492103
대구호국로점,대구광역시 북구 호국로 808,35.95759594,35.95759594
신서혁신점,대구광역시 동구 첨단로8길 16,35.87863027,128.7319283
대구대곡스타점,대구광역시 달서구 상화로8길 26,35.80814902,128.5162766
효목대로점,대구광역시 동구 효동로 79,35.88357098,128.643503
성서모다점,대구광역시 달서구 성서공단로15길 5,35.83550542,128.4902205
대구남부이월점,대구광역시 남구 대명로 235,35.84178187,128.5824148
대구감삼중앙점,대구광역시 달서구 감삼남길 17,35.84751282,128.5382742
대구이천점,대구광역시 남구 명덕로64길 2,35.85466921,128.6046409
신암큰고개점,대구광역시 동구 아양로34길 10,35.88467274,128.6312068
두산스타,대구광역시 수성구 상화로 105,35.83532757,128.6186512
대구빛날희점,대구광역시 수성구 수성로69길 5,35.85526541,128.6132702
대구참사랑범어점,대구광역시 수성구 동대구로73길 15,35.86305237,128.6255987
대구만촌타운점,대구광역시 수성구 국채보상로 1050,35.86702389,128.6449748
대구신암큰고개점,대구광역시 동구 아양로34길 10,35.88464576,128.6311956
대구복현동진점,대구광역시 북구 경진로1길 26,35.89597355,128.6159103
대구지산대로점,대구광역시 수성구 지범로 72,35.82574181,35.82574181
학정대로점,대구광역시 북구 학정로 553,35.95407721,128.5654348
대구논공중앙점,대구광역시 달성군 논공읍 논공중앙로30길 10,35.72821476,128.4521443
대구태전스타점,대구광역시 북구 칠곡중앙대로53길 14,35.91901097,128.5451073
대명로점,대구광역시 남구 대명남로 144,35.83505303,128.5740751
서재1리점,대구광역시 달성군 다사읍 서재본길 16,35.8723567,128.4956079
논공러블리점,대구광역시 달성군 논공읍 논공로 790,35.72829858,128.4417097
태전드림점,대구광역시 북구 구암로16길 12-1,35.93130545,128.5489485
대구한양아이클래스점,대구광역시 달서구 장기로 228,35.84408231,128.5354613
달성옥포점,대구광역시 달성군 옥포읍 비슬로 2289,35.79069384,128.4714815
대구우방강촌점,대구광역시 동구 화랑로80길 45,35.87533028,128.6654964
대구율하드림점,대구광역시 동구 율하동로15길 37,35.86753158,128.6976765
대구메가타워점,대구광역시 달성군 현풍면 테크노대로 61,35.6895679,128.4537049
대구만촌드림점,대구광역시 수성구 교학로 13,35.85361081,35.85361081
대구중앙파출소점,대구광역시 중구 남성로 62,35.86713681,128.5933302
대구검단스타점,대구광역시 북구 유통단지로13길 46,35.91117878,128.6070538
대구죽곡원룸점,대구광역시 달성군 다사읍 대실역남로2길 12,35.85105474,128.4672551
노원스타점,대구광역시 북구 오봉로 89,35.8956119,128.5780567
대구산격타운점,대구광역시 북구 산격로 5,35.89100836,128.6050611
대구침산점,대구광역시 북구 침산남로19길 6,35.88962,128.5869628
검단공단점,대구광역시 북구 검단로 135,35.90874313,128.6215598
대구도원스타점,대구광역시 중구 태평로 56,35.87661074,128.583921
율하광장점,대구광역시 동구 안심로22길 40,35.86342414,128.6956806
대구침산드림점,대구광역시 북구 침산남로32길 12,35.88693582,128.5921155
대구두류은하점,대구광역시 달서구 야외음악당로39길 63,35.85445634,128.5534226
대구대곡점,대구광역시 달서구 비슬로 2724,35.80877054,128.5142668
효목타운점,대구광역시 동구 효신로16길 35,35.87892278,128.6328335
대구논공드림점,대구광역시 달성군 논공읍 논공로5길 38,35.72803306,128.4379057
대구내당중앙점,대구광역시 서구 서대구로10길 6,35.86292982,35.86292982
대구논공드림점,대구광역시 달성군 논공읍 북리1길 15,35.72853089,128.4519692
신천본점,대구광역시 동구 동대구로85길 64,35.87599161,128.6245819
대구황금복개로점,대구광역시 수성구 범어천로 13,35.84815587,128.6234115
대구다온점,대구광역시 남구 현충로 198,35.85022345,128.5813473
대구계대별빛점,대구광역시 달서구 서당로3길 45,35.85317858,128.4928978
별빛중앙점,대구광역시 북구 산격로 33,35.89357696,128.6050917
대구산격수정점,대구광역시 북구 대불서길 36,35.90260397,128.6130259
대구읍내센터점,대구광역시 북구 팔거천서로 247,35.94510118,128.5536106
앞산만남의광장점,대구광역시 남구 앞산순환로 463,35.83236007,128.5755388
대구북현풍대로점,대구광역시 달성군 현풍면 비슬로 734,35.70211269,128.4396867
대구대봉타운점,대구광역시 중구 동덕로 33,35.85761114,128.6039215
대구율금점,대구광역시 동구 안심로16길 71,35.86198832,128.6930328
진천대영점,대구광역시 달서구 진천로10길 48,35.81205392,128.5261835
대구프라점,대구광역시 중구 동덕로8길 31,35.8597582,128.6053328
대구대곡천년나무점,대구광역시 달서구 갈밭로 33,35.80273019,128.5291315
삼성라이온즈파크1호,대구광역시 수성구 야구전설로 1,35.84114508,128.6812506
대명행복점,대구광역시 남구 명덕시장길 53,35.84532493,128.5859499
대구수성드림점,대구광역시 수성구 범안로 36,35.81709018,128.6399893
대구복현원룸점,대구광역시 북구 경대로23길 7,35.89036499,128.6181264
대구본동제일점,대구광역시 달서구 구마로12길 43,35.83519232,128.5340844
대구동천드림점,대구광역시 북구 동천로 126,35.94267815,128.5610531
대구두류스타점,대구광역시 달서구 야외음악당로47길 152,35.85899399,128.5641941
대구각산혁신점,대구광역시 동구 과학로 23,35.88216448,128.7152926
대구송현여고점,대구광역시 달서구 송현동길 87,35.83065853,128.5461405
대구범물스타점,대구광역시 수성구 지범로46길 37,35.81468712,128.6427143
본동주공점,대구광역시 달서구 송현로 113,35.82713801,128.5433384
대구대명드림점,대구광역시 남구 대경1길 1,35.84796524,128.5729835
대구지산스타점,대구광역시 수성구 범안로3길 87,35.82011928,128.6364722
대구진천원룸점,대구광역시 달서구 진천로3길 21,35.8100312,128.5249751
대구신서화성점,대구광역시 동구 반야월북로 221,35.87409449,128.7233595
대구현풍중리점,대구광역시 달성군 현풍면 현풍중앙로10길 62,35.69518387,128.4487534
대구산업정보대점,대구광역시 수성구 달구벌대로528길 8,35.8559471,128.6499116
대구월배역점,대구광역시 달서구 월배로 162,35.81648242,128.5316573
호산원룸점,대구광역시 달서구 달구벌대로199길 42,35.85508963,128.4772101
대구이현대로점,대구광역시 서구 북비산로 106,35.87844467,128.544641
화원대로점,대구광역시 달성군 화원읍 비슬로520길 4,35.80377347,128.5001826
대구푸드애비뉴점,대구광역시 동구 동내로 76,35.87784811,128.7360298
대구이곡센터점,대구광역시 달서구 이곡서로 7,35.85388072,128.5061215
대구대현드림점,대구광역시 북구 대현로 95,35.88264796,128.6096492
대구공업대학교점,대구광역시 달서구 구마로 146,35.83677279,128.5434373
대구계명문화대학점,대구광역시 달서구 선원로 2,35.8591017,35.8591017
대구성서공단센터점,대구광역시 달서구 성서공단로22안길 8,35.83410572,128.4952592
대구성서이앤씨점,대구광역시 달서구 달서대로 559,35.84953631,128.4909157
대구대명푸른빛점,대구광역시 남구 대경길 210,35.84606231,128.5769884
대구본리스타점,대구광역시 달서구 대명천로41길 9,35.84076222,128.5381953
대구교동수현점,대구광역시 중구 교동2길 31,35.87294559,128.5979249
달성구지원룸점,대구광역시 달성군 구지면 과학마을로4길 57,35.65487437,128.4189411
대구삼덕중앙점,대구광역시 중구 국채보상로150길 58,35.86587848,128.6106169
대구운암공원점,대구광역시 북구 구암로 232,35.93207205,128.5663087
대구대명점,대구광역시 남구 대명로 317,35.84556615,128.5900698
대구달성2차산단점,대구광역시 달성군 구지면 달성2차동2로 38,35.63291357,128.4251088
성서계대점,대구광역시 달서구 서당로9길 55,35.8560734,128.4925171
달성구지청아람점,대구광역시 달성군 구지면 과학마을로2길 25,35.65368592,35.65368592
대구성서호림점,대구광역시 달서구 성서공단로15길 35,35.83829966,128.4901934
남대구원룸점,대구광역시 달서구 구마로9길 14,35.83809351,128.5322996
죽전점,대구광역시 달서구 와룡로 267,35.85666682,128.5370406
대구대명베스트점,대구광역시 남구 현충로25길 39,35.84394054,128.5777479
두류역사점,대구광역시 서구 달구벌대로 1760,35.85808955,128.5571349
황실점,대구광역시 동구 동부로 72,35.87502195,128.6203771
대구용산햇빛점,대구광역시 달서구 선원로53길 6,35.85922129,128.5218779
대구영진전문대점,대구광역시 북구 복현로 25-1,35.89452668,128.6238191
대구대명팰리스점,대구광역시 남구 대명로 83,35.83971052,128.5669799
대구신월성푸르지오점,대구광역시 달서구 조암로 14,35.82597963,35.82597963
동촌광장점,대구광역시 동구 효동로6길 57,35.88326161,128.6490714
대구호산삼성점,대구광역시 달서구 호산로 126,35.85003552,35.85003552
대구죽곡삼정점,대구광역시 달성군 다사읍 다사로 50,35.86453013,128.4601146
대구북부점,대구광역시 서구 서대구로 303-10,35.88490799,128.5562594
대구송현빌리지점,대구광역시 달서구 월배로83길 55,35.83189894,128.5488718
대구남산대로점,대구광역시 중구 중앙대로 299,35.86014979,128.5918609
대구범어드림점,대구광역시 수성구 범어로 74,35.85590592,128.6357063
지산황금점,대구광역시 수성구 동대구로14길 14,35.83693522,128.6249841
대구황금힐스테이트점,대구광역시 수성구 청호로 229,35.83823691,128.6396831
가창로망스점,대구광역시 달성군 가창면 가창로220길 21,35.80291464,128.6241089
올브랜드점,대구광역시 북구 유통단지로 52-20,35.90482215,128.6092985
대구수성로데오점,대구광역시 수성구 달구벌대로504길 15,35.8571987,128.6383739
대구연경우방점,대구광역시 북구 연경중앙로11길 33,35.94579585,128.6146008
노원3가점,대구광역시 북구 노원로1길 102,35.89664501,128.5693352
대구대명대덕점,대구광역시 남구 대명로36길 50,35.83722214,128.5747216
논공점,대구광역시 달서구 평리로 98-3,35.85857676,128.5352155
동촌유원지1호점,대구광역시 동구 효동로2길 29,35.88090348,128.6517877
대구두류로마점,대구광역시 달서구 장기로 25,35.84112944,128.5565181
송현별빛,대구광역시 달서구 월배로69길 39,35.82740609,128.5458415
대구태전원룸점,대구광역시 북구 태암로5길 3-2,35.92905343,128.5506396
대구서구프리미엄점,대구광역시 서구 북비산로 308-1,35.87921547,128.5670065
대구만촌제일점,대구광역시 수성구 만촌로 27,35.86144728,128.6444978
서대구공단점,대구광역시 서구 국채보상로 15,35.86879059,128.5327816
대구극동스타점,대구광역시 중구 남산로 44-11,35.8607233,128.5833284
대구옥포산단점,대구광역시 달성군 옥포읍 시저로 4,35.77986729,128.4310331
대구뉴웰시티점,대구광역시 동구 동화천로77길 30,35.94027248,128.6333555
대구사수점,대구광역시 북구 한강로6길 3,35.89682376,128.5157994
대구호산에이스점,대구광역시 달서구 호산동로 86,35.84277791,128.4860919
대구신매신화점,대구광역시 수성구 달구벌대로650길 15,35.83685627,128.7105688
대구진천AK점,대구광역시 달서구 월배로11길 33,35.81473626,128.5166291
대구구병원점,대구광역시 달서구 감삼북길 136,35.85113079,128.541476
대구신매스타점,대구광역시 수성구 달구벌대로645길 11,35.84024977,128.7098021
대구고성북로점,대구광역시 북구 고성북로 2,35.88012337,128.5825845
명곡미래빌1단지점,대구광역시 달성군 화원읍 명곡로 9,35.79891263,128.4964679
대구팔공로점,대구광역시 동구 팔공로 499,35.94297891,128.6464116
다사역삼정그린점,대구광역시 달성군 다사읍 매곡로14길 8,35.8662559,128.4542669
대구칠곡목련점,대구광역시 북구 대천로 9,35.93849046,128.5505831
대구캠프워커점,대구광역시 남구 삼정3길 1,35.83983008,128.5944662
대구광장타운점,대구광역시 서구 달구벌대로 1707,35.85770585,128.5523934
수성알파시티1호점,대구광역시 수성구 알파시티2로 24,35.83958838,128.6918417
대구청아람점,대구광역시 동구 신성로 49-1,35.87991448,128.6119097
대구대동병원점,대구광역시 동구 화랑로 169,35.87641215,128.6439434
대구수성동아점,대구광역시 수성구 용학로 316,35.82241299,128.6424335
월성점,대구광역시 달서구 월곡로94길 30,35.83113762,35.83113762
대구남산롯데캐슬점,대구광역시 중구 재마루길 77,35.86406878,35.86406878
대구중리진달래점,대구광역시 서구 국채보상로38길 46-1,35.86573452,128.5528588
대구만촌동원점,대구광역시 수성구 동원로 52,35.86358225,128.6396542
대구수성동일하이빌점,대구광역시 수성구 수성로 74,35.83190332,35.83190332
수성골드클래스점,대구광역시 수성구 수성로 185,35.84200375,128.6121276
대구상인파크점,대구광역시 달서구 상인서로 20,35.81277571,35.81277571
대구도남4차점,대구광역시 북구 도남중앙로8길 8,35.95137239,128.5844374
대구성서산업단지역점,대구광역시 달서구 성서로 371,35.85069585,35.85069585
신도점,대전광역시 대덕구 우암로 409,36.35505985,127.4545589
대전롯데본점,대전광역시 서구 도솔로 388,36.34087011,127.3885535
보건대점,대전광역시 동구 충정로 21,36.35050565,127.4559053
호동점,대전광역시 중구 모암로 4,36.3040717,127.4497254
대전대흥자이점,대전광역시 중구 수도산로 40,36.32104221,127.4285569
대전산성로점,대전광역시 중구 보문산로 111,36.30552597,127.3926822
대전중리2호점,대전광역시 대덕구 한밭대로1149번길 35,36.36069464,127.4261166
유성죽동점,대전광역시 유성구 죽동로279번길 53-4,36.37138817,127.3397815
대전자양우송점,대전광역시 동구 동대전로 174-7,36.33715021,127.4482897
한남대육교점,대전광역시 대덕구 한남로88번길 5,36.35082589,127.4186464
관저점,대전광역시 서구 관저북로 12,36.30278041,127.3372983
대전탄방산호점,대전광역시 서구 계룡로571번길 65,36.34381696,127.386748
유성장대인산점,대전광역시 유성구 문화원로 49,36.36006015,127.3415263
대전관평점,대전광역시 유성구 테크노1로 12-22,36.43010643,127.387609
대전둔산스카이점,대전광역시 서구 둔산로 130,36.35097106,127.3881514
대전으능정이점,대전광역시 중구 대흥로165번길 41,36.32666829,127.4290282
대전괴정희망점,대전광역시 서구 괴정로 58,36.34056722,127.3804906
대전낭월석천점,대전광역시 동구 산내로1257번길 67,36.27655972,127.4664144
대전용문파크점,대전광역시 서구 계룡로636번길 22,36.33833541,127.3916589
대전괴정타운점,대전광역시 서구 도솔로305번길 63,36.33788414,127.3792642
대전대흥중앙점,대전광역시 중구 인창로 2,36.32163598,127.4302232
대전은행본점,대전광역시 중구 대전천서로 445,36.32855456,127.4295825
대전와동현대점,대전광역시 대덕구 신탄진로232번길 10,36.40073344,127.4235035
선화점,대전광역시 중구 대종로505번길 22,36.32897788,127.4238878
대전석봉등마루점,대전광역시 대덕구 대덕대로1593번길 69,36.45346824,127.4241845
대전정림우성점,대전광역시 서구 정림로 66,36.30618608,127.3653407
대전용전원룸점,대전광역시 동구 한밭대로1254번길 50,36.35394993,127.4348679
대전문지효성점,대전광역시 유성구 문지로299번길 135,36.39380137,127.4066328
대전둔산향촌점,대전광역시 서구 둔산로 14,36.35217577,36.35217577
만년제일점,대전광역시 서구 둔산대로117번길 29,36.36636895,127.3820356
대전도마삼정점,대전광역시 서구 도산로167번길 76,36.32385994,127.3739403
대전월평제일점,대전광역시 서구 한밭대로707번길 25,36.35905305,127.3772576
대전용전미소점,대전광역시 동구 한밭대로1254번길 81,36.35257149,127.434967
갈마점,대전광역시 서구 갈마로 127,36.34177783,127.3724156
유성도안점,대전광역시 유성구 봉명서로 43-4,36.34645135,127.3415295
대전둔산청솔점,대전광역시 서구 둔산로 234,36.35104801,127.3997712
도마2호점,대전광역시 서구 배재로 91,36.31676096,127.3710571
대전법동유원점,대전광역시 대덕구 계족로663번길 22,36.3707413,127.427525
자양삼성점,대전광역시 동구 백룡로57번길 113,36.33818921,127.4508
신탄진원룸점,대전광역시 대덕구 신탄진동로24번길 16,36.44706177,127.4319846
대전산성중앙점,대전광역시 중구 당디로50번길 35,36.31000918,127.395242
신성스타점,대전광역시 유성구 신성남로95번길 74,36.38790486,127.3490719
대전은행로점,대전광역시 중구 대종로488번길 8,36.32809036,127.4267457
한남대학사점,대전광역시 동구 한남로 16,36.35125179,127.426587
우리자운대점,대전광역시 유성구 자운로245번길 52,36.4154231,127.343111
대전유천타운점,대전광역시 중구 유천로17번길 60,36.31352636,127.3956937
대전봉산점,대전광역시 유성구 봉산로40번길 20,36.43740461,127.3872506
갈마원룸점편의점,대전광역시 서구 갈마중로42번길 56,36.34496402,127.3733258
대전만년강변점,대전광역시 서구 만년로 20,36.36719771,127.3750309
둔산타운점,대전광역시 서구 둔산로 32-30,36.35060453,127.3765227
신탄진원룸점,대전광역시 대덕구 벚꽃길 128,36.4270141,127.4235992
갈마로점,대전광역시 서구 갈마로 125,36.34193103,36.34193103
충남대의대후문점,대전광역시 중구 문화로270번길 42,36.31585367,127.4142177
대전탄방중앙점,대전광역시 서구 탄방로 50-30,36.34224334,127.3909713
대전가양점,대전광역시 동구 동서대로1748번길 160,36.34877864,127.4507367
대전복수예미지점,대전광역시 서구 복수동로 21-19,36.30265607,127.3796325
신탄진IC점,대전광역시 대덕구 덕암로 233,36.44132897,127.424263
대전읍내현대점,대전광역시 대덕구 계족로761번길 50,36.37885226,127.4237208
대전테크노월드2호점,대전광역시 유성구 배울1로 147,36.4163537,127.3964926
대전법동점,대전광역시 대덕구 동춘당로 165,36.3676864,127.4332642
대전대덕문평점,대전광역시 대덕구 대덕대로1417번길 50,36.44866542,127.4059476
홍도원룸점,대전광역시 동구 계족로423번길 17,36.34959672,127.4310334
대전중촌점,대전광역시 중구 목중로26번길 55,36.33786667,127.4132732
대전신도점,대전광역시 대덕구 우암로 394,36.35400923,127.4554019
대전목상다사랑점,대전광역시 대덕구 대덕대로1470번길 68,36.44640405,127.4115535
배재대스마트관점,대전광역시 서구 배재로 155-40,36.32323271,127.3660823
대전대덕석봉점,대전광역시 대덕구 석봉로 31,36.44753442,127.4252881
대전송촌본점,대전광역시 대덕구 동서대로1777번길 31,36.35492118,127.442092
대전도안삼거리점,대전광역시 서구 원도안로241번길 8-34,36.32577063,127.346994
대전오정공단점,대전광역시 대덕구 한남로 152,36.34722351,127.4136486
대전유성노은주공점,대전광역시 유성구 지족로148번길 40,36.37616681,127.3051808
대전둔산한사랑점,대전광역시 서구 문예로 63,36.35227763,127.3898681
대전용전해피점,대전광역시 동구 계족로443번길 21,36.3513629,127.430976
대전와동공단점,대전광역시 대덕구 신탄진로 354,36.41142975,127.4250747
대전대사황제점,대전광역시 중구 계룡로921번길 32,36.32151931,127.4172381
대전선화수정점,대전광역시 중구 선화서로 25,36.32609653,127.4188524
도룡라파예트점,대전광역시 유성구 엑스포로151번길 19,36.3761527,127.3953879
대전석봉중앙점,대전광역시 대덕구 대덕대로 1600,36.45013139,127.4255813
대전하나점,대전광역시 중구 계룡로830번길 16,36.32615471,127.4068454
대전우리자운대점,대전광역시 유성구 자운로221번길 62,36.41467829,127.342058
대전덕명점,대전광역시 유성구 덕명로71번길 6-22,36.3581548,127.3073911
탄방점,대전광역시 서구 계룡로583번길 6,36.34239424,127.3887532
송강중앙점,대전광역시 유성구 봉산로 52,36.43785758,127.3859532
충남대사랑점,대전광역시 유성구 한밭대로 404,36.36183202,36.36183202
만년점,대전광역시 서구 만년남로 9,36.3660783,127.3763993
대전대학교점,대전광역시 동구 대학로 62,36.33660338,127.4587869
대전용문타운점,대전광역시 서구 괴정로 181,36.33325748,127.3908964
대전판암주공점,대전광역시 동구 동구청로204번길 34,36.31568311,127.458319
유성반석사랑점,대전광역시 유성구 반석동로34번길 50,36.39076924,127.3149494
대동본점,대전광역시 동구 동대전로 88-3,36.33031574,127.44376
대전뉴둔산대덕점,대전광역시 서구 대덕대로234번길 21,36.35379089,127.3809429
대전나룻터점,대전광역시 중구 계룡로874번길 12,36.32335174,127.4104751
카이스트점,대전광역시 유성구 어은로52번길 30,36.36394797,127.3587321
용문스타점,대전광역시 서구 괴정로 163,36.33499388,127.3903037
대전새미래점,대전광역시 유성구 은구비남로 34,36.3697914,127.3186326
대전태평대로점,대전광역시 중구 계백로 1567,36.31787169,36.31787169
충남대정문점,대전광역시 유성구 대학로 86,36.36107843,127.3447826
대전둔산사랑점,대전광역시 서구 둔산중로46번길 30,36.35058588,127.3886112
대전비래본점,대전광역시 대덕구 비래동로 14,36.355183,127.4499675
대전법동영진점,대전광역시 대덕구 아리랑로 213,36.37439853,127.4271416
유성봉명로데오점,대전광역시 유성구 온천북로33번길 35-17,36.35837069,127.3456967
유성터미널점,대전광역시 유성구 장대로 54,36.35985168,127.3364248
호동점,대전광역시 중구 모암로 4,36.30403489,127.4495586
대전관저중앙점,대전광역시 서구 관저중로96번길 76,36.29999626,127.3390587
대전신탄센터점,대전광역시 대덕구 신탄진로796번길 11,36.44871026,36.44871026
유성청구나래점,대전광역시 유성구 엑스포로 501,36.40224572,127.4029565
서대전역점,대전광역시 중구 오류로 31,36.32318425,127.403961
유성도룡행복점,대전광역시 유성구 대덕대로590번길 12-13,36.38499397,127.379581
대전오정중앙점,대전광역시 대덕구 오정로78번길 76,36.35561006,127.412817
유성디티비안S점,대전광역시 유성구 테크노중앙로 50,36.42627371,127.3906502
유성상대센터점,대전광역시 유성구 상대로 40,36.34774488,127.3374968
유성문지점,대전광역시 유성구 엑스포로446번길 20,36.39584457,127.4061045
유성엑스포3단지점,대전광역시 유성구 엑스포로 448,36.40020378,127.4073534
유성좋은하루점,대전광역시 유성구 온천로107번길 15,36.35498603,127.3497361
대전공단점,대전광역시 대덕구 산업단지로87번길 116,36.43096189,127.4071085
대전신탄대로점,대전광역시 대덕구 신탄진로844번길 2,36.45268047,36.45268047
대전구암점,대전광역시 유성구 유성대로694번길 34,36.35474413,127.3336381
대전월평사랑점,대전광역시 서구 월평서로6번길 71,36.35497467,127.3626831
대전신탄상서점,대전광역시 대덕구 벚꽃길 141,36.42642742,127.4252876
대전자양센터점,대전광역시 동구 충정로139번길 24,36.34163541,127.4495838
대전복수점,대전광역시 서구 오량2길 3,36.31002216,36.31002216
대전용전대로점,대전광역시 동구 계족로 507,36.35702128,127.4325615
대전월평제일점,대전광역시 서구 월평북로 27,36.36250091,127.3713467
대전봉산원룸점,대전광역시 유성구 봉산로16번길 27,36.43597041,127.3887676
대전대하늘점,대전광역시 동구 새울로109번길 46,36.32862073,127.4593322
갈마2점,대전광역시 서구 갈마중로 7,36.34766863,127.3700622
원흥로점,대전광역시 유성구 원신흥남로42번길 6-22,36.33506918,127.3383727
대전테크노월드2호점,대전광역시 유성구 테크노2로 187,36.42387094,127.405657
대전둔산남로점,대전광역시 서구 둔산남로105번길 28,36.35025687,127.3894828
대전원내점,대전광역시 유성구 원내로 23,36.30004158,127.3182376
대전덕암점,대전광역시 대덕구 덕암로234번길 38,36.44050089,127.426355
대전북유성대로점,대전광역시 유성구 북유성대로 155,36.3802243,127.3227769
대전신탄정류소점,대전광역시 대덕구 신탄진로 606,36.43254886,127.4238372
대전태평드림점,대전광역시 중구 태평로 133,36.32857823,127.3958782
대전원신흥중앙점,대전광역시 유성구 원신흥남로 43,36.3362655,127.3379504
대전안영IC점,대전광역시 중구 대둔산로 157,36.28546139,127.3764179
대전도마중앙점,대전광역시 서구 사마1길 41,36.31644173,127.3754919
대전용운로점,대전광역시 동구 용운로 105,36.32790269,127.4540354
대전유천점,대전광역시 중구 유천로33번길 98,36.31436977,127.3931704
대전전민빌리지점,대전광역시 유성구 유성대로1689번길 16,36.40036919,127.3971848
대전보건대카페점,대전광역시 동구 충정로 38,36.34818671,127.4553087
대전낭월중앙점,대전광역시 동구 산내로 1329,36.28197888,127.4669897
대전안영점,대전광역시 중구 대둔산로 227,36.29048636,127.3808422
대전비래서로점,대전광역시 대덕구 비래서로 8,36.35526123,127.4454433
대전대서문원룸점,대전광역시 동구 대학로 62-29,36.33643353,127.457106
갈마공원점,대전광역시 서구 신갈마로 248,36.35553554,127.3698762
대전판암으뜸점,대전광역시 동구 판암로 37,36.31806092,127.4639823
대전관저하늘점,대전광역시 서구 관저남로25번길 8-4,36.29512183,127.3376748
와동현대점,대전광역시 대덕구 신탄진로232번길 12,36.40076134,127.4236817
대전천동점,대전광역시 동구 대전로542번길 80-71,36.31614542,127.4470903
한남대원룸점,대전광역시 대덕구 홍도로73번길 52,36.35423745,36.35423745
대전용문무지개점,대전광역시 서구 도산로370번길 20,36.33667389,127.3927969
대전월평로점,대전광역시 서구 월평로14번길 7,36.35527198,127.3592935
대전탄방하늘점,대전광역시 서구 남선로23번길 30,36.34636677,127.3954511
대전선병원점,대전광역시 중구 목중로 29,36.33593299,127.4104249
대전성모오거리점,대전광역시 중구 대흥로 69,36.32394316,127.4208397
대전메가박스점,대전광역시 중구 중앙로 126,36.32764514,127.4241203
대전관저대자연점,대전광역시 서구 관저북로51번길 7-3,36.30622063,127.3368349
대전보라공원점,대전광역시 대덕구 한밭대로1129번길 43,36.36099832,127.4236741
대전월평진달래점,대전광역시 서구 월평동로 45,36.35864104,127.3657508
대전대사럭키점,대전광역시 중구 충무로 4,36.31800866,127.4181106
대전성남점,대전광역시 동구 동서대로1572번길 157,36.34172294,127.4335972
갈마2점,대전광역시 서구 신갈마로 168-10,36.34859059,127.3688626
대전문화우리점,대전광역시 중구 과례로 38,36.31157601,127.4112208
전민점,대전광역시 유성구 전민로70번길 46,36.39880205,127.402771
대전호텔그레이톤점,대전광역시 서구 둔산중로 70,36.35286742,127.3871227
둔산수정점,대전광역시 서구 대덕대로185번길 27,36.35030318,127.3757675
장대점,대전광역시 유성구 온천서로 38,36.35771773,127.3400418
대전테크노월드점,대전광역시 유성구 테크노8로 44,36.42218657,127.4022351
대전중리점,대전광역시 대덕구 중리로 71,36.36547448,127.4249115
대전괴정힐링점,대전광역시 서구 계룡로 574-1,36.34189047,127.3871753
대전변동스타점,대전광역시 서구 배재로233번길 23-3,36.32927939,127.3693526
대전유성명월점,대전광역시 유성구 덕명로 97,36.35659484,127.3088088
대전도안우리점,대전광역시 서구 원도안로179번길 76-3,36.31869021,127.3443245
유성구암대로점,대전광역시 유성구 월드컵대로 299,36.34882118,127.3333209
대전내동스타점,대전광역시 서구 동서대로1021번길 13,36.33269256,127.3757298
대전지족타운점,대전광역시 유성구 은구비남로7번길 50,36.37453027,36.37453027
대전동아아트점,대전광역시 동구 충정로 96-1,36.34491247,127.4527469
대전죽동예미지점,대전광역시 유성구 죽동로298번길 62,36.36930349,127.3360213
대전성모병원점,대전광역시 중구 대흥로66번길 19,36.32300659,127.4209914
대전오룡성공점,대전광역시 중구 계룡로 786,36.32889008,127.4041403
대전가장점,대전광역시 서구 도산로314번길 20,36.33322643,36.33322643
대전제이파크점,대전광역시 유성구 진잠로149번길 24,36.30503401,36.30503401
대전내동도야지점,대전광역시 서구 도솔로 279,36.33419131,127.3797056
대전문화삼성점,대전광역시 중구 보문산로161번길 56,36.30767211,127.3982554
대전원신흥아트점,대전광역시 유성구 원신흥로55번길 6-95,36.33928914,127.3436618
대전침례대정문점,대전광역시 유성구 송림로 51,36.38736752,127.3237292
대전선화더샵점,대전광역시 중구 보문로337번길 39,36.33249265,127.4164323
유성신시외터미널점,대전광역시 유성구 유성대로 699,36.35630336,127.330427
대전괴정중앙점,대전광역시 서구 괴정로 77,36.34010093,127.3826888
대전덕암본점,대전광역시 대덕구 덕암북로22번길 50,36.44520049,127.4216131
대전변동화랑점,대전광역시 서구 중반7길 99,36.32671155,127.3868152
대전산성타운점,대전광역시 중구 대둔산로385번길 28,36.3041428,127.3847984
대전월평시티점,대전광역시 서구 월평서로25번길 41,36.35422382,127.3554359
대전갈마화랑점,대전광역시 서구 신갈마로211번길 58,36.35333644,127.3647576
대전중리신선점,대전광역시 대덕구 계족로564번길 30,36.36210712,127.4331486
대전센텀시티점,대전광역시 중구 중앙로138번길 48,36.32631964,127.4258565
대전부사신일점,대전광역시 중구 사득로 42-5,36.31028713,127.4354949
대전도마유천점,대전광역시 서구 제비네10길 69,36.31357226,36.31357226
대전신성산단점,대전광역시 유성구 유성대로1184번길 8,36.39392164,36.39392164
대전송촌사랑점,대전광역시 대덕구 동춘당로15번길 51,36.35863355,36.35863355
대전지족리슈빌점,대전광역시 유성구 지족로 351,36.38712401,127.3157839
대전도안파크점,대전광역시 서구 원도안로207번길 8-8,36.32256413,36.32256413
대전문화마음점,대전광역시 중구 계백로1660번길 67,36.31722621,127.4056212
봉명타운점,대전광역시 유성구 계룡로88번길 50,36.35183813,127.3394118
대전바로세움점,대전광역시 유성구 계룡로 142,36.35199242,36.35199242
포천소흘점,경기도 포천시 소흘읍 죽엽산로 3,37.82746186,127.1493268
평내CM타워점,경기도 남양주시 경춘로1308번길 2,37.65006093,127.2379795
평택서재3호점,경기도 평택시 서재5길 25-11,37.008359,127.0935278
용인언남동일점,경기도 용인시 기흥구 구성로 105-15,37.29478242,127.1253487
오산중앙점,경기도 오산시 오산로 283,37.15226327,127.0684871
파주삽다리점,경기도 파주시 교하로 407,37.70661119,126.7332884
세종점,경기도 군포시 산본천로 34-46,37.3577209,126.9289383
하남덕풍점,경기도 하남시 대청로 62,37.5399431,127.2186653
안양관양점,경기도 안양시 동안구 관악대로 285,37.40303188,126.9547124
안성대림타운점,경기도 안성시 공도읍 대림동산길 101,37.01714734,127.1977429
안산삼일로점,경기도 안산시 단원구 보배4길 1,37.33020564,126.8285185
평택지산점,경기도 평택시 지산천로 61,37.08211624,127.0599547
김포북변본점,경기도 김포시 북변중로 46,37.62572695,126.7115753
안산광덕로점,경기도 안산시 상록구 광덕산로 37,37.33289658,126.8456062
양주신산점,경기도 양주시 남면 개나리길 69,37.89618491,126.9744852
안산한양대점,경기도 안산시 상록구 한양대학로 60,37.30083056,126.8376256
시흥정왕희망점,경기도 시흥시 군서로 60,37.3468939,126.7459594
가평유명산점,경기도 가평군 설악면 유명산길 69,37.59571203,127.4911563
안산사동중앙점,경기도 안산시 상록구 네고지3길 15,37.29676579,126.8504446
오산원동제일점,경기도 오산시 밀머리로 23,37.13984017,127.07465
평택소사푸르지오점,경기도 평택시 평남로 996,37.00766592,127.1019295
김포하성점,경기도 김포시 하성면 애기봉로 848-1,37.7195053,126.6317801
처인김량장점,경기도 용인시 처인구 금령로27번길 6,37.23521109,127.1992586
송산화성로점,경기도 화성시 송산면 화성로 290,37.20338087,126.7256617
용현신도점,경기도 의정부시 용현로 62,37.7400607,127.0829436
양주고읍현대점,경기도 양주시 고덕로 340-12,37.80206499,127.0766928
평택신장제일점,경기도 평택시 신장로100번길 1,37.08432249,127.049591
이천증포본점,경기도 이천시 애련정로 204,37.28730247,127.454072
용인역북점,경기도 용인시 처인구 명지로 15-8,37.23441602,127.1896763
이동점,경기도 포천시 이동면 장암1길 13,38.03554997,127.3667611
백석나들점,경기도 고양시 일산동구 중앙로 1048,37.64295873,126.7867758
화성마도산단점,경기도 화성시 남양읍 장덕북길82번길 16-30,37.16457612,126.8074806
용인백암사거리점,경기도 용인시 처인구 백암면 죽양대로 1172,37.16923971,127.3776763
안성제3산업단지점,경기도 안성시 서운면 제3공단1길 68-27,36.97342006,127.2682856
안산본오월드점,경기도 안산시 상록구 샘골로 182,37.30006409,126.8635462
광릉수목원점,경기도 포천시 소흘읍 광릉수목원로 546,37.7630417,127.1699157
용인수지동천점,경기도 용인시 수지구 손곡로 82,37.33734939,127.0929747
의왕고천점,경기도 의왕시 경수대로 257,37.3491788,37.3491788
화성봉담로드점,경기도 화성시 봉담읍 삼천병마로 975,37.19481568,126.9390835
서현1호점,경기도 성남시 분당구 황새울로330번길 16,37.38477361,127.1216734
S신흥역점,경기도 성남시 수정구 산성대로 204-2,37.43757215,127.1406853
가평운악청계점,경기도 가평군 조종면 운악청계로 127,37.8316412,127.3450603
하남천현점,경기도 하남시 신장로 54-1,37.53524529,127.2113935
백석동문오피스점,경기도 고양시 일산동구 호수로 358-25,37.63991594,126.7861568
강남대타운점,경기도 용인시 기흥구 강남동로 20,37.26963498,127.1280751
교하동문굿모닝힐점,경기도 파주시 청석로 350,37.73306594,126.720075
이천휴게소점,경기도 이천시 부발읍 중부대로 1701-12,37.2893188,127.4941516
성남시티홀점,경기도 성남시 중원구 여수대로 200,37.42134556,127.1249521
화성상리점,경기도 화성시 봉담읍 상봉길 35-29,37.21815078,126.9518832
수원정자중앙점,경기도 수원시 장안구 수성로275번길 28,37.29171381,127.0017285
파주적성터미널점,경기도 파주시 적성면 청송로 1028,37.95463441,126.9193958
안성죽산휴게소점,경기도 안성시 죽산면 서동대로 6521,37.06971775,127.3809532
역곡희망점,경기도 부천시 부일로779번길 3,37.48784073,126.8154546
용인금학점,경기도 용인시 처인구 금학로383번길 18,37.23922301,127.2062491
남양주북한강점,경기도 남양주시 화도읍 북한강로 1546,37.64661442,127.3650575
포천고모리,경기도 포천시 소흘읍 죽엽산로 294,37.80664468,127.1639087
화성독정점,경기도 화성시 장안면 수정로 114,37.07714679,126.8572889
용인보정점,경기도 용인시 기흥구 죽현로 8-22,37.31976443,127.1089478
한국민속촌점,경기도 용인시 기흥구 민속촌로 85,37.25675232,127.113918
기흥강남점,경기도 용인시 기흥구 강남서로67번길 1,37.27679828,127.1292442
송담신도시점,경기도 평택시 안중읍 송담9길 74,36.98222322,126.9347529
평택라마다점,경기도 평택시 포승읍 평택항로184번길 3-24,36.97669327,126.8426531
병점주공점,경기도 화성시 병점3로 74,37.20931559,127.0406801
동탄에일린점,경기도 화성시 동탄기흥로353번길 77,37.19025896,37.19025896
양평대리점,경기도 양평군 청운면 설악로 257,37.5691208,127.7319291
전대타운점,경기도 용인시 처인구 포곡읍 전대로49번길 16,37.28341344,127.2184946
오산대역점,경기도 오산시 내삼미로79번길 52,37.16954946,127.0654262
용인경찰대점,경기도 용인시 기흥구 언남로29번길 7,37.29365266,127.1285537
을지대을지관점,경기도 성남시 수정구 산성대로 553,37.46096793,127.1651277
안성내리펠리스점,경기도 안성시 대덕면 내리9길 5-3,37.00033843,127.2203339
수원영통영일점,경기도 수원시 영통구 청명남로4번길 28,37.24952271,127.0746744
안양관양소망점,경기도 안양시 동안구 관악대로374번길 19-6,37.40329446,126.9651001
동탄능동점,경기도 화성시 동탄숲속로 103,37.20719865,127.0587321
안양근명점,경기도 안양시 만안구 삼덕로 54,37.39398029,126.9200766
양평단월점,경기도 양평군 단월면 단월로 53,37.54066237,127.6769669
평택신장점,경기도 평택시 쇼핑로 2,37.0801446,127.050003
의정부안골점,경기도 의정부시 호국로 1147,37.74305273,127.0312121
금정3호점,경기도 군포시 군포로707번길 3,37.36830391,126.9444692
동탄AP점,경기도 화성시 동탄기흥로 147-13,37.17285128,127.0902265
동탄지성점,경기도 화성시 동탄중심상가2길 26-15,37.20659106,127.0742525
신흥소망점,경기도 성남시 수정구 탄리로 8,37.438165,127.1404299
광명타운점,경기도 광명시 광명로 823,37.47293664,37.47293664
용인죽전꽃메점,경기도 용인시 수지구 대지로 84,37.32924406,127.1173891
용인상현심곡점,경기도 용인시 수지구 수지로 75,37.30897957,37.30897957
부천고강중앙점,경기도 부천시 성지로 86,37.52638464,126.8116211
김포제일점,경기도 김포시 돌문로 62,37.62008818,126.7166793
안양3호점,경기도 안양시 만안구 양화로 32,37.39649587,126.9143484
시흥신천점,경기도 시흥시 호현로22번길 14,37.44122374,37.44122374
일산오렌지주유소점,경기도 고양시 일산동구 백마로 49,37.64389549,126.7607443
동천유타워점,경기도 용인시 수지구 신수로 767,37.33853147,127.1014584
용인흥덕점,경기도 용인시 기흥구 흥덕2로117번길 23,37.27784588,127.0714523
이천오엔씨점,경기도 이천시 마장면 중부대로 566,37.25516567,127.3994488
부천심곡점,경기도 부천시 부일로 448,37.48596736,126.7801152
수원중앙병원점,경기도 수원시 권선구 권선로 654,37.25997136,127.0225866
가능태양점,경기도 의정부시 흥선로15번길 54,37.74857096,127.0327969
시흥정왕1호점,경기도 시흥시 중심상가로 317,37.33757687,126.747649
곡선로점,경기도 수원시 권선구 곡선로50번길 35,37.23720029,127.0291018
성남양지점,경기도 성남시 수정구 산성대로 479,37.45455796,37.45455796
평택신장점,경기도 평택시 쇼핑로 13,37.08074684,127.0509403
평택비전타운점,경기도 평택시 평택5로 228,36.99974956,127.1013485
화정명지병원점,경기도 고양시 덕양구 화수로14번길 62,37.64192429,126.8297592
진건중학교점,경기도 남양주시 진건읍 진건오남로 44,37.65476731,127.1793164
향남발안원룸점,경기도 화성시 향남읍 발안공단로6길 34,37.08162885,126.9044588
평택송화점,경기도 평택시 팽성읍 부용로 36,36.96304762,127.0596351
경기광주초월본점,경기도 광주시 초월읍 동막골길 3,37.37724434,127.3175178
평내리치점,경기도 남양주시 경춘로1350번길 35,37.65033833,127.2432803
안산다문화점,경기도 안산시 단원구 다문화1길 30,37.33054923,126.7901366
용인남곡점,경기도 용인시 처인구 양지면 남곡로 40,37.23017724,127.2827386
양평본점,경기도 양평군 양평읍 양근로190번길 2,37.48960662,127.4902146
수원북문점,경기도 수원시 장안구 팔달로 271,37.28954007,37.28954007
경기광주수양점,경기도 광주시 곤지암읍 신만로 85,37.3357026,127.3898591
구미송정드림점,경기도 광주시 파발로 103,37.41350432,127.2591689
남양주평내점,경기도 남양주시 의안로240번길 29,37.64790368,127.2458094
평택이충원룸점,경기도 평택시 서정역로36번길 85,37.05768378,127.0607059
양주용암점,경기도 양주시 은현면 화합로 1166,37.84902131,127.0445306
양주어하고개점,경기도 양주시 어하고개로 94,37.81371164,127.1054408
안양호계임광,경기도 안양시 동안구 경수대로797번길 5,37.3908023,126.9453396
용인단국사랑점,경기도 용인시 수지구 죽전로144번길 7-2,37.32324817,127.1241727
의정부종합운동장점,경기도 의정부시 진등로19번길 35,37.75973293,127.0304045
일산산들마을점,경기도 고양시 일산서구 일중로 27,37.682008,126.7745197
일산동중앙점,경기도 고양시 일산서구 일중로 71,37.68586242,126.7752045
광주공설운동장점,경기도 광주시 파발로 163,37.41426471,127.252564
시흥오이도길점,경기도 시흥시 오이도로135번길 4,37.34806179,126.6891241
한국민속촌점,경기도 용인시 기흥구 민속촌로 87,37.25697934,127.1141521
광주양벌점,경기도 광주시 오포읍 마루들길 248,37.37761172,127.2587881
의정부시티점,경기도 의정부시 평화로 559-1,37.74197129,127.0466572
안성대림중앙점,경기도 안성시 공도읍 가족공원길 52,37.01472965,127.2080843
소사국민체육센터점,경기도 부천시 소사로 108,37.46827719,126.7983092
동두천스파월드점,경기도 동두천시 삼육사로 1042,37.89895983,127.065364
안산시곡점,경기도 안산시 상록구 시곡1길 17,37.29446759,126.8569083
안산화정로점,경기도 안산시 단원구 화정천서로7안길 2,37.34719131,126.8177131
안양석수현대점,경기도 안양시 만안구 안양로532번길 12,37.41614809,126.9075126
안양로점,경기도 안양시 만안구 장내로139번길 52,37.39987001,126.9216976
망월사점,경기도 의정부시 평화로 220,37.71164499,127.0480326
백석복지점,경기도 양주시 백석읍 꿈나무로 325,37.78222375,126.9824986
양주광사점,경기도 양주시 부흥로 1896,37.79181578,127.074947
파장본점,경기도 수원시 장안구 파장천로12번길 39,37.30598605,126.9962945
평택대로점,경기도 평택시 중앙로 90,36.99348546,127.0928955
화성장안점,경기도 화성시 장안면 기아자동차로 809,37.07722407,126.8137647
분당정자점,경기도 성남시 분당구 느티로77번길 3,37.36877752,127.1129635
부천어울림점,경기도 부천시 소사로819번길 33,37.52937232,126.8023303
본원길점,경기도 안산시 상록구 본원로2길 3,37.29231885,126.8611476
오산궐동점,경기도 오산시 궐리사로46번길 15,37.15960355,127.0566205
벽제점,경기도 고양시 덕양구 호국로 1436,37.68092678,126.8958414
오산궐동원룸점,경기도 오산시 대호로 141,37.16289749,127.0538436
김포걸포점,경기도 김포시 걸포로10번길 26,37.63275299,126.7081118
안산신길점,경기도 안산시 단원구 신길로 85,37.33786048,37.33786048
분당정자본점,경기도 수원시 장안구 수성로275번길 54,37.29260832,127.0009498
가평청심점,경기도 가평군 설악면 신천중앙로 149,37.67739491,127.487436
마석우리점,경기도 남양주시 화도읍 맷돌로91번길 13,37.65894035,127.3012222
연천전곡대로점,경기도 연천군 전곡읍 평화로 712,38.03361409,127.0644415
안산신길위너스점,경기도 안산시 단원구 중앙대로 415,37.33029024,37.33029024
평택동삭원룸점,경기도 평택시 서재1길 62,37.0122685,127.1004483
화성비봉기운점,경기도 화성시 비봉면 비봉로89번길 1,37.23496753,126.8717367
평촌엠파이어점,경기도 안양시 동안구 시민대로 383,37.39679902,126.9724741
안성폴리텍점,경기도 안성시 공도읍 송원길 41-12,37.00850205,127.1762036
안산본오이호점,경기도 안산시 상록구 이호로 40,37.28693175,126.8612852
안양성결대학점,경기도 안양시 만안구 성결대학로 27,37.38245677,126.9311046
시화유통상가점,경기도 시흥시 공단1대로 204,37.33770106,126.7246935
영통매영로점,경기도 수원시 영통구 매영로425번길 16,37.24943274,127.0781585
안양중앙로점,경기도 안양시 만안구 안양로 343,37.40201137,126.9183914
안성금광점,경기도 안성시 금광면 삼흥로 1,36.99953638,127.3263125
하남엠코점,경기도 하남시 위례광장로 265,37.47611082,127.1444048
군포주공점,경기도 군포시 용호2로 61,37.34556499,126.9439186
경기광주송정현대점,경기도 광주시 중앙로187번길 11,37.41619356,127.2555047
양주정호점,경기도 양주시 평화로 1915,37.85987311,127.056164
안산예대원룸점,경기도 안산시 상록구 예술대학로 209,37.33494958,37.33494958
김포고촌신곡점,경기도 김포시 고촌읍 은행영사정로 9,37.60080164,126.7721159
청평대로점,경기도 가평군 청평면 갈오현로 10-6,37.73731029,127.4167242
용인마북래미안점,경기도 용인시 기흥구 용구대로2394번길 26,37.29883348,127.1091271
주교스타점,경기도 고양시 덕양구 고양대로 1317,37.65656724,126.83081
이패IC점,경기도 남양주시 경강로 178,37.60707983,127.1891391
마석송라점,경기도 남양주시 화도읍 마석로45번길 37,37.65494308,127.3017923
화정4호점,경기도 고양시 덕양구 화신로 267,37.63050818,126.8315583
오남한신점,경기도 남양주시 오남읍 진건오남로 546-3,37.68222874,127.2106677
안산고잔아울렛점,경기도 안산시 단원구 광덕3로 167-10,37.31324225,126.8316246
용인포곡쉐르빌점,경기도 용인시 처인구 포곡읍 포곡로 159-1,37.27321315,37.27321315
판교백화점,경기도 성남시 분당구 동판교로 122,37.3926249,127.1196393
일산호수그린점,경기도 고양시 일산동구 무궁화로 8-38,37.65978966,126.7667929
동탄센터점,경기도 화성시 지산1길 11-10,37.20722807,127.1115457
이천안흥점,경기도 이천시 영창로 286-1,37.28082484,127.4543669
수원영통자이점,경기도 수원시 영통구 태장로54번길 70,37.23582572,127.051851
남양주송촌리점,경기도 남양주시 조안면 북한강로 550,37.56810318,127.3225384
김포북변으뜸점,경기도 김포시 중구로 27,37.62349966,126.7122368
용인이동삼거리점,경기도 용인시 처인구 이동읍 묘봉로 1,37.12400398,127.2126191
구리향군회관점,경기도 구리시 안골로30번길 16,37.59649886,37.59649886
판교운중점,경기도 성남시 분당구 운중로113번길 12-1,37.39302214,127.0760416
김포마산점,경기도 김포시 김포한강7로22번길 174-26,37.64174188,126.6412638
광명하안점,경기도 광명시 안재로 5-1,37.45888573,126.8720885
의정부가능5호점,경기도 의정부시 호국로 1065,37.74226784,127.0223609
부천고강사랑점,경기도 부천시 고리울로 15,37.52770856,126.8178452
용인주북점,경기도 용인시 처인구 양지면 주북로 241,37.2465554,127.2586759
이천최고점,경기도 이천시 서희로82번길 55,37.28245546,127.4465174
철산스타힐스점,경기도 광명시 오리로 870,37.47604601,126.8659516
병점역점,경기도 화성시 떡전골로 86,37.20629883,127.0342631
용인구갈4호점,경기도 용인시 기흥구 관곡로 75,37.2819561,127.1139383
김포대곶대벽리점,경기도 김포시 대곶면 약암로 505-1,37.60361214,126.5607702
김포신일점,경기도 김포시 통진읍 김포대로 1985,37.6805088,37.6805088
의정부신곡효자점,경기도 의정부시 부용로 185,37.75153587,127.0778317
화성신남점,경기도 화성시 남양읍 남양로 618,37.1947143,126.8224829
효천재활병원점,경기도 광주시 도척면 도척로 376-47,37.31755877,127.3306603
경기광주용수점,경기도 광주시 초월읍 무들로 204,37.38027869,127.3047419
광명오리로점,경기도 광명시 오리로985번안길 23,37.479902,126.8509802
수원로얄팰리스점,경기도 수원시 권선구 금곡로 235,37.27546801,126.9558587
일산동국로점,경기도 고양시 일산동구 동국로 99,37.681032,126.8022995
김포중앙점,경기도 김포시 돌문로 98,37.62200601,126.713248
하남초이제일점,경기도 하남시 감초로 205-8,37.53143953,127.1663115
수내푸른마을점,경기도 성남시 분당구 백현로 227,37.36934607,127.1227452
덕소월문점,경기도 남양주시 와부읍 수레로 321,37.60089087,127.2422072
안양석수대림점,경기도 안양시 만안구 경수대로1201번길 14,37.41613347,126.9137487
수지고기점,경기도 용인시 수지구 고기로 436,37.36035743,127.0610784
안성서동대로점,경기도 안성시 보개면 서동대로 5675,37.0173087,127.3202895
파주광탄현대점,경기도 파주시 광탄면 큰여울길 20-16,37.77919055,126.8496437
일산아이파크점,경기도 고양시 일산서구 하이파크3로 62,37.69810692,126.7553974
남양주송산로점,경기도 남양주시 덕송2로10번길 13-6,37.66635794,127.1149654
안산고잔네오빌점,경기도 안산시 단원구 광덕2로 215,37.30981705,126.8333359
상대원금상점,경기도 성남시 중원구 금상로96번길 2,37.44224873,37.44224873
대곶점,경기도 김포시 대곶면 대곶북로 221,37.66555753,126.5795116
여주가남점,경기도 여주시 가남읍 태평로 31,37.20330849,127.5456461
신갈스카이점,경기도 용인시 기흥구 새천년로 18,37.28908119,127.1111932
안성제1공단점,경기도 안성시 공단로 107,37.01983935,127.2440495
광명프라자점,경기도 광명시 철산로30번길 9,37.47559969,126.8701528
부천소사정명고점,경기도 부천시 심곡로 97,37.47545354,126.7741472
고양원흥3단지점,경기도 고양시 덕양구 도래울로 103,37.63485016,126.871258
안성4공단점,경기도 안성시 서운면 서운로 491,36.95611269,127.2587159
군포테크노점,경기도 군포시 당산로 202-1,37.36846598,126.9404252
롯데몰수지2호점,경기도 용인시 수지구 성복2로 10,37.31317284,127.0812391
양주만송해피점,경기도 양주시 부흥로 2038-68,37.80275899,127.0836452
가평상천대로점,경기도 가평군 청평면 경춘로 1151,37.76224836,127.4403287
경기광주신현중앙점,경기도 광주시 오포읍 새말길 156,37.37202963,127.1622869
성남공단본점,경기도 성남시 중원구 둔촌대로457번길 8,37.43241086,127.1686653
경기광주오포점,경기도 광주시 오포읍 양벌로 379-1,37.3658014,127.2450068
경기광주신현제일점,경기도 광주시 오포읍 새말길 203-4,37.37584388,127.1639381
의왕금촌점,경기도 의왕시 새터말아랫로 6-2,37.32964886,126.9526833
화성독정점,경기도 화성시 장안면 수정로 116,37.07737139,126.857218
의정부가능문화점,경기도 의정부시 가능로 125,37.74710337,127.0450822
파주창만점,경기도 파주시 광탄면 만장산로 363,37.79916856,126.8741897
파주월롱산로점,경기도 파주시 월롱산로 78,37.7825116,126.7630196
안산이동중앙점,경기도 안산시 상록구 석삼말로 181,37.31155811,126.8575521
수원원천점,경기도 수원시 영통구 중부대로 293-3,37.27412323,127.047492
화성구장점,경기도 화성시 팔탄면 푸른들판로 656,37.16691042,126.8958652
안양센트럴점,경기도 안양시 만안구 태평로60번길 42,37.39639281,126.930726
수원세류본점,경기도 수원시 권선구 정조로 393-1,37.24464445,127.0139704
사동5호점,경기도 안산시 상록구 항호1길 30-12,37.28354172,126.8461914
남양주진벌리점,경기도 남양주시 진접읍 진벌로 75,37.74452913,127.2137964
용인동백중앙점,경기도 용인시 기흥구 동백중앙로 213,37.27220747,127.1509911
평택신장4호점,경기도 평택시 신장1로17번길 2,37.08198422,127.051296
시흥장곡그린점,경기도 시흥시 장곡로53번길 10,37.37764411,126.7819058
평촌효성점,경기도 안양시 동안구 시민대로 273,37.39476515,126.960395
오산희망점,경기도 오산시 경기동로 10,37.15604363,127.073687
이천중삼거리점,경기도 이천시 애련정로 49,37.27775309,127.454592
광교대학로점,경기도 수원시 영통구 대학1로 46,37.29989039,37.29989039
수원본점,경기도 수원시 장안구 수성로364번길 41,37.29181749,127.0130167
부천심곡심중로점,경기도 부천시 심중로68번길 37,37.48907469,126.773902
